# 
~VERSION INFORMATION
     VERS.                              2.0:Версия формата LAS
     WRAP.                               NO:Режим одной строчки на временной отчет
~WELL INFORMATION
     STRT.ms                       39169932:Время первой записи в файле
     STOP.ms                      115315297:Время последней записи в файле
     STEP.ms                              0:Шаг времени, 0 - переменный шаг
     NULL.                          -999.25:Метка, нет значения
     DATE.                       07.09.2023:Дата каротажа
      DRV.                                 :Наименование драйвера прибора
     NAME.                             ГГКП:Название прибора
     SNUM.                         18417002:Серийный номер прибора
     FRMW.                         0.19.7.3:Версия прошивки на контроллере прибора
~CURVE INFORMATION
     TIME.ms                       {0,11:0}:Время, количество миллисекунд от начало суток
       MT.°C                               :Температура
      TFG.°                                :Гравитационный поворот
      RSD.имп./сек                         :Счёт, ближний зонд ГГКП
      RLD.имп./сек                         :Счёт, дальний зонд ГГКП
     RHOB.кг/м3                            :Плотность
   HCRHOB.g/cm3                            :Плотность, у.е.
     ADCS.mV                               :Измеренное напряжение порога компараторапо ближнему зонду
     ADCL.mV                               :Измеренное напряжение порога компараторапо дальнему зонду
    THLDS.mV                               :Выставленный порог компараторапо ближнему зонду
    THLDL.mV                               :Выставленный порог компараторапо дальнему зонду
    GRUHV.В                                :Напряжение на высоковольтнике Гамма
~OTHER INFORMATION


~A     TIME     MT    TFG    RSD    RLD   RHOB HCRHOB   ADCS   ADCL  THLDS  THLDL  GRUHV
# ...
   44220104   70.0  334.0 1266.0 1687.0 1110.0   61.0  299.0  300.0  300.0  300.0 1500.0
   44224115   70.0  334.0 1265.0 1703.0 1100.0   60.0  299.0  299.0  300.0  300.0 1500.0
   44228117   70.0  334.0 1287.0 1647.0 1140.0   64.0  299.0  300.0  300.0  300.0 1500.0
   44232125   70.0  334.0 1271.0 1666.0 1120.0   62.0  299.0  300.0  300.0  300.0 1490.0
   44236135   70.0  334.0 1268.0 1650.0 1120.0   62.0  299.0  299.0  300.0  300.0 1500.0
   44240135   70.0  334.0 1276.0 1636.0 1140.0   64.0  299.0  300.0  300.0  300.0 1500.0
   44244143   70.0  334.0 1274.0 1672.0 1120.0   62.0  299.0  299.0  300.0  300.0 1500.0
   44248145   70.0  334.0 1275.0 1672.0 1120.0   62.0  299.0  299.0  300.0  300.0 1500.0
   44252153   70.0  334.0 1229.0 1695.0 1080.0   58.0  299.0  300.0  300.0  300.0 1500.0
   44256160   70.0  334.0 1224.0 1641.0 1100.0   60.0  299.0  299.0  300.0  300.0 1500.0
   44260169   70.0  334.0 1253.0 1642.0 1120.0   62.0  299.0  299.0  300.0  300.0 1500.0
   44264176   70.0  334.0 1290.0 1629.0 1150.0   65.0  299.0  300.0  300.0  300.0 1500.0
   44268184   70.0  334.0 1252.0 1683.0 1100.0   60.0  299.0  300.0  300.0  300.0 1500.0
   44272186   70.0  334.0 1256.0 1691.0 1100.0   60.0  299.0  300.0  300.0  300.0 1500.0
   44276205   70.0  334.0 1285.0 1672.0 1120.0   62.0  299.0  300.0  300.0  300.0 1500.0
   44280210   70.0  334.0 1229.0 1680.0 1090.0   59.0  299.0  299.0  300.0  300.0 1500.0
   44284233   70.0  334.0 1236.0 1636.0 1110.0   61.0  299.0  299.0  300.0  300.0 1500.0
   44288240   70.0  334.0 1260.0 1669.0 1110.0   61.0  299.0  299.0  300.0  300.0 1500.0
   44292257   71.0  334.0 1261.0 1650.0 1120.0   62.0  299.0  300.0  300.0  300.0 1500.0
   44296252   71.0  334.0 1245.0 1694.0 1090.0   59.0  299.0  299.0  300.0  300.0 1500.0
   44300270   71.0  334.0 1265.0 1667.0 1120.0   62.0  299.0  299.0  300.0  300.0 1500.0
   44304277   71.0  334.0 1265.0 1645.0 1130.0   63.0  299.0  300.0  300.0  300.0 1510.0
   44308291   71.0  334.0 1267.0 1676.0 1110.0   61.0  299.0  300.0  300.0  300.0 1510.0
   44312296   71.0  334.0 1258.0 1660.0 1110.0   61.0  299.0  299.0  300.0  300.0 1500.0
   44316304   71.0  334.0 1274.0 1667.0 1120.0   62.0  299.0  300.0  300.0  300.0 1500.0
   44320316   71.0  334.0 1278.0 1683.0 1120.0   62.0  299.0  300.0  300.0  300.0 1500.0
   44324328   71.0  334.0 1245.0 1699.0 1090.0   59.0  299.0  299.0  300.0  300.0 1500.0
   44328330   71.0  334.0 1242.0 1661.0 1100.0   60.0  299.0  299.0  300.0  300.0 1490.0
   44332354   71.0  334.0 1240.0 1685.0 1090.0   59.0  299.0  300.0  300.0  300.0 1500.0
   44336354   71.0  334.0 1270.0 1675.0 1110.0   61.0  299.0  300.0  300.0  300.0 1510.0
   44340364   71.0  334.0 1253.0 1664.0 1110.0   61.0  299.0  300.0  300.0  300.0 1500.0
   44344386   71.0  334.0 1247.0 1680.0 1100.0   60.0  299.0  299.0  300.0  300.0 1490.0
   44348388   71.0  334.0 1245.0 1665.0 1110.0   61.0  299.0  300.0  300.0  300.0 1500.0
   44352408   71.0  334.0 1268.0 1643.0 1130.0   63.0  299.0  300.0  300.0  300.0 1490.0
   44356403   71.0  334.0 1242.0 1684.0 1100.0   60.0  299.0  299.0  300.0  300.0 1500.0
   44360402   71.0  334.0 1210.0 1698.0 1070.0   57.0  299.0  299.0  300.0  300.0 1490.0
   44364424   71.0  334.0 1290.0 1675.0 1130.0   63.0  299.0  299.0  300.0  300.0 1500.0
   44368426   71.0  334.0 1268.0 1661.0 1120.0   62.0  299.0  299.0  300.0  300.0 1500.0
   44372424   71.0  334.0 1254.0 1615.0 1130.0   63.0  299.0  299.0  300.0  300.0 1500.0
   44376431   71.0  334.0 1250.0 1709.0 1090.0   59.0  299.0  299.0  300.0  300.0 1500.0
   44380442   71.0  334.0 1252.0 1694.0 1100.0   60.0  299.0  301.0  300.0  300.0 1500.0
   44384447   71.0  334.0 1256.0 1654.0 1120.0   62.0  299.0  299.0  300.0  300.0 1520.0
   44388457   71.0  334.0 1243.0 1639.0 1120.0   62.0  299.0  299.0  300.0  300.0 1490.0
   44392470   71.0  334.0 1242.0 1689.0 1090.0   59.0  299.0  299.0  300.0  300.0 1510.0
   44396476   71.0  334.0 1252.0 1645.0 1120.0   62.0  299.0  299.0  300.0  300.0 1500.0
   44400483   72.0  334.0 1269.0 1674.0 1110.0   61.0  299.0  300.0  300.0  300.0 1500.0
   44404493   72.0  334.0 1235.0 1679.0 1090.0   59.0  299.0  300.0  300.0  300.0 1500.0
   44408503   72.0  334.0 1275.0 1659.0 1120.0   62.0  299.0  299.0  300.0  300.0 1500.0
   44412519   72.0  334.0 1242.0 1661.0 1100.0   60.0  299.0  299.0  300.0  300.0 1490.0
   44416522   72.0  334.0 1236.0 1642.0 1110.0   61.0  299.0  299.0  300.0  300.0 1500.0
   44420526   72.0  334.0 1265.0 1668.0 1110.0   61.0  299.0  300.0  300.0  300.0 1500.0
   44424533   72.0  334.0 1247.0 1648.0 1110.0   61.0  299.0  300.0  300.0  300.0 1500.0
   44428546   72.0  334.0 1255.0 1697.0 1100.0   60.0  299.0  299.0  300.0  300.0 1500.0
   44432549   72.0  334.0 1262.0 1705.0 1100.0   60.0  299.0  299.0  300.0  300.0 1500.0
   44436556   72.0  334.0 1220.0 1659.0 1090.0   59.0  299.0  299.0  300.0  300.0 1500.0
   44440568   72.0  334.0 1268.0 1646.0 1130.0   63.0  299.0  299.0  300.0  300.0 1500.0
   44444581   72.0  334.0 1254.0 1604.0 1140.0   64.0  299.0  299.0  300.0  300.0 1510.0
   44448593   72.0  334.0 1257.0 1670.0 1110.0   61.0  299.0  300.0  300.0  300.0 1500.0
   44452610   72.0  334.0 1235.0 1650.0 1110.0   61.0  299.0  300.0  300.0  300.0 1500.0
   44456621   72.0  334.0 1256.0 1658.0 1110.0   61.0  299.0  300.0  300.0  300.0 1500.0
   44460622   72.0  334.0 1228.0 1656.0 1100.0   60.0  299.0  299.0  300.0  300.0 1500.0
   44464635   72.0  334.0 1236.0 1716.0 1080.0   58.0  299.0  300.0  300.0  300.0 1500.0
   44468646   72.0  334.0 1234.0 1629.0 1110.0   61.0  299.0  299.0  300.0  300.0 1500.0
   44472649   72.0  334.0 1230.0 1633.0 1110.0   61.0  299.0  300.0  300.0  300.0 1500.0
   44476657   72.0  334.0 1247.0 1674.0 1100.0   60.0  299.0  300.0  300.0  300.0 1500.0
   44480667   72.0  334.0 1253.0 1655.0 1110.0   61.0  299.0  299.0  300.0  300.0 1500.0
   44484665   72.0  334.0 1243.0 1691.0 1090.0   59.0  299.0  299.0  300.0  300.0 1510.0
   44488671   72.0  334.0 1255.0 1660.0 1110.0   61.0  299.0  300.0  300.0  300.0 1500.0
   44492679   72.0  334.0 1257.0 1688.0 1100.0   60.0  299.0  300.0  300.0  300.0 1500.0
   44496690   72.0  334.0 1251.0 1632.0 1120.0   62.0  299.0  299.0  300.0  300.0 1500.0
   44500700   72.0  334.0 1240.0 1626.0 1120.0   62.0  299.0  299.0  300.0  300.0 1500.0
   44504703   72.0  334.0 1272.0 1672.0 1120.0   62.0  299.0  300.0  300.0  300.0 1500.0
   44508714   72.0  334.0 1221.0 1664.0 1090.0   59.0  299.0  299.0  300.0  300.0 1500.0
   44512726   72.0  334.0 1255.0 1668.0 1110.0   61.0  299.0  299.0  300.0  300.0 1510.0
   44516742   72.0  334.0 1231.0 1677.0 1090.0   59.0  299.0  299.0  300.0  300.0 1500.0
   44520753   72.0  334.0 1261.0 1679.0 1110.0   61.0  299.0  299.0  300.0  300.0 1500.0
   44524761   73.0  334.0 1256.0 1668.0 1110.0   61.0  299.0  300.0  300.0  300.0 1500.0
   44528768   73.0  334.0 1244.0 1694.0 1090.0   59.0  299.0  299.0  300.0  300.0 1500.0
   44532770   72.0  334.0 1260.0 1604.0 1140.0   64.0  299.0  300.0  300.0  300.0 1500.0
   44536781   73.0  334.0 1261.0 1663.0 1110.0   61.0  299.0  299.0  300.0  300.0 1500.0
   44540790   73.0  334.0 1248.0 1684.0 1100.0   60.0  299.0  299.0  300.0  300.0 1500.0
   44544797   73.0  334.0 1228.0 1669.0 1090.0   59.0  299.0  299.0  300.0  300.0 1500.0
   44548810   73.0  334.0 1289.0 1672.0 1130.0   63.0  299.0  299.0  300.0  300.0 1500.0
   44552832   73.0  334.0 1264.0 1642.0 1130.0   63.0  299.0  299.0  300.0  300.0 1500.0
   44556840   73.0  334.0 1261.0 1701.0 1100.0   60.0  299.0  300.0  300.0  300.0 1500.0
   44560853   73.0  334.0 1261.0 1660.0 1120.0   62.0  299.0  299.0  300.0  300.0 1490.0
   44564866   73.0  334.0 1250.0 1669.0 1110.0   61.0  299.0  299.0  300.0  300.0 1500.0
   44568864   73.0  334.0 1264.0 1652.0 1120.0   62.0  299.0  299.0  300.0  300.0 1500.0
   44572879   73.0  334.0 1269.0 1686.0 1110.0   61.0  299.0  299.0  300.0  300.0 1500.0
   44576883   73.0  334.0 1249.0 1680.0 1100.0   60.0  299.0  300.0  300.0  300.0 1500.0
