# 
~VERSION INFORMATION
     VERS.                              2.0:Версия формата LAS
     WRAP.                               NO:Режим одной строчки на временной отчет
~WELL INFORMATION
     STRT.ms                       39169932:Время первой записи в файле
     STOP.ms                      115315297:Время последней записи в файле
     STEP.ms                              0:Шаг времени, 0 - переменный шаг
     NULL.                          -999.25:Метка, нет значения
     DATE.                       07.09.2023:Дата каротажа
      DRV.                                 :Наименование драйвера прибора
     NAME.                             ГГКП:Название прибора
     SNUM.                         18417002:Серийный номер прибора
     FRMW.                         0.19.7.3:Версия прошивки на контроллере прибора
~CURVE INFORMATION
     TIME.ms                       {0,11:0}:Время, количество миллисекунд от начало суток
       MT.°C                               :Температура
      TFG.°                                :Гравитационный поворот
      RSD.имп./сек                         :Счёт, ближний зонд ГГКП
      RLD.имп./сек                         :Счёт, дальний зонд ГГКП
     RHOB.кг/м3                            :Плотность
   HCRHOB.g/cm3                            :Плотность, у.е.
     ADCS.mV                               :Измеренное напряжение порога компараторапо ближнему зонду
     ADCL.mV                               :Измеренное напряжение порога компараторапо дальнему зонду
    THLDS.mV                               :Выставленный порог компараторапо ближнему зонду
    THLDL.mV                               :Выставленный порог компараторапо дальнему зонду
    GRUHV.В                                :Напряжение на высоковольтнике Гамма
~OTHER INFORMATION


~A     TIME     MT    TFG    RSD    RLD   RHOB HCRHOB   ADCS   ADCL  THLDS  THLDL  GRUHV
# ...
   79572213   48.0  338.0 1247.0 1700.0 1090.0   59.0  300.0  300.0  300.0  300.0 1510.0
   79576223   48.0  338.0 1182.0 1710.0 1050.0   55.0  300.0  300.0  300.0  300.0 1500.0
   79580233   48.0  338.0 1182.0 1687.0 1060.0   56.0  300.0  300.0  300.0  300.0 1500.0
   79584265   48.0  338.0 1202.0 1663.0 1080.0   58.0  300.0  300.0  300.0  300.0 1500.0
   79588259   48.0  338.0 1252.0 1745.0 1080.0   58.0  300.0  300.0  300.0  300.0 1500.0
   79592261   48.0  338.0 1221.0 1703.0 1070.0   57.0  300.0  299.0  300.0  300.0 1500.0
   79596268   48.0  338.0 1197.0 1690.0 1070.0   57.0  300.0  299.0  300.0  300.0 1510.0
   79600282   47.0  338.0 1247.0 1707.0 1090.0   59.0  300.0  300.0  300.0  300.0 1510.0
   79604288   48.0  338.0 1231.0 1673.0 1090.0   59.0  300.0  300.0  300.0  300.0 1480.0
   79608299   48.0  338.0 1215.0 1666.0 1090.0   59.0  300.0  300.0  300.0  300.0 1510.0
   79612299   48.0  338.0 1236.0 1700.0 1080.0   58.0  300.0  299.0  300.0  300.0 1510.0
   79616308   48.0  338.0 1230.0 1659.0 1100.0   60.0  300.0  300.0  300.0  300.0 1500.0
   79620313   47.0  338.0 1220.0 1694.0 1080.0   58.0  300.0  299.0  300.0  300.0 1500.0
   79624325   48.0  338.0 1238.0 1685.0 1090.0   59.0  300.0  299.0  300.0  300.0 1500.0
   79628333   48.0  338.0 1235.0 1677.0 1090.0   59.0  300.0  299.0  300.0  300.0 1510.0
   79632330   48.0  338.0 1239.0 1691.0 1090.0   59.0  300.0  299.0  300.0  300.0 1500.0
   79636339   48.0  338.0 1225.0 1713.0 1070.0   57.0  300.0  300.0  300.0  300.0 1490.0
   79640344   47.0  338.0 1227.0 1706.0 1080.0   58.0  300.0  299.0  300.0  300.0 1500.0
   79644353   48.0  338.0 1223.0 1704.0 1080.0   58.0  300.0  300.0  300.0  300.0 1500.0
   79648365   48.0  338.0 1220.0 1676.0 1090.0   59.0  300.0  300.0  300.0  300.0 1500.0
   79652369   48.0  338.0 1217.0 1682.0 1080.0   58.0  300.0  300.0  300.0  300.0 1500.0
   79656380   48.0  338.0 1246.0 1668.0 1100.0   60.0  300.0  300.0  300.0  300.0 1510.0
   79660386   48.0  338.0 1225.0 1690.0 1080.0   58.0  299.0  300.0  300.0  300.0 1500.0
   79664410   47.0  338.0 1221.0 1668.0 1090.0   59.0  300.0  300.0  300.0  300.0 1510.0
   79668412   48.0  338.0 1236.0 1642.0 1110.0   61.0  300.0  300.0  300.0  300.0 1500.0
   79672417   47.0  338.0 1212.0 1700.0 1070.0   57.0  300.0  299.0  300.0  300.0 1500.0
   79676418   48.0  338.0 1216.0 1724.0 1060.0   56.0  300.0  300.0  300.0  300.0 1500.0
   79680429   48.0  338.0 1241.0 1689.0 1090.0   59.0  300.0  300.0  300.0  300.0 1490.0
   79684441   48.0  338.0 1234.0 1675.0 1090.0   59.0  300.0  300.0  300.0  300.0 1510.0
   79688440   48.0  338.0 1198.0 1681.0 1070.0   57.0  300.0  299.0  300.0  300.0 1500.0
   79692444   47.0  338.0 1222.0 1720.0 1070.0   57.0  300.0  300.0  300.0  300.0 1500.0
   79696441   48.0  338.0 1227.0 1720.0 1070.0   57.0  299.0  300.0  300.0  300.0 1500.0
   79700461   47.0  338.0 1228.0 1700.0 1080.0   58.0  300.0  300.0  300.0  300.0 1510.0
   79704472   48.0  338.0 1232.0 1684.0 1090.0   59.0  299.0  300.0  300.0  300.0 1500.0
   79708489   48.0  338.0 1247.0 1694.0 1090.0   59.0  300.0  300.0  300.0  300.0 1520.0
   79712485   48.0  338.0 1247.0 1698.0 1090.0   59.0  300.0  300.0  300.0  300.0 1500.0
   79716493   48.0  338.0 1185.0 1683.0 1060.0   56.0  300.0  300.0  300.0  300.0 1500.0
   79720494   48.0  338.0 1230.0 1709.0 1080.0   58.0  300.0  300.0  300.0  300.0 1500.0
   79724506   47.0  338.0 1226.0 1670.0 1090.0   59.0  300.0  299.0  300.0  300.0 1500.0
   79728512   47.0  338.0 1231.0 1685.0 1090.0   59.0  300.0  300.0  300.0  300.0 1500.0
   79732517   47.0  338.0 1206.0 1686.0 1070.0   57.0  300.0  300.0  300.0  300.0 1510.0
   79736516   47.0  338.0 1229.0 1647.0 1100.0   60.0  300.0  300.0  300.0  300.0 1490.0
   79740534   48.0  338.0 1230.0 1684.0 1090.0   59.0  300.0  300.0  300.0  300.0 1500.0
   79744537   47.0  338.0 1221.0 1727.0 1060.0   56.0  300.0  300.0  300.0  300.0 1500.0
   79748542   47.0  338.0 1181.0 1688.0 1060.0   56.0  300.0  299.0  300.0  300.0 1480.0
   79752554   47.0  338.0 1211.0 1691.0 1070.0   57.0  300.0  300.0  300.0  300.0 1500.0
   79756567   47.0  338.0 1231.0 1683.0 1090.0   59.0  300.0  300.0  300.0  300.0 1500.0
   79760578   47.0  338.0 1250.0 1702.0 1090.0   59.0  300.0  300.0  300.0  300.0 1500.0
   79764588   47.0  338.0 1248.0 1673.0 1100.0   60.0  300.0  300.0  300.0  300.0 1510.0
   79768598   47.0  338.0 1231.0 1682.0 1090.0   59.0  300.0  300.0  300.0  300.0 1500.0
   79772594   47.0  338.0 1211.0 1665.0 1090.0   59.0  300.0  299.0  300.0  300.0 1500.0
   79776602   47.0  338.0 1207.0 1720.0 1060.0   56.0  300.0  300.0  300.0  300.0 1500.0
   79780609   48.0  338.0 1180.0 1680.0 1060.0   56.0  300.0  299.0  300.0  300.0 1510.0
   79784619   48.0  338.0 1223.0 1640.0 1100.0   60.0  300.0  299.0  300.0  300.0 1500.0
   79788623   47.0  338.0 1217.0 1668.0 1090.0   59.0  300.0  300.0  300.0  300.0 1500.0
   79792632   47.0  338.0 1225.0 1687.0 1080.0   58.0  299.0  300.0  300.0  300.0 1500.0
   79796642   47.0  338.0 1236.0 1720.0 1080.0   58.0  300.0  299.0  300.0  300.0 1500.0
   79800645   47.0  338.0 1232.0 1689.0 1090.0   59.0  300.0  300.0  300.0  300.0 1510.0
   79804656   47.0  338.0 1196.0 1656.0 1080.0   58.0  300.0  300.0  300.0  300.0 1500.0
   79808661   47.0  338.0 1211.0 1674.0 1080.0   58.0  300.0  300.0  300.0  300.0 1500.0
   79812668   47.0  338.0 1224.0 1680.0 1090.0   59.0  300.0  300.0  300.0  300.0 1500.0
   79816680   47.0  338.0 1171.0 1678.0 1060.0   56.0  300.0  300.0  300.0  300.0 1500.0
   79820707   47.0  338.0 1223.0 1694.0 1080.0   58.0  300.0  300.0  300.0  300.0 1510.0
   79824709   47.0  338.0 1221.0 1693.0 1080.0   58.0  300.0  300.0  300.0  300.0 1500.0
   79828726   47.0  338.0 1199.0 1674.0 1070.0   57.0  300.0  300.0  300.0  300.0 1510.0
   79832736   47.0  338.0 1231.0 1697.0 1080.0   58.0  300.0  300.0  300.0  300.0 1500.0
   79836745   47.0  338.0 1208.0 1699.0 1070.0   57.0  300.0  300.0  300.0  300.0 1510.0
   79840753   47.0  338.0 1208.0 1669.0 1080.0   58.0  300.0  300.0  300.0  300.0 1510.0
   79844758   47.0  338.0 1224.0 1692.0 1080.0   58.0  300.0  300.0  300.0  300.0 1520.0
   79848773   47.0  338.0 1224.0 1667.0 1090.0   59.0  300.0  300.0  300.0  300.0 1500.0
   79852776   47.0  338.0 1201.0 1696.0 1070.0   57.0  300.0  300.0  300.0  300.0 1500.0
   79856780   47.0  338.0 1255.0 1697.0 1100.0   60.0  300.0  300.0  300.0  300.0 1500.0
   79860785   47.0  338.0 1214.0 1689.0 1080.0   58.0  300.0  300.0  300.0  300.0 1500.0
   79864799   47.0  338.0 1221.0 1712.0 1070.0   57.0  300.0  300.0  300.0  300.0 1500.0
   79868811   47.0  338.0 1221.0 1680.0 1080.0   58.0  300.0  300.0  300.0  300.0 1510.0
   79872831   47.0  338.0 1206.0 1684.0 1070.0   57.0  300.0  300.0  300.0  300.0 1500.0
   79876840   47.0  338.0 1225.0 1691.0 1080.0   58.0  300.0  300.0  300.0  300.0 1500.0
   79880845   47.0  338.0 1254.0 1702.0 1090.0   59.0  300.0  300.0  300.0  300.0 1500.0
   79884844   47.0  338.0 1246.0 1650.0 1110.0   61.0  300.0  300.0  300.0  300.0 1500.0
   79888844   47.0  338.0 1229.0 1691.0 1080.0   58.0  300.0  300.0  300.0  300.0 1510.0
   79892851   47.0  338.0 1231.0 1683.0 1090.0   59.0  300.0  300.0  300.0  300.0 1520.0
   79896850   47.0  338.0 1212.0 1735.0 1060.0   56.0  300.0  299.0  300.0  300.0 1500.0
   79900869   47.0  338.0 1224.0 1705.0 1080.0   58.0  300.0  300.0  300.0  300.0 1510.0
   79904870   47.0  338.0 1200.0 1689.0 1070.0   57.0  300.0  300.0  300.0  300.0 1500.0
   79908881   47.0  338.0 1209.0 1722.0 1060.0   56.0  300.0  299.0  300.0  300.0 1500.0
   79912896   47.0  338.0 1196.0 1708.0 1060.0   56.0  300.0  300.0  300.0  300.0 1490.0
   79916904   47.0  338.0 1219.0 1694.0 1080.0   58.0  300.0  300.0  300.0  300.0 1510.0
   79920934   47.0  338.0 1236.0 1710.0 1080.0   58.0  300.0  300.0  300.0  300.0 1480.0
   79924924   47.0  338.0 1230.0 1668.0 1100.0   60.0  300.0  300.0  300.0  300.0 1500.0
   79928934   47.0  338.0 1209.0 1707.0 1070.0   57.0  300.0  300.0  300.0  300.0 1510.0
