# 
~VERSION INFORMATION
     VERS.                              2.0:Версия формата LAS
     WRAP.                               NO:Режим одной строчки на временной отчет
~WELL INFORMATION
     STRT.ms                       39169932:Время первой записи в файле
     STOP.ms                      115315297:Время последней записи в файле
     STEP.ms                              0:Шаг времени, 0 - переменный шаг
     NULL.                          -999.25:Метка, нет значения
     DATE.                       07.09.2023:Дата каротажа
      DRV.                                 :Наименование драйвера прибора
     NAME.                             ГГКП:Название прибора
     SNUM.                         18417002:Серийный номер прибора
     FRMW.                         0.19.7.3:Версия прошивки на контроллере прибора
~CURVE INFORMATION
     TIME.ms                       {0,11:0}:Время, количество миллисекунд от начало суток
       MT.°C                               :Температура
      TFG.°                                :Гравитационный поворот
      RSD.имп./сек                         :Счёт, ближний зонд ГГКП
      RLD.имп./сек                         :Счёт, дальний зонд ГГКП
     RHOB.кг/м3                            :Плотность
   HCRHOB.g/cm3                            :Плотность, у.е.
     ADCS.mV                               :Измеренное напряжение порога компараторапо ближнему зонду
     ADCL.mV                               :Измеренное напряжение порога компараторапо дальнему зонду
    THLDS.mV                               :Выставленный порог компараторапо ближнему зонду
    THLDL.mV                               :Выставленный порог компараторапо дальнему зонду
    GRUHV.В                                :Напряжение на высоковольтнике Гамма
~OTHER INFORMATION


~A     TIME     MT    TFG    RSD    RLD   RHOB HCRHOB   ADCS   ADCL  THLDS  THLDL  GRUHV
# ...
   89673371   40.0  338.0 1202.0 1738.0 1050.0   55.0  300.0  299.0  300.0  300.0 1500.0
   89677368   40.0  338.0 1188.0 1692.0 1060.0   56.0  300.0  300.0  300.0  300.0 1510.0
   89681384   40.0  338.0 1228.0 1686.0 1090.0   59.0  300.0  300.0  300.0  300.0 1510.0
   89685385   40.0  338.0 1202.0 1704.0 1060.0   56.0  300.0  300.0  300.0  300.0 1490.0
   89689402   40.0  338.0 1173.0 1701.0 1050.0   55.0  300.0  300.0  300.0  300.0 1500.0
   89693406   39.0  338.0 1207.0 1678.0 1080.0   58.0  300.0  300.0  300.0  300.0 1500.0
   89697415   39.0  338.0 1212.0 1683.0 1080.0   58.0  300.0  300.0  300.0  300.0 1510.0
   89701418   40.0  338.0 1217.0 1678.0 1080.0   58.0  300.0  300.0  300.0  300.0 1500.0
   89705422   40.0  338.0 1220.0 1707.0 1070.0   57.0  300.0  299.0  300.0  300.0 1500.0
   89709425   40.0  338.0 1244.0 1681.0 1100.0   60.0  300.0  300.0  300.0  300.0 1490.0
   89713434   40.0  338.0 1216.0 1677.0 1080.0   58.0  300.0  300.0  300.0  300.0 1520.0
   89717445   40.0  338.0 1230.0 1677.0 1090.0   59.0  300.0  299.0  300.0  300.0 1500.0
   89721469   40.0  338.0 1231.0 1735.0 1070.0   57.0  300.0  300.0  300.0  300.0 1500.0
   89725461   40.0  338.0 1232.0 1634.0 1110.0   61.0  300.0  300.0  300.0  300.0 1510.0
   89729465   40.0  338.0 1230.0 1665.0 1100.0   60.0  300.0  299.0  300.0  300.0 1500.0
   89733472   40.0  338.0 1215.0 1725.0 1060.0   56.0  300.0  299.0  300.0  300.0 1490.0
   89737475   40.0  338.0 1228.0 1691.0 1080.0   58.0  300.0  299.0  300.0  300.0 1500.0
   89741483   40.0  338.0 1220.0 1624.0 1110.0   61.0  300.0  300.0  300.0  300.0 1490.0
   89745483   40.0  338.0 1229.0 1718.0 1070.0   57.0  300.0  300.0  300.0  300.0 1490.0
   89749487   40.0  338.0 1272.0 1667.0 1120.0   62.0  300.0  300.0  300.0  300.0 1500.0
   89753489   40.0  338.0 1233.0 1710.0 1080.0   58.0  300.0  300.0  300.0  300.0 1500.0
   89757506   40.0  338.0 1220.0 1729.0 1060.0   56.0  300.0  300.0  300.0  300.0 1500.0
   89761512   40.0  338.0 1222.0 1704.0 1080.0   58.0  300.0  299.0  300.0  300.0 1500.0
   89765524   40.0  338.0 1209.0 1688.0 1070.0   57.0  300.0  300.0  300.0  300.0 1500.0
   89769547   40.0  338.0 1238.0 1664.0 1100.0   60.0  300.0  299.0  300.0  300.0 1510.0
   89773544   39.0  338.0 1210.0 1697.0 1070.0   57.0  300.0  300.0  300.0  300.0 1510.0
   89777545   40.0  338.0 1213.0 1665.0 1090.0   59.0  300.0  300.0  300.0  300.0 1500.0
   89781554   40.0  338.0 1188.0 1654.0 1080.0   58.0  300.0  300.0  300.0  300.0 1500.0
   89785569   40.0  338.0 1211.0 1682.0 1080.0   58.0  300.0  300.0  300.0  300.0 1500.0
   89789581   40.0  338.0 1197.0 1690.0 1070.0   57.0  299.0  300.0  300.0  300.0 1510.0
   89793575   40.0  338.0 1214.0 1703.0 1070.0   57.0  300.0  300.0  300.0  300.0 1510.0
   89797592   40.0  338.0 1196.0 1675.0 1070.0   57.0  300.0  300.0  300.0  300.0 1500.0
   89801597   40.0  338.0 1228.0 1696.0 1080.0   58.0  300.0  300.0  300.0  300.0 1500.0
   89805604   40.0  338.0 1215.0 1684.0 1080.0   58.0  300.0  300.0  300.0  300.0 1500.0
   89809613   40.0  338.0 1225.0 1666.0 1090.0   59.0  300.0  300.0  300.0  300.0 1510.0
   89813629   40.0  338.0 1224.0 1646.0 1100.0   60.0  300.0  300.0  300.0  300.0 1500.0
   89817654   40.0  338.0 1222.0 1700.0 1080.0   58.0  300.0  300.0  300.0  300.0 1500.0
   89821653   40.0  338.0 1211.0 1658.0 1090.0   59.0  300.0  300.0  300.0  300.0 1520.0
   89825677   40.0  338.0 1213.0 1686.0 1080.0   58.0  300.0  300.0  300.0  300.0 1500.0
   89829672   40.0  338.0 1202.0 1709.0 1060.0   56.0  300.0  300.0  300.0  300.0 1490.0
   89833676   40.0  338.0 1237.0 1674.0 1100.0   60.0  300.0  300.0  300.0  300.0 1500.0
   89837692   40.0  338.0 1249.0 1673.0 1100.0   60.0  300.0  300.0  300.0  300.0 1490.0
   89841710   40.0  338.0 1182.0 1676.0 1060.0   56.0  300.0  300.0  300.0  300.0 1510.0
   89845724   40.0  338.0 1193.0 1703.0 1060.0   56.0  300.0  300.0  300.0  300.0 1510.0
   89849729   40.0  338.0 1221.0 1690.0 1080.0   58.0  300.0  300.0  300.0  300.0 1500.0
   89853743   40.0  338.0 1244.0 1684.0 1100.0   60.0  300.0  300.0  300.0  300.0 1520.0
   89857752   40.0  338.0 1204.0 1676.0 1080.0   58.0  300.0  300.0  300.0  300.0 1510.0
   89861755   40.0  338.0 1250.0 1701.0 1090.0   59.0  300.0  299.0  300.0  300.0 1510.0
   89865762   40.0  338.0 1206.0 1694.0 1070.0   57.0  300.0  300.0  300.0  300.0 1490.0
   89869761   40.0  338.0 1226.0 1660.0 1100.0   60.0  300.0  300.0  300.0  300.0 1490.0
   89873774   40.0  338.0 1220.0 1671.0 1090.0   59.0  300.0  300.0  300.0  300.0 1500.0
   89877777   40.0  338.0 1221.0 1713.0 1070.0   57.0  300.0  300.0  300.0  300.0 1500.0
   89881780   40.0  338.0 1189.0 1667.0 1070.0   57.0  300.0  300.0  300.0  300.0 1510.0
   89885795   40.0  338.0 1231.0 1673.0 1090.0   59.0  300.0  300.0  300.0  300.0 1500.0
   89889813   40.0  338.0 1186.0 1694.0 1060.0   56.0  300.0  300.0  300.0  300.0 1510.0
   89893812   40.0  338.0 1240.0 1670.0 1100.0   60.0  300.0  300.0  300.0  300.0 1500.0
   89897818   40.0  338.0 1222.0 1683.0 1080.0   58.0  300.0  299.0  300.0  300.0 1500.0
   89901821   40.0  338.0 1264.0 1689.0 1110.0   61.0  300.0  299.0  300.0  300.0 1500.0
   89905837   40.0  338.0 1201.0 1721.0 1060.0   56.0  300.0  300.0  300.0  300.0 1500.0
   89909842   40.0  338.0 1203.0 1706.0 1060.0   56.0  300.0  300.0  300.0  300.0 1500.0
   89913854   40.0  338.0 1218.0 1687.0 1080.0   58.0  300.0  300.0  300.0  300.0 1510.0
   89917858   40.0  338.0 1201.0 1690.0 1070.0   57.0  300.0  300.0  300.0  300.0 1490.0
   89921868   40.0  338.0 1230.0 1655.0 1100.0   60.0  300.0  300.0  300.0  300.0 1510.0
   89925871   40.0  338.0 1213.0 1710.0 1070.0   57.0  300.0  300.0  300.0  300.0 1510.0
   89929897   40.0  338.0 1202.0 1713.0 1060.0   56.0  300.0  300.0  300.0  300.0 1500.0
   89933914   39.0  338.0 1234.0 1694.0 1090.0   59.0  300.0  300.0  300.0  300.0 1500.0
   89937913   40.0  338.0 1245.0 1666.0 1100.0   60.0  300.0  299.0  300.0  300.0 1500.0
   89941931   40.0  338.0 1193.0 1639.0 1090.0   59.0  300.0  300.0  300.0  300.0 1500.0
   89945942   40.0  338.0 1242.0 1681.0 1100.0   60.0  300.0  300.0  300.0  300.0 1500.0
   89949951   40.0  338.0 1225.0 1716.0 1070.0   57.0  300.0  300.0  300.0  300.0 1500.0
   89953960   40.0  338.0 1233.0 1680.0 1090.0   59.0  300.0  300.0  300.0  300.0 1510.0
   89957965   40.0  338.0 1238.0 1657.0 1100.0   60.0  300.0  300.0  300.0  300.0 1510.0
   89961968   40.0  338.0 1202.0 1678.0 1070.0   57.0  300.0  300.0  300.0  300.0 1510.0
   89965970   40.0  338.0 1250.0 1693.0 1100.0   60.0  300.0  300.0  300.0  300.0 1510.0
   89969985   40.0  338.0 1227.0 1678.0 1090.0   59.0  300.0  300.0  300.0  300.0 1500.0
   89973990   40.0  338.0 1243.0 1659.0 1110.0   61.0  300.0  300.0  300.0  300.0 1500.0
   89977989   40.0  338.0 1211.0 1683.0 1080.0   58.0  300.0  300.0  300.0  300.0 1500.0
   89981998   40.0  338.0 1225.0 1667.0 1090.0   59.0  300.0  300.0  300.0  300.0 1500.0
   89986011   40.0  338.0 1219.0 1697.0 1080.0   58.0  300.0  299.0  300.0  300.0 1510.0
   89990024   40.0  338.0 1206.0 1676.0 1080.0   58.0  300.0  300.0  300.0  300.0 1500.0
   89994028   40.0  338.0 1209.0 1690.0 1070.0   57.0  300.0  300.0  300.0  300.0 1500.0
   89998048   40.0  338.0 1205.0 1700.0 1070.0   57.0  300.0  300.0  300.0  300.0 1500.0
   90002055   40.0  338.0 1218.0 1690.0 1080.0   58.0  299.0  300.0  300.0  300.0 1510.0
   90006069   40.0  338.0 1226.0 1669.0 1090.0   59.0  300.0  300.0  300.0  300.0 1500.0
   90010077   40.0  338.0 1209.0 1687.0 1070.0   57.0  300.0  300.0  300.0  300.0 1510.0
   90014083   40.0  338.0 1223.0 1704.0 1080.0   58.0  300.0  300.0  300.0  300.0 1500.0
   90018092   40.0  338.0 1225.0 1721.0 1070.0   57.0  300.0  300.0  300.0  300.0 1500.0
   90022096   40.0  338.0 1213.0 1737.0 1060.0   56.0  300.0  299.0  300.0  300.0 1510.0
   90026103   40.0  338.0 1225.0 1694.0 1080.0   58.0  300.0  300.0  300.0  300.0 1490.0
   90030113   40.0  338.0 1265.0 1682.0 1110.0   61.0  300.0  300.0  300.0  300.0 1500.0
