# 
~VERSION INFORMATION
     VERS.                              2.0:Версия формата LAS
     WRAP.                               NO:Режим одной строчки на временной отчет
~WELL INFORMATION
     STRT.ms                       39169932:Время первой записи в файле
     STOP.ms                      115315297:Время последней записи в файле
     STEP.ms                              0:Шаг времени, 0 - переменный шаг
     NULL.                          -999.25:Метка, нет значения
     DATE.                       07.09.2023:Дата каротажа
      DRV.                                 :Наименование драйвера прибора
     NAME.                             ГГКП:Название прибора
     SNUM.                         18417002:Серийный номер прибора
     FRMW.                         0.19.7.3:Версия прошивки на контроллере прибора
~CURVE INFORMATION
     TIME.ms                       {0,11:0}:Время, количество миллисекунд от начало суток
       MT.°C                               :Температура
      TFG.°                                :Гравитационный поворот
      RSD.имп./сек                         :Счёт, ближний зонд ГГКП
      RLD.имп./сек                         :Счёт, дальний зонд ГГКП
     RHOB.кг/м3                            :Плотность
   HCRHOB.g/cm3                            :Плотность, у.е.
     ADCS.mV                               :Измеренное напряжение порога компараторапо ближнему зонду
     ADCL.mV                               :Измеренное напряжение порога компараторапо дальнему зонду
    THLDS.mV                               :Выставленный порог компараторапо ближнему зонду
    THLDL.mV                               :Выставленный порог компараторапо дальнему зонду
    GRUHV.В                                :Напряжение на высоковольтнике Гамма
~OTHER INFORMATION


~A     TIME     MT    TFG    RSD    RLD   RHOB HCRHOB   ADCS   ADCL  THLDS  THLDL  GRUHV
# ...
   59369777  114.0  342.0 1188.0 1655.0 1080.0   58.0  299.0  300.0  300.0  300.0 1500.0
   59373788  114.0  340.0 1211.0 1652.0 1090.0   59.0  299.0  300.0  300.0  300.0 1500.0
   59377807  114.0  342.0 1209.0 1668.0 1080.0   58.0  299.0  300.0  300.0  300.0 1500.0
   59381801  114.0  342.0 1199.0 1737.0 1050.0   55.0  299.0  300.0  300.0  300.0 1500.0
   59385819  114.0  340.0 1224.0 1692.0 1080.0   58.0  299.0  300.0  300.0  300.0 1500.0
   59389825  114.0  342.0 1214.0 1690.0 1080.0   58.0  299.0  300.0  300.0  300.0 1500.0
   59393831  114.0  342.0 1192.0 1693.0 1060.0   56.0  299.0  300.0  300.0  300.0 1500.0
   59397845  114.0  342.0 1205.0 1651.0 1090.0   59.0  299.0  300.0  300.0  300.0 1500.0
   59401855  114.0  340.0 1219.0 1656.0 1090.0   59.0  299.0  300.0  300.0  300.0 1500.0
   59405859  113.0  340.0 1198.0 1638.0 1090.0   59.0  299.0  300.0  300.0  300.0 1500.0
   59409872  113.0  340.0 1214.0 1699.0 1070.0   57.0  299.0  300.0  300.0  300.0 1500.0
   59413887  114.0  340.0 1175.0 1697.0 1050.0   55.0  299.0  300.0  300.0  300.0 1500.0
   59417891  114.0  340.0 1195.0 1708.0 1060.0   56.0  299.0  300.0  300.0  300.0 1500.0
   59421890  114.0  342.0 1215.0 1686.0 1080.0   58.0  299.0  300.0  300.0  300.0 1490.0
   59425905  113.0  342.0 1213.0 1665.0 1090.0   59.0  299.0  299.0  300.0  300.0 1500.0
   59429905  113.0  342.0 1200.0 1667.0 1080.0   58.0  299.0  299.0  300.0  300.0 1500.0
   59433913  113.0  340.0 1187.0 1663.0 1070.0   57.0  299.0  300.0  300.0  300.0 1490.0
   59437931  113.0  342.0 1198.0 1689.0 1070.0   57.0  299.0  299.0  300.0  300.0 1500.0
   59441938  113.0  340.0 1204.0 1697.0 1070.0   57.0  299.0  300.0  300.0  300.0 1500.0
   59445946  113.0  342.0 1196.0 1687.0 1070.0   57.0  299.0  300.0  300.0  300.0 1500.0
   59449954  113.0  340.0 1190.0 1703.0 1060.0   56.0  299.0  300.0  300.0  300.0 1500.0
   59453964  113.0  342.0 1168.0 1657.0 1060.0   56.0  299.0  300.0  300.0  300.0 1500.0
   59457961  113.0  340.0 1186.0 1690.0 1060.0   56.0  299.0  299.0  300.0  300.0 1500.0
   59461972  113.0  342.0 1224.0 1663.0 1090.0   59.0  299.0  300.0  300.0  300.0 1500.0
   59465984  113.0  342.0 1240.0 1648.0 1110.0   61.0  299.0  299.0  300.0  300.0 1500.0
   59469989  113.0  342.0 1197.0 1673.0 1070.0   57.0  299.0  300.0  300.0  300.0 1490.0
   59474001  113.0  342.0 1191.0 1663.0 1070.0   57.0  299.0  300.0  300.0  300.0 1490.0
   59478007  113.0  340.0 1189.0 1686.0 1060.0   56.0  299.0  299.0  300.0  300.0 1500.0
   59482012  113.0  340.0 1174.0 1663.0 1060.0   56.0  299.0  300.0  300.0  300.0 1510.0
   59486011  113.0  342.0 1224.0 1651.0 1100.0   60.0  299.0  300.0  300.0  300.0 1500.0
   59490023  113.0  340.0 1184.0 1685.0 1060.0   56.0  299.0  299.0  300.0  300.0 1510.0
   59494036  113.0  340.0 1228.0 1661.0 1100.0   60.0  299.0  299.0  300.0  300.0 1500.0
   59498048  113.0  340.0 1210.0 1661.0 1090.0   59.0  299.0  299.0  300.0  300.0 1500.0
   59502054  113.0  340.0 1194.0 1709.0 1060.0   56.0  299.0  299.0  300.0  300.0 1500.0
   59506064  113.0  340.0 1188.0 1652.0 1080.0   58.0  299.0  300.0  300.0  300.0 1490.0
   59510075  113.0  342.0 1198.0 1671.0 1070.0   57.0  299.0  299.0  300.0  300.0 1490.0
   59514073  113.0  342.0 1177.0 1696.0 1050.0   55.0  299.0  299.0  300.0  300.0 1490.0
   59518089  113.0  340.0 1229.0 1678.0 1090.0   59.0  299.0  299.0  300.0  300.0 1500.0
   59522099  112.0  342.0 1205.0 1668.0 1080.0   58.0  299.0  300.0  300.0  300.0 1510.0
   59526116  113.0  340.0 1228.0 1703.0 1080.0   58.0  299.0  299.0  300.0  300.0 1500.0
   59530126  113.0  342.0 1215.0 1652.0 1090.0   59.0  299.0  299.0  300.0  300.0 1500.0
   59534126  112.0  340.0 1201.0 1679.0 1070.0   57.0  299.0  300.0  300.0  300.0 1500.0
   59538131  112.0  340.0 1233.0 1709.0 1080.0   58.0  299.0  300.0  300.0  300.0 1500.0
   59542142  112.0  342.0 1217.0 1689.0 1080.0   58.0  299.0  300.0  300.0  300.0 1500.0
   59546154  112.0  340.0 1199.0 1688.0 1070.0   57.0  299.0  300.0  300.0  300.0 1500.0
   59550169  112.0  340.0 1213.0 1687.0 1080.0   58.0  299.0  300.0  300.0  300.0 1500.0
   59554173  112.0  340.0 1209.0 1673.0 1080.0   58.0  299.0  299.0  300.0  300.0 1500.0
   59558175  112.0  340.0 1204.0 1656.0 1090.0   59.0  299.0  300.0  300.0  300.0 1510.0
   59562192  112.0  340.0 1236.0 1694.0 1090.0   59.0  299.0  299.0  300.0  300.0 1500.0
   59566196  112.0  340.0 1207.0 1697.0 1070.0   57.0  299.0  300.0  300.0  300.0 1500.0
   59570209  112.0  340.0 1195.0 1696.0 1060.0   56.0  299.0  300.0  300.0  300.0 1500.0
   59574215  112.0  340.0 1214.0 1674.0 1080.0   58.0  299.0  300.0  300.0  300.0 1520.0
   59578218  112.0  340.0 1192.0 1696.0 1060.0   56.0  299.0  299.0  300.0  300.0 1500.0
   59582227  112.0  340.0 1200.0 1633.0 1090.0   59.0  299.0  300.0  300.0  300.0 1510.0
   59586236  112.0  340.0 1196.0 1696.0 1060.0   56.0  299.0  299.0  300.0  300.0 1500.0
   59590242  112.0  340.0 1184.0 1701.0 1050.0   55.0  299.0  299.0  300.0  300.0 1500.0
   59594255  112.0  340.0 1179.0 1684.0 1060.0   56.0  299.0  300.0  300.0  300.0 1500.0
   59598258  112.0  340.0 1202.0 1631.0 1090.0   59.0  299.0  300.0  300.0  300.0 1500.0
   59602275  112.0  340.0 1204.0 1692.0 1070.0   57.0  299.0  300.0  300.0  300.0 1500.0
   59606287  112.0  342.0 1192.0 1663.0 1070.0   57.0  299.0  300.0  300.0  300.0 1500.0
   59610296  112.0  340.0 1196.0 1686.0 1070.0   57.0  299.0  300.0  300.0  300.0 1500.0
   59614312  112.0  340.0 1205.0 1671.0 1080.0   58.0  299.0  299.0  300.0  300.0 1500.0
   59618318  112.0  340.0 1231.0 1679.0 1090.0   59.0  299.0  300.0  300.0  300.0 1500.0
   59622319  112.0  340.0 1223.0 1639.0 1100.0   60.0  299.0  299.0  300.0  300.0 1500.0
   59626333  112.0  340.0 1202.0 1659.0 1080.0   58.0  299.0  300.0  300.0  300.0 1490.0
   59630343  112.0  340.0 1204.0 1676.0 1080.0   58.0  299.0  300.0  300.0  300.0 1510.0
   59634362  112.0  340.0 1189.0 1696.0 1060.0   56.0  299.0  299.0  300.0  300.0 1500.0
   59638362  111.0  340.0 1219.0 1667.0 1090.0   59.0  299.0  299.0  300.0  300.0 1510.0
   59642380  111.0  340.0 1203.0 1645.0 1090.0   59.0  299.0  300.0  300.0  300.0 1500.0
   59646381  111.0  340.0 1174.0 1704.0 1050.0   55.0  299.0  300.0  300.0  300.0 1490.0
   59650401  111.0  340.0 1198.0 1687.0 1070.0   57.0  299.0  300.0  300.0  300.0 1500.0
   59654402  111.0  340.0 1207.0 1688.0 1070.0   57.0  299.0  300.0  300.0  300.0 1500.0
   59658410  111.0  340.0 1211.0 1673.0 1080.0   58.0  299.0  300.0  300.0  300.0 1500.0
   59662428  111.0  340.0 1237.0 1696.0 1090.0   59.0  299.0  300.0  300.0  300.0 1500.0
   59666440  111.0  340.0 1200.0 1694.0 1070.0   57.0  299.0  299.0  300.0  300.0 1500.0
   59670438  111.0  340.0 1206.0 1708.0 1060.0   56.0  299.0  300.0  300.0  300.0 1500.0
   59674449  111.0  340.0 1230.0 1689.0 1090.0   59.0  299.0  300.0  300.0  300.0 1500.0
   59678462  111.0  340.0 1182.0 1680.0 1060.0   56.0  299.0  298.0  300.0  300.0 1500.0
   59682464  111.0  340.0 1199.0 1659.0 1080.0   58.0  299.0  300.0  300.0  300.0 1500.0
   59686466  111.0  340.0 1215.0 1662.0 1090.0   59.0  299.0  300.0  300.0  300.0 1500.0
   59690483  111.0  340.0 1207.0 1683.0 1080.0   58.0  299.0  300.0  300.0  300.0 1500.0
   59694498  111.0  340.0 1190.0 1710.0 1050.0   55.0  299.0  299.0  300.0  300.0 1500.0
   59698499  111.0  340.0 1192.0 1681.0 1070.0   57.0  299.0  299.0  300.0  300.0 1500.0
   59702524  111.0  340.0 1217.0 1695.0 1080.0   58.0  299.0  300.0  300.0  300.0 1510.0
   59706529  111.0  340.0 1195.0 1672.0 1070.0   57.0  299.0  300.0  300.0  300.0 1500.0
   59710540  111.0  340.0 1185.0 1685.0 1060.0   56.0  299.0  300.0  300.0  300.0 1500.0
   59714547  111.0  340.0 1205.0 1675.0 1080.0   58.0  299.0  299.0  300.0  300.0 1510.0
   59718550  111.0  340.0 1201.0 1650.0 1090.0   59.0  299.0  300.0  300.0  300.0 1500.0
   59722560  111.0  340.0 1223.0 1689.0 1080.0   58.0  299.0  299.0  300.0  300.0 1490.0
   59726581  111.0  340.0 1216.0 1688.0 1080.0   58.0  299.0  300.0  300.0  300.0 1500.0
