# 
~VERSION INFORMATION
     VERS.                              2.0:Версия формата LAS
     WRAP.                               NO:Режим одной строчки на временной отчет
~WELL INFORMATION
     STRT.ms                       39169932:Время первой записи в файле
     STOP.ms                      115315297:Время последней записи в файле
     STEP.ms                              0:Шаг времени, 0 - переменный шаг
     NULL.                          -999.25:Метка, нет значения
     DATE.                       07.09.2023:Дата каротажа
      DRV.                                 :Наименование драйвера прибора
     NAME.                             ГГКП:Название прибора
     SNUM.                         18417002:Серийный номер прибора
     FRMW.                         0.19.7.3:Версия прошивки на контроллере прибора
~CURVE INFORMATION
     TIME.ms                       {0,11:0}:Время, количество миллисекунд от начало суток
       MT.°C                               :Температура
      TFG.°                                :Гравитационный поворот
      RSD.имп./сек                         :Счёт, ближний зонд ГГКП
      RLD.имп./сек                         :Счёт, дальний зонд ГГКП
     RHOB.кг/м3                            :Плотность
   HCRHOB.g/cm3                            :Плотность, у.е.
     ADCS.mV                               :Измеренное напряжение порога компараторапо ближнему зонду
     ADCL.mV                               :Измеренное напряжение порога компараторапо дальнему зонду
    THLDS.mV                               :Выставленный порог компараторапо ближнему зонду
    THLDL.mV                               :Выставленный порог компараторапо дальнему зонду
    GRUHV.В                                :Напряжение на высоковольтнике Гамма
~OTHER INFORMATION


~A     TIME     MT    TFG    RSD    RLD   RHOB HCRHOB   ADCS   ADCL  THLDS  THLDL  GRUHV
# ...
   69470949   65.0  338.0 1241.0 1682.0 1100.0   60.0  299.0  300.0  300.0  300.0 1500.0
   69474957   65.0  338.0 1233.0 1710.0 1080.0   58.0  299.0  300.0  300.0  300.0 1500.0
   69478973   65.0  338.0 1210.0 1662.0 1090.0   59.0  299.0  300.0  300.0  300.0 1500.0
   69482979   65.0  338.0 1247.0 1694.0 1090.0   59.0  299.0  299.0  300.0  300.0 1500.0
   69486985   65.0  338.0 1200.0 1705.0 1060.0   56.0  299.0  300.0  300.0  300.0 1500.0
   69490998   65.0  338.0 1251.0 1684.0 1100.0   60.0  299.0  300.0  300.0  300.0 1490.0
   69495005   65.0  338.0 1216.0 1671.0 1090.0   59.0  299.0  300.0  300.0  300.0 1500.0
   69499007   65.0  338.0 1221.0 1677.0 1090.0   59.0  299.0  299.0  300.0  300.0 1500.0
   69503017   65.0  338.0 1244.0 1711.0 1080.0   58.0  299.0  300.0  300.0  300.0 1500.0
   69507019   65.0  338.0 1253.0 1705.0 1090.0   59.0  299.0  300.0  300.0  300.0 1500.0
   69511029   65.0  338.0 1228.0 1706.0 1080.0   58.0  299.0  300.0  300.0  300.0 1500.0
   69515042   65.0  338.0 1228.0 1692.0 1080.0   58.0  299.0  300.0  300.0  300.0 1490.0
   69519042   65.0  338.0 1246.0 1692.0 1090.0   59.0  299.0  300.0  300.0  300.0 1490.0
   69523060   65.0  338.0 1242.0 1673.0 1100.0   60.0  299.0  299.0  300.0  300.0 1500.0
   69527075   65.0  338.0 1216.0 1694.0 1080.0   58.0  299.0  300.0  300.0  300.0 1500.0
   69531076   65.0  338.0 1211.0 1684.0 1080.0   58.0  299.0  300.0  300.0  300.0 1500.0
   69535085   65.0  338.0 1227.0 1745.0 1060.0   56.0  299.0  300.0  300.0  300.0 1510.0
   69539091   65.0  338.0 1241.0 1673.0 1100.0   60.0  299.0  299.0  300.0  300.0 1500.0
   69543096   65.0  338.0 1212.0 1675.0 1080.0   58.0  299.0  299.0  300.0  300.0 1520.0
   69547109   65.0  338.0 1253.0 1686.0 1100.0   60.0  299.0  300.0  300.0  300.0 1510.0
   69551123   65.0  338.0 1221.0 1677.0 1090.0   59.0  299.0  299.0  300.0  300.0 1500.0
   69555121   65.0  338.0 1234.0 1670.0 1100.0   60.0  299.0  300.0  300.0  300.0 1500.0
   69559134   65.0  338.0 1240.0 1700.0 1090.0   59.0  299.0  300.0  300.0  300.0 1500.0
   69563148   65.0  338.0 1244.0 1675.0 1100.0   60.0  299.0  299.0  300.0  300.0 1500.0
   69567149   65.0  338.0 1217.0 1704.0 1070.0   57.0  299.0  300.0  300.0  300.0 1500.0
   69571173   65.0  338.0 1216.0 1700.0 1070.0   57.0  299.0  300.0  300.0  300.0 1500.0
   69575169   65.0  338.0 1213.0 1694.0 1070.0   57.0  299.0  299.0  300.0  300.0 1500.0
   69579175   65.0  338.0 1193.0 1703.0 1060.0   56.0  299.0  299.0  300.0  300.0 1500.0
   69583175   65.0  338.0 1214.0 1707.0 1070.0   57.0  299.0  300.0  300.0  300.0 1510.0
   69587186   65.0  338.0 1262.0 1674.0 1110.0   61.0  299.0  299.0  300.0  300.0 1500.0
   69591190   65.0  338.0 1235.0 1651.0 1110.0   61.0  299.0  300.0  300.0  300.0 1500.0
   69595196   65.0  338.0 1214.0 1687.0 1080.0   58.0  299.0  300.0  300.0  300.0 1510.0
   69599199   65.0  338.0 1230.0 1666.0 1100.0   60.0  299.0  299.0  300.0  300.0 1500.0
   69603205   65.0  338.0 1228.0 1688.0 1090.0   59.0  299.0  300.0  300.0  300.0 1500.0
   69607210   65.0  338.0 1194.0 1715.0 1050.0   55.0  299.0  300.0  300.0  300.0 1500.0
   69611222   65.0  338.0 1249.0 1689.0 1100.0   60.0  299.0  300.0  300.0  300.0 1510.0
   69615235   65.0  338.0 1229.0 1724.0 1070.0   57.0  299.0  299.0  300.0  300.0 1510.0
   69619236   65.0  338.0 1230.0 1681.0 1090.0   59.0  299.0  300.0  300.0  300.0 1510.0
   69623247   65.0  338.0 1259.0 1659.0 1120.0   62.0  299.0  300.0  300.0  300.0 1500.0
   69627250   65.0  338.0 1236.0 1657.0 1100.0   60.0  299.0  300.0  300.0  300.0 1500.0
   69631270   65.0  338.0 1216.0 1701.0 1070.0   57.0  299.0  300.0  300.0  300.0 1500.0
   69635269   65.0  338.0 1226.0 1686.0 1090.0   59.0  299.0  300.0  300.0  300.0 1500.0
   69639269   65.0  338.0 1227.0 1692.0 1080.0   58.0  299.0  300.0  300.0  300.0 1500.0
   69643282   65.0  338.0 1248.0 1672.0 1100.0   60.0  299.0  300.0  300.0  300.0 1500.0
   69647294   65.0  338.0 1216.0 1685.0 1080.0   58.0  299.0  300.0  300.0  300.0 1500.0
   69651303   65.0  338.0 1236.0 1655.0 1100.0   60.0  299.0  300.0  300.0  300.0 1500.0
   69655306   65.0  338.0 1231.0 1668.0 1100.0   60.0  299.0  300.0  300.0  300.0 1500.0
   69659319   65.0  338.0 1229.0 1696.0 1080.0   58.0  299.0  300.0  300.0  300.0 1510.0
   69663309   65.0  338.0 1194.0 1681.0 1070.0   57.0  299.0  300.0  300.0  300.0 1500.0
   69667321   65.0  338.0 1261.0 1720.0 1090.0   59.0  299.0  300.0  300.0  300.0 1500.0
   69671323   65.0  338.0 1212.0 1682.0 1080.0   58.0  299.0  299.0  300.0  300.0 1510.0
   69675345   65.0  338.0 1251.0 1702.0 1090.0   59.0  299.0  300.0  300.0  300.0 1500.0
   69679339   65.0  338.0 1232.0 1708.0 1080.0   58.0  299.0  300.0  300.0  300.0 1500.0
   69683346   65.0  338.0 1263.0 1647.0 1120.0   62.0  299.0  300.0  300.0  300.0 1510.0
   69687352   65.0  338.0 1254.0 1680.0 1100.0   60.0  299.0  300.0  300.0  300.0 1500.0
   69691352   65.0  338.0 1227.0 1736.0 1060.0   56.0  299.0  300.0  300.0  300.0 1500.0
   69695363   65.0  338.0 1238.0 1678.0 1100.0   60.0  299.0  300.0  300.0  300.0 1500.0
   69699367   65.0  338.0 1236.0 1675.0 1100.0   60.0  299.0  300.0  300.0  300.0 1500.0
   69703377   65.0  338.0 1223.0 1701.0 1080.0   58.0  299.0  300.0  300.0  300.0 1490.0
   69707393   65.0  338.0 1207.0 1649.0 1090.0   59.0  299.0  300.0  300.0  300.0 1500.0
   69711401   65.0  338.0 1235.0 1697.0 1090.0   59.0  299.0  300.0  300.0  300.0 1500.0
   69715418   65.0  338.0 1237.0 1664.0 1100.0   60.0  299.0  300.0  300.0  300.0 1500.0
   69719420   65.0  338.0 1224.0 1695.0 1080.0   58.0  299.0  300.0  300.0  300.0 1500.0
   69723428   65.0  338.0 1208.0 1722.0 1060.0   56.0  299.0  300.0  300.0  300.0 1500.0
   69727430   65.0  338.0 1201.0 1659.0 1080.0   58.0  299.0  300.0  300.0  300.0 1500.0
   69731456   65.0  338.0 1229.0 1703.0 1080.0   58.0  299.0  300.0  300.0  300.0 1490.0
   69735451   65.0  338.0 1221.0 1688.0 1080.0   58.0  299.0  299.0  300.0  300.0 1500.0
   69739463   65.0  338.0 1218.0 1706.0 1070.0   57.0  299.0  300.0  300.0  300.0 1510.0
   69743468   65.0  338.0 1222.0 1685.0 1080.0   58.0  299.0  300.0  300.0  300.0 1510.0
   69747473   65.0  338.0 1247.0 1697.0 1090.0   59.0  299.0  300.0  300.0  300.0 1510.0
   69751493   65.0  338.0 1195.0 1690.0 1060.0   56.0  299.0  299.0  300.0  300.0 1500.0
   69755491   65.0  338.0 1209.0 1725.0 1060.0   56.0  299.0  300.0  300.0  300.0 1500.0
   69759489   65.0  338.0 1210.0 1669.0 1080.0   58.0  299.0  300.0  300.0  300.0 1510.0
   69763523   64.0  338.0 1244.0 1682.0 1100.0   60.0  299.0  299.0  300.0  300.0 1500.0
   69767515   65.0  338.0 1204.0 1696.0 1070.0   57.0  299.0  299.0  300.0  300.0 1500.0
   69771523   65.0  338.0 1213.0 1719.0 1060.0   56.0  299.0  299.0  300.0  300.0 1500.0
   69775540   65.0  338.0 1221.0 1694.0 1080.0   58.0  299.0  300.0  300.0  300.0 1500.0
   69779547   65.0  338.0 1216.0 1692.0 1080.0   58.0  299.0  300.0  300.0  300.0 1510.0
   69783547   64.0  338.0 1208.0 1694.0 1070.0   57.0  299.0  300.0  300.0  300.0 1500.0
   69787559   64.0  338.0 1231.0 1687.0 1090.0   59.0  299.0  300.0  300.0  300.0 1500.0
   69791572   64.0  338.0 1226.0 1725.0 1070.0   57.0  299.0  300.0  300.0  300.0 1500.0
   69795574   64.0  338.0 1254.0 1665.0 1110.0   61.0  299.0  300.0  300.0  300.0 1500.0
   69799600   65.0  338.0 1223.0 1691.0 1080.0   58.0  299.0  300.0  300.0  300.0 1510.0
   69803602   64.0  338.0 1199.0 1713.0 1060.0   56.0  299.0  300.0  300.0  300.0 1500.0
   69807604   64.0  338.0 1261.0 1695.0 1100.0   60.0  299.0  300.0  300.0  300.0 1500.0
   69811609   64.0  338.0 1198.0 1725.0 1050.0   55.0  299.0  300.0  300.0  300.0 1500.0
   69815617   64.0  338.0 1196.0 1656.0 1080.0   58.0  299.0  300.0  300.0  300.0 1500.0
   69819617   64.0  338.0 1197.0 1693.0 1060.0   56.0  299.0  300.0  300.0  300.0 1490.0
   69823638   64.0  338.0 1221.0 1708.0 1070.0   57.0  299.0  300.0  300.0  300.0 1500.0
   69827643   64.0  338.0 1206.0 1703.0 1070.0   57.0  299.0  300.0  300.0  300.0 1500.0
