# 
~VERSION INFORMATION
     VERS.                              2.0:Версия формата LAS
     WRAP.                               NO:Режим одной строчки на временной отчет
~WELL INFORMATION
     STRT.ms                       39169932:Время первой записи в файле
     STOP.ms                      115315297:Время последней записи в файле
     STEP.ms                              0:Шаг времени, 0 - переменный шаг
     NULL.                          -999.25:Метка, нет значения
     DATE.                       07.09.2023:Дата каротажа
      DRV.                                 :Наименование драйвера прибора
     NAME.                             ГГКП:Название прибора
     SNUM.                         18417002:Серийный номер прибора
     FRMW.                         0.19.7.3:Версия прошивки на контроллере прибора
~CURVE INFORMATION
     TIME.ms                       {0,11:0}:Время, количество миллисекунд от начало суток
       MT.°C                               :Температура
      TFG.°                                :Гравитационный поворот
      RSD.имп./сек                         :Счёт, ближний зонд ГГКП
      RLD.имп./сек                         :Счёт, дальний зонд ГГКП
     RHOB.кг/м3                            :Плотность
   HCRHOB.g/cm3                            :Плотность, у.е.
     ADCS.mV                               :Измеренное напряжение порога компараторапо ближнему зонду
     ADCL.mV                               :Измеренное напряжение порога компараторапо дальнему зонду
    THLDS.mV                               :Выставленный порог компараторапо ближнему зонду
    THLDL.mV                               :Выставленный порог компараторапо дальнему зонду
    GRUHV.В                                :Напряжение на высоковольтнике Гамма
~OTHER INFORMATION


~A     TIME     MT    TFG    RSD    RLD   RHOB HCRHOB   ADCS   ADCL  THLDS  THLDL  GRUHV
# ...
  109875603   33.0  336.0 1207.0 1709.0 1060.0   56.0  300.0  300.0  300.0  300.0 1500.0
  109879616   34.0  338.0 1213.0 1682.0 1080.0   58.0  299.0  299.0  300.0  300.0 1490.0
  109883624   33.0  336.0 1236.0 1683.0 1090.0   59.0  300.0  300.0  300.0  300.0 1500.0
  109887633   33.0  338.0 1209.0 1708.0 1070.0   57.0  300.0  300.0  300.0  300.0 1510.0
  109891663   33.0  338.0 1234.0 1673.0 1100.0   60.0  300.0  299.0  300.0  300.0 1500.0
  109895662   33.0  338.0 1258.0 1650.0 1120.0   62.0  300.0  300.0  300.0  300.0 1500.0
  109899684   33.0  338.0 1197.0 1682.0 1070.0   57.0  300.0  300.0  300.0  300.0 1530.0
  109903684   33.0  338.0 1218.0 1683.0 1080.0   58.0  299.0  300.0  300.0  300.0 1500.0
  109907693   33.0  336.0 1218.0 1692.0 1080.0   58.0  300.0  300.0  300.0  300.0 1500.0
  109911710   33.0  336.0 1209.0 1676.0 1080.0   58.0  300.0  300.0  300.0  300.0 1500.0
  109915720   33.0  336.0 1235.0 1662.0 1100.0   60.0  300.0  300.0  300.0  300.0 1500.0
  109919735   33.0  338.0 1209.0 1706.0 1070.0   57.0  299.0  300.0  300.0  300.0 1500.0
  109923731   33.0  338.0 1218.0 1690.0 1080.0   58.0  299.0  300.0  300.0  300.0 1510.0
  109927740   33.0  338.0 1223.0 1705.0 1080.0   58.0  300.0  300.0  300.0  300.0 1480.0
  109931745   33.0  338.0 1206.0 1700.0 1070.0   57.0  299.0  299.0  300.0  300.0 1500.0
  109935769   33.0  338.0 1198.0 1702.0 1060.0   56.0  299.0  300.0  300.0  300.0 1490.0
  109939765   33.0  338.0 1180.0 1729.0 1040.0   54.0  300.0  300.0  300.0  300.0 1510.0
  109943770   34.0  338.0 1222.0 1728.0 1060.0   56.0  299.0  300.0  300.0  300.0 1510.0
  109947774   33.0  338.0 1206.0 1686.0 1070.0   57.0  300.0  300.0  300.0  300.0 1500.0
  109951790   33.0  338.0 1244.0 1694.0 1090.0   59.0  300.0  299.0  300.0  300.0 1500.0
  109955792   33.0  338.0 1189.0 1675.0 1070.0   57.0  300.0  299.0  300.0  300.0 1500.0
  109959809   33.0  336.0 1244.0 1663.0 1110.0   61.0  299.0  299.0  300.0  300.0 1510.0
  109963808   33.0  336.0 1182.0 1694.0 1050.0   55.0  299.0  300.0  300.0  300.0 1510.0
  109967815   33.0  338.0 1260.0 1689.0 1100.0   60.0  300.0  300.0  300.0  300.0 1490.0
  109971826   33.0  336.0 1213.0 1701.0 1070.0   57.0  300.0  300.0  300.0  300.0 1500.0
  109975830   33.0  338.0 1208.0 1687.0 1070.0   57.0  300.0  300.0  300.0  300.0 1500.0
  109979854   33.0  338.0 1220.0 1662.0 1090.0   59.0  300.0  299.0  300.0  300.0 1500.0
  109983854   33.0  336.0 1179.0 1658.0 1070.0   57.0  300.0  299.0  300.0  300.0 1510.0
  109987863   33.0  338.0 1188.0 1675.0 1070.0   57.0  299.0  299.0  300.0  300.0 1500.0
  109991879   33.0  338.0 1207.0 1698.0 1070.0   57.0  300.0  299.0  300.0  300.0 1520.0
  109995881   33.0  336.0 1214.0 1669.0 1090.0   59.0  299.0  300.0  300.0  300.0 1510.0
  109999896   34.0  338.0 1203.0 1699.0 1070.0   57.0  299.0  299.0  300.0  300.0 1500.0
  110003908   33.0  338.0 1211.0 1687.0 1080.0   58.0  299.0  299.0  300.0  300.0 1510.0
  110007914   33.0  338.0 1228.0 1685.0 1090.0   59.0  300.0  299.0  300.0  300.0 1500.0
  110011927   33.0  338.0 1237.0 1655.0 1100.0   60.0  300.0  300.0  300.0  300.0 1530.0
  110015937   33.0  338.0 1193.0 1689.0 1060.0   56.0  299.0  300.0  300.0  300.0 1500.0
  110019943   33.0  338.0 1233.0 1664.0 1100.0   60.0  300.0  300.0  300.0  300.0 1500.0
  110023954   33.0  338.0 1255.0 1684.0 1100.0   60.0  300.0  299.0  300.0  300.0 1490.0
  110027969   33.0  338.0 1229.0 1702.0 1080.0   58.0  299.0  299.0  300.0  300.0 1500.0
  110031982   33.0  338.0 1224.0 1671.0 1090.0   59.0  300.0  299.0  300.0  300.0 1500.0
  110035993   33.0  338.0 1225.0 1715.0 1070.0   57.0  300.0  300.0  300.0  300.0 1500.0
  110040004   33.0  336.0 1192.0 1687.0 1060.0   56.0  299.0  299.0  300.0  300.0 1500.0
  110044018   33.0  336.0 1224.0 1683.0 1080.0   58.0  299.0  299.0  300.0  300.0 1500.0
  110048028   33.0  338.0 1206.0 1681.0 1070.0   57.0  300.0  300.0  300.0  300.0 1500.0
  110052039   33.0  338.0 1204.0 1692.0 1070.0   57.0  300.0  299.0  300.0  300.0 1500.0
  110056052   33.0  338.0 1201.0 1727.0 1050.0   55.0  300.0  300.0  300.0  300.0 1510.0
  110060069   33.0  338.0 1209.0 1692.0 1070.0   57.0  300.0  300.0  300.0  300.0 1500.0
  110064063   33.0  338.0 1247.0 1716.0 1080.0   58.0  300.0  300.0  300.0  300.0 1500.0
  110068069   33.0  338.0 1236.0 1668.0 1100.0   60.0  300.0  300.0  300.0  300.0 1490.0
  110072076   33.0  338.0 1197.0 1705.0 1060.0   56.0  299.0  299.0  300.0  300.0 1510.0
  110076081   33.0  336.0 1216.0 1686.0 1080.0   58.0  299.0  300.0  300.0  300.0 1510.0
  110080099   33.0  338.0 1197.0 1716.0 1060.0   56.0  299.0  299.0  300.0  300.0 1490.0
  110084105   33.0  338.0 1219.0 1677.0 1080.0   58.0  300.0  300.0  300.0  300.0 1480.0
  110088119   33.0  338.0 1231.0 1705.0 1080.0   58.0  299.0  300.0  300.0  300.0 1500.0
  110092125   33.0  338.0 1199.0 1672.0 1080.0   58.0  300.0  299.0  300.0  300.0 1500.0
  110096127   33.0  338.0 1216.0 1683.0 1080.0   58.0  299.0  300.0  300.0  300.0 1500.0
  110100139   33.0  336.0 1219.0 1683.0 1080.0   58.0  299.0  299.0  300.0  300.0 1500.0
  110104146   33.0  338.0 1181.0 1660.0 1070.0   57.0  300.0  299.0  300.0  300.0 1510.0
  110108149   33.0  336.0 1212.0 1712.0 1070.0   57.0  299.0  299.0  300.0  300.0 1500.0
  110112161   33.0  338.0 1256.0 1679.0 1110.0   61.0  299.0  300.0  300.0  300.0 1510.0
  110116181   33.0  338.0 1240.0 1718.0 1080.0   58.0  300.0  300.0  300.0  300.0 1500.0
  110120175   33.0  338.0 1197.0 1698.0 1060.0   56.0  299.0  299.0  300.0  300.0 1510.0
  110124184   33.0  338.0 1216.0 1658.0 1090.0   59.0  299.0  300.0  300.0  300.0 1500.0
  110128185   33.0  338.0 1220.0 1696.0 1080.0   58.0  299.0  299.0  300.0  300.0 1500.0
  110132203   33.0  338.0 1221.0 1722.0 1070.0   57.0  300.0  300.0  300.0  300.0 1500.0
  110136215   33.0  338.0 1181.0 1679.0 1060.0   56.0  300.0  299.0  300.0  300.0 1500.0
  110140230   33.0  338.0 1234.0 1683.0 1090.0   59.0  299.0  299.0  300.0  300.0 1500.0
  110144232   33.0  338.0 1171.0 1706.0 1040.0   54.0  300.0  300.0  300.0  300.0 1500.0
  110148241   33.0  338.0 1220.0 1669.0 1090.0   59.0  300.0  300.0  300.0  300.0 1510.0
  110152256   33.0  338.0 1201.0 1674.0 1080.0   58.0  300.0  300.0  300.0  300.0 1520.0
  110156278   33.0  336.0 1167.0 1673.0 1060.0   56.0  299.0  299.0  300.0  300.0 1510.0
  110160279   33.0  336.0 1225.0 1679.0 1090.0   59.0  299.0  299.0  300.0  300.0 1500.0
  110164292   33.0  338.0 1227.0 1683.0 1090.0   59.0  299.0  300.0  300.0  300.0 1490.0
  110168297   33.0  338.0 1208.0 1640.0 1090.0   59.0  300.0  299.0  300.0  300.0 1520.0
  110172307   33.0  336.0 1210.0 1689.0 1070.0   57.0  299.0  300.0  300.0  300.0 1510.0
  110176311   33.0  338.0 1237.0 1684.0 1090.0   59.0  299.0  299.0  300.0  300.0 1500.0
  110180321   33.0  338.0 1244.0 1647.0 1110.0   61.0  299.0  300.0  300.0  300.0 1500.0
  110184335   33.0  338.0 1219.0 1696.0 1080.0   58.0  299.0  299.0  300.0  300.0 1500.0
  110188354   33.0  338.0 1206.0 1698.0 1070.0   57.0  300.0  300.0  300.0  300.0 1500.0
  110192350   33.0  338.0 1201.0 1689.0 1070.0   57.0  299.0  299.0  300.0  300.0 1490.0
  110196362   33.0  338.0 1256.0 1712.0 1090.0   59.0  300.0  299.0  300.0  300.0 1500.0
  110200377   33.0  338.0 1211.0 1687.0 1080.0   58.0  300.0  300.0  300.0  300.0 1500.0
  110204382   33.0  338.0 1215.0 1664.0 1090.0   59.0  300.0  300.0  300.0  300.0 1500.0
  110208389   33.0  338.0 1204.0 1683.0 1070.0   57.0  299.0  300.0  300.0  300.0 1500.0
  110212392   33.0  338.0 1221.0 1713.0 1070.0   57.0  300.0  299.0  300.0  300.0 1510.0
  110216410   33.0  338.0 1233.0 1661.0 1100.0   60.0  300.0  300.0  300.0  300.0 1490.0
  110220417   33.0  338.0 1228.0 1702.0 1080.0   58.0  299.0  299.0  300.0  300.0 1510.0
  110224412   33.0  338.0 1224.0 1713.0 1070.0   57.0  300.0  300.0  300.0  300.0 1500.0
  110228412   33.0  338.0 1267.0 1716.0 1100.0   60.0  300.0  299.0  300.0  300.0 1510.0
  110232432   33.0  338.0 1215.0 1695.0 1070.0   57.0  300.0  299.0  300.0  300.0 1520.0
