# 
~VERSION INFORMATION
     VERS.                              2.0:Версия формата LAS
     WRAP.                               NO:Режим одной строчки на временной отчет
~WELL INFORMATION
     STRT.ms                       39169932:Время первой записи в файле
     STOP.ms                      115315297:Время последней записи в файле
     STEP.ms                              0:Шаг времени, 0 - переменный шаг
     NULL.                          -999.25:Метка, нет значения
     DATE.                       07.09.2023:Дата каротажа
      DRV.                                 :Наименование драйвера прибора
     NAME.                             ГГКП:Название прибора
     SNUM.                         18417002:Серийный номер прибора
     FRMW.                         0.19.7.3:Версия прошивки на контроллере прибора
~CURVE INFORMATION
     TIME.ms                       {0,11:0}:Время, количество миллисекунд от начало суток
       MT.°C                               :Температура
      TFG.°                                :Гравитационный поворот
      RSD.имп./сек                         :Счёт, ближний зонд ГГКП
      RLD.имп./сек                         :Счёт, дальний зонд ГГКП
     RHOB.кг/м3                            :Плотность
   HCRHOB.g/cm3                            :Плотность, у.е.
     ADCS.mV                               :Измеренное напряжение порога компараторапо ближнему зонду
     ADCL.mV                               :Измеренное напряжение порога компараторапо дальнему зонду
    THLDS.mV                               :Выставленный порог компараторапо ближнему зонду
    THLDL.mV                               :Выставленный порог компараторапо дальнему зонду
    GRUHV.В                                :Напряжение на высоковольтнике Гамма
~OTHER INFORMATION


~A     TIME     MT    TFG    RSD    RLD   RHOB HCRHOB   ADCS   ADCL  THLDS  THLDL  GRUHV
# ...
   54320596  121.0  340.0 1243.0 1628.0 1120.0   62.0  299.0  299.0  300.0  300.0 1490.0
   54324612  121.0  340.0 1232.0 1654.0 1100.0   60.0  299.0  300.0  300.0  300.0 1480.0
   54328621  121.0  340.0 1187.0 1669.0 1070.0   57.0  299.0  299.0  300.0  300.0 1500.0
   54332615  121.0  340.0 1221.0 1663.0 1090.0   59.0  299.0  299.0  300.0  300.0 1510.0
   54336632  121.0  340.0 1192.0 1679.0 1070.0   57.0  299.0  299.0  300.0  300.0 1500.0
   54340636  121.0  340.0 1199.0 1658.0 1080.0   58.0  299.0  299.0  300.0  300.0 1500.0
   54344646  121.0  340.0 1211.0 1688.0 1080.0   58.0  299.0  299.0  300.0  300.0 1490.0
   54348640  121.0  340.0 1241.0 1619.0 1120.0   62.0  299.0  299.0  300.0  300.0 1500.0
   54352645  121.0  340.0 1220.0 1650.0 1100.0   60.0  299.0  299.0  300.0  300.0 1510.0
   54356649  121.0  340.0 1215.0 1688.0 1080.0   58.0  299.0  299.0  300.0  300.0 1500.0
   54360666  121.0  340.0 1184.0 1661.0 1070.0   57.0  299.0  299.0  300.0  300.0 1500.0
   54364671  121.0  340.0 1201.0 1642.0 1090.0   59.0  299.0  299.0  300.0  300.0 1490.0
   54368696  121.0  340.0 1210.0 1660.0 1090.0   59.0  299.0  300.0  300.0  300.0 1500.0
   54372700  121.0  340.0 1208.0 1663.0 1080.0   58.0  299.0  300.0  300.0  300.0 1510.0
   54376708  121.0  340.0 1206.0 1665.0 1080.0   58.0  299.0  299.0  300.0  300.0 1500.0
   54380728  121.0  340.0 1222.0 1684.0 1080.0   58.0  299.0  299.0  300.0  300.0 1500.0
   54384721  121.0  340.0 1192.0 1713.0 1050.0   55.0  299.0  299.0  300.0  300.0 1500.0
   54388738  121.0  340.0 1207.0 1617.0 1100.0   60.0  299.0  299.0  300.0  300.0 1500.0
   54392742  121.0  340.0 1191.0 1679.0 1070.0   57.0  299.0  299.0  300.0  300.0 1500.0
   54396748  121.0  340.0 1205.0 1667.0 1080.0   58.0  299.0  299.0  300.0  300.0 1490.0
   54400754  121.0  340.0 1198.0 1670.0 1080.0   58.0  299.0  299.0  300.0  300.0 1500.0
   54404781  121.0  340.0 1213.0 1650.0 1090.0   59.0  299.0  299.0  300.0  300.0 1510.0
   54408775  121.0  340.0 1217.0 1689.0 1080.0   58.0  299.0  299.0  300.0  300.0 1490.0
   54412793  121.0  340.0 1205.0 1620.0 1100.0   60.0  299.0  300.0  300.0  300.0 1500.0
   54416794  121.0  340.0 1240.0 1650.0 1110.0   61.0  299.0  299.0  300.0  300.0 1490.0
   54420803  121.0  340.0 1216.0 1634.0 1100.0   60.0  299.0  299.0  300.0  300.0 1500.0
   54424815  121.0  340.0 1182.0 1665.0 1070.0   57.0  299.0  299.0  300.0  300.0 1500.0
   54428819  121.0  340.0 1204.0 1631.0 1100.0   60.0  299.0  299.0  300.0  300.0 1500.0
   54432833  121.0  340.0 1198.0 1664.0 1080.0   58.0  299.0  300.0  300.0  300.0 1520.0
   54436838  121.0  340.0 1204.0 1669.0 1080.0   58.0  299.0  300.0  300.0  300.0 1500.0
   54440839  121.0  340.0 1160.0 1690.0 1040.0   54.0  299.0  299.0  300.0  300.0 1510.0
   54444849  121.0  340.0 1181.0 1627.0 1080.0   58.0  299.0  299.0  300.0  300.0 1520.0
   54448856  121.0  340.0 1218.0 1646.0 1100.0   60.0  299.0  299.0  300.0  300.0 1500.0
   54452867  121.0  340.0 1181.0 1638.0 1080.0   58.0  299.0  300.0  300.0  300.0 1490.0
   54456882  121.0  340.0 1216.0 1699.0 1070.0   57.0  299.0  299.0  300.0  300.0 1500.0
   54460884  121.0  340.0 1221.0 1667.0 1090.0   59.0  299.0  299.0  300.0  300.0 1490.0
   54464902  121.0  340.0 1238.0 1672.0 1100.0   60.0  299.0  299.0  300.0  300.0 1500.0
   54468907  121.0  340.0 1192.0 1654.0 1080.0   58.0  299.0  299.0  300.0  300.0 1510.0
   54472915  121.0  340.0 1218.0 1635.0 1100.0   60.0  299.0  299.0  300.0  300.0 1480.0
   54476929  121.0  340.0 1196.0 1650.0 1080.0   58.0  299.0  299.0  300.0  300.0 1520.0
   54480926  121.0  340.0 1210.0 1652.0 1090.0   59.0  299.0  299.0  300.0  300.0 1500.0
   54484936  121.0  340.0 1214.0 1668.0 1090.0   59.0  299.0  300.0  300.0  300.0 1500.0
   54488940  121.0  340.0 1226.0 1632.0 1110.0   61.0  299.0  299.0  300.0  300.0 1490.0
   54492944  121.0  340.0 1212.0 1672.0 1080.0   58.0  299.0  299.0  300.0  300.0 1490.0
   54496953  121.0  340.0 1209.0 1604.0 1110.0   61.0  299.0  300.0  300.0  300.0 1500.0
   54500970  121.0  340.0 1196.0 1665.0 1080.0   58.0  299.0  300.0  300.0  300.0 1500.0
   54504972  121.0  340.0 1211.0 1647.0 1090.0   59.0  299.0  299.0  300.0  300.0 1500.0
   54508980  121.0  340.0 1224.0 1632.0 1110.0   61.0  299.0  299.0  300.0  300.0 1490.0
   54512984  122.0  340.0 1223.0 1668.0 1090.0   59.0  299.0  299.0  300.0  300.0 1500.0
   54517002  121.0  340.0 1226.0 1645.0 1100.0   60.0  299.0  299.0  300.0  300.0 1490.0
   54521004  122.0  340.0 1211.0 1639.0 1100.0   60.0  299.0  299.0  300.0  300.0 1490.0
   54525015  122.0  340.0 1209.0 1636.0 1100.0   60.0  299.0  299.0  300.0  300.0 1500.0
   54529034  121.0  340.0 1216.0 1666.0 1090.0   59.0  299.0  299.0  300.0  300.0 1500.0
   54533025  122.0  340.0 1220.0 1641.0 1100.0   60.0  299.0  299.0  300.0  300.0 1490.0
   54537040  122.0  340.0 1196.0 1632.0 1090.0   59.0  299.0  299.0  300.0  300.0 1500.0
   54541049  122.0  340.0 1181.0 1630.0 1080.0   58.0  299.0  299.0  300.0  300.0 1510.0
   54545064  122.0  340.0 1190.0 1644.0 1080.0   58.0  299.0  300.0  300.0  300.0 1500.0
   54549077  122.0  340.0 1202.0 1670.0 1080.0   58.0  299.0  299.0  300.0  300.0 1490.0
   54553088  122.0  340.0 1212.0 1674.0 1080.0   58.0  299.0  299.0  300.0  300.0 1500.0
   54557091  122.0  340.0 1218.0 1651.0 1100.0   60.0  299.0  299.0  300.0  300.0 1490.0
   54561093  122.0  340.0 1211.0 1656.0 1090.0   59.0  299.0  299.0  300.0  300.0 1500.0
   54565111  122.0  340.0 1193.0 1659.0 1080.0   58.0  299.0  299.0  300.0  300.0 1500.0
   54569121  122.0  340.0 1212.0 1677.0 1080.0   58.0  299.0  299.0  300.0  300.0 1500.0
   54573128  122.0  340.0 1199.0 1666.0 1080.0   58.0  299.0  299.0  300.0  300.0 1500.0
   54577151  122.0  340.0 1191.0 1620.0 1090.0   59.0  299.0  299.0  300.0  300.0 1500.0
   54581149  122.0  340.0 1207.0 1628.0 1100.0   60.0  299.0  299.0  300.0  300.0 1500.0
   54585161  122.0  340.0 1202.0 1664.0 1080.0   58.0  299.0  299.0  300.0  300.0 1510.0
   54589165  122.0  340.0 1206.0 1680.0 1080.0   58.0  299.0  299.0  300.0  300.0 1490.0
   54593172  122.0  340.0 1209.0 1667.0 1080.0   58.0  299.0  299.0  300.0  300.0 1500.0
   54597187  122.0  340.0 1220.0 1640.0 1100.0   60.0  299.0  300.0  300.0  300.0 1500.0
   54601194  122.0  340.0 1199.0 1593.0 1110.0   61.0  299.0  299.0  300.0  300.0 1490.0
   54605207  122.0  340.0 1215.0 1664.0 1090.0   59.0  299.0  300.0  300.0  300.0 1500.0
   54609221  122.0  340.0 1197.0 1657.0 1080.0   58.0  299.0  299.0  300.0  300.0 1500.0
   54613231  122.0  340.0 1186.0 1669.0 1070.0   57.0  299.0  299.0  300.0  300.0 1490.0
   54617243  122.0  340.0 1206.0 1624.0 1100.0   60.0  299.0  299.0  300.0  300.0 1500.0
   54621252  122.0  340.0 1204.0 1640.0 1090.0   59.0  299.0  299.0  300.0  300.0 1510.0
   54625270  122.0  340.0 1217.0 1652.0 1090.0   59.0  299.0  299.0  300.0  300.0 1500.0
   54629277  122.0  340.0 1200.0 1645.0 1090.0   59.0  299.0  299.0  300.0  300.0 1510.0
   54633297  122.0  340.0 1168.0 1668.0 1060.0   56.0  299.0  299.0  300.0  300.0 1510.0
   54637311  122.0  340.0 1209.0 1641.0 1090.0   59.0  299.0  299.0  300.0  300.0 1520.0
   54641316  122.0  340.0 1218.0 1639.0 1100.0   60.0  299.0  300.0  300.0  300.0 1490.0
   54645321  122.0  340.0 1204.0 1623.0 1100.0   60.0  299.0  299.0  300.0  300.0 1510.0
   54649328  122.0  340.0 1164.0 1662.0 1060.0   56.0  299.0  299.0  300.0  300.0 1500.0
   54653344  122.0  340.0 1193.0 1657.0 1080.0   58.0  299.0  299.0  300.0  300.0 1500.0
   54657356  122.0  340.0 1195.0 1649.0 1080.0   58.0  299.0  299.0  300.0  300.0 1510.0
   54661359  122.0  340.0 1207.0 1676.0 1080.0   58.0  299.0  299.0  300.0  300.0 1500.0
   54665368  122.0  340.0 1203.0 1637.0 1090.0   59.0  299.0  299.0  300.0  300.0 1500.0
   54669378  122.0  340.0 1193.0 1645.0 1080.0   58.0  299.0  299.0  300.0  300.0 1500.0
   54673383  122.0  340.0 1229.0 1689.0 1090.0   59.0  299.0  300.0  300.0  300.0 1500.0
   54677393  122.0  340.0 1204.0 1631.0 1100.0   60.0  299.0  299.0  300.0  300.0 1510.0
