# 
~VERSION INFORMATION
     VERS.                              2.0:Версия формата LAS
     WRAP.                               NO:Режим одной строчки на временной отчет
~WELL INFORMATION
     STRT.ms                       39169932:Время первой записи в файле
     STOP.ms                      115315297:Время последней записи в файле
     STEP.ms                              0:Шаг времени, 0 - переменный шаг
     NULL.                          -999.25:Метка, нет значения
     DATE.                       07.09.2023:Дата каротажа
      DRV.                                 :Наименование драйвера прибора
     NAME.                             ГГКП:Название прибора
     SNUM.                         18417002:Серийный номер прибора
     FRMW.                         0.19.7.3:Версия прошивки на контроллере прибора
~CURVE INFORMATION
     TIME.ms                       {0,11:0}:Время, количество миллисекунд от начало суток
       MT.°C                               :Температура
      TFG.°                                :Гравитационный поворот
      RSD.имп./сек                         :Счёт, ближний зонд ГГКП
      RLD.имп./сек                         :Счёт, дальний зонд ГГКП
     RHOB.кг/м3                            :Плотность
   HCRHOB.g/cm3                            :Плотность, у.е.
     ADCS.mV                               :Измеренное напряжение порога компараторапо ближнему зонду
     ADCL.mV                               :Измеренное напряжение порога компараторапо дальнему зонду
    THLDS.mV                               :Выставленный порог компараторапо ближнему зонду
    THLDL.mV                               :Выставленный порог компараторапо дальнему зонду
    GRUHV.В                                :Напряжение на высоковольтнике Гамма
~OTHER INFORMATION


~A     TIME     MT    TFG    RSD    RLD   RHOB HCRHOB   ADCS   ADCL  THLDS  THLDL  GRUHV
# ...
   74521665   55.0  338.0 1242.0 1675.0 1100.0   60.0  299.0  300.0  300.0  300.0 1490.0
   74525664   55.0  338.0 1207.0 1693.0 1070.0   57.0  299.0  300.0  300.0  300.0 1500.0
   74529676   55.0  338.0 1242.0 1681.0 1100.0   60.0  299.0  300.0  300.0  300.0 1500.0
   74533686   55.0  338.0 1241.0 1697.0 1090.0   59.0  300.0  300.0  300.0  300.0 1500.0
   74537683   55.0  338.0 1222.0 1694.0 1080.0   58.0  300.0  300.0  300.0  300.0 1510.0
   74541696   55.0  338.0 1230.0 1711.0 1080.0   58.0  300.0  300.0  300.0  300.0 1500.0
   74545702   55.0  338.0 1202.0 1675.0 1080.0   58.0  299.0  300.0  300.0  300.0 1500.0
   74549710   55.0  338.0 1225.0 1689.0 1080.0   58.0  300.0  300.0  300.0  300.0 1500.0
   74553722   55.0  338.0 1250.0 1692.0 1100.0   60.0  299.0  300.0  300.0  300.0 1500.0
   74557727   55.0  338.0 1232.0 1694.0 1080.0   58.0  299.0  300.0  300.0  300.0 1500.0
   74561734   55.0  338.0 1206.0 1688.0 1070.0   57.0  299.0  300.0  300.0  300.0 1500.0
   74565739   55.0  338.0 1223.0 1691.0 1080.0   58.0  299.0  300.0  300.0  300.0 1510.0
   74569748   55.0  338.0 1231.0 1688.0 1090.0   59.0  300.0  299.0  300.0  300.0 1510.0
   74573753   55.0  338.0 1228.0 1686.0 1090.0   59.0  299.0  300.0  300.0  300.0 1500.0
   74577752   55.0  338.0 1230.0 1701.0 1080.0   58.0  300.0  300.0  300.0  300.0 1500.0
   74581769   55.0  338.0 1227.0 1679.0 1090.0   59.0  300.0  300.0  300.0  300.0 1510.0
   74585780   55.0  338.0 1206.0 1681.0 1070.0   57.0  299.0  300.0  300.0  300.0 1500.0
   74589779   55.0  338.0 1224.0 1694.0 1080.0   58.0  300.0  300.0  300.0  300.0 1530.0
   74593798   55.0  338.0 1221.0 1717.0 1070.0   57.0  300.0  300.0  300.0  300.0 1500.0
   74597786   55.0  338.0 1242.0 1672.0 1100.0   60.0  300.0  299.0  300.0  300.0 1510.0
   74601794   55.0  338.0 1193.0 1666.0 1070.0   57.0  300.0  300.0  300.0  300.0 1500.0
   74605807   55.0  338.0 1258.0 1681.0 1110.0   61.0  299.0  300.0  300.0  300.0 1500.0
   74609820   55.0  338.0 1214.0 1669.0 1080.0   58.0  299.0  300.0  300.0  300.0 1500.0
   74613824   55.0  338.0 1234.0 1690.0 1090.0   59.0  300.0  300.0  300.0  300.0 1500.0
   74617831   55.0  338.0 1242.0 1688.0 1090.0   59.0  300.0  299.0  300.0  300.0 1500.0
   74621842   55.0  338.0 1249.0 1687.0 1100.0   60.0  299.0  300.0  300.0  300.0 1500.0
   74625854   55.0  338.0 1223.0 1703.0 1080.0   58.0  299.0  300.0  300.0  300.0 1500.0
   74629870   55.0  338.0 1231.0 1652.0 1100.0   60.0  300.0  300.0  300.0  300.0 1500.0
   74633861   55.0  338.0 1220.0 1699.0 1080.0   58.0  300.0  300.0  300.0  300.0 1500.0
   74637883   55.0  338.0 1221.0 1673.0 1090.0   59.0  300.0  300.0  300.0  300.0 1500.0
   74641888   55.0  338.0 1241.0 1702.0 1090.0   59.0  299.0  300.0  300.0  300.0 1510.0
   74645900   55.0  338.0 1234.0 1703.0 1080.0   58.0  299.0  300.0  300.0  300.0 1520.0
   74649911   55.0  338.0 1244.0 1670.0 1100.0   60.0  300.0  300.0  300.0  300.0 1510.0
   74653918   55.0  338.0 1249.0 1686.0 1100.0   60.0  300.0  300.0  300.0  300.0 1500.0
   74657924   55.0  338.0 1230.0 1677.0 1090.0   59.0  300.0  300.0  300.0  300.0 1500.0
   74661954   54.0  338.0 1208.0 1668.0 1080.0   58.0  299.0  300.0  300.0  300.0 1500.0
   74665948   54.0  338.0 1234.0 1659.0 1100.0   60.0  300.0  300.0  300.0  300.0 1500.0
   74669955   54.0  338.0 1223.0 1708.0 1070.0   57.0  300.0  300.0  300.0  300.0 1500.0
   74673959   54.0  338.0 1236.0 1690.0 1090.0   59.0  299.0  300.0  300.0  300.0 1510.0
   74677964   54.0  338.0 1234.0 1712.0 1080.0   58.0  300.0  300.0  300.0  300.0 1500.0
   74681980   54.0  338.0 1244.0 1678.0 1100.0   60.0  299.0  300.0  300.0  300.0 1490.0
   74685991   54.0  338.0 1247.0 1699.0 1090.0   59.0  300.0  300.0  300.0  300.0 1490.0
   74689997   54.0  338.0 1242.0 1702.0 1090.0   59.0  300.0  300.0  300.0  300.0 1510.0
   74694008   54.0  338.0 1237.0 1688.0 1090.0   59.0  299.0  300.0  300.0  300.0 1510.0
   74698014   54.0  338.0 1220.0 1689.0 1080.0   58.0  300.0  300.0  300.0  300.0 1490.0
   74702020   54.0  338.0 1214.0 1696.0 1070.0   57.0  299.0  300.0  300.0  300.0 1500.0
   74706034   54.0  338.0 1247.0 1663.0 1110.0   61.0  300.0  300.0  300.0  300.0 1500.0
   74710046   54.0  338.0 1232.0 1747.0 1060.0   56.0  300.0  300.0  300.0  300.0 1510.0
   74714050   54.0  338.0 1221.0 1673.0 1090.0   59.0  299.0  300.0  300.0  300.0 1500.0
   74718060   54.0  338.0 1210.0 1668.0 1080.0   58.0  299.0  300.0  300.0  300.0 1500.0
   74722078   54.0  338.0 1260.0 1697.0 1100.0   60.0  300.0  300.0  300.0  300.0 1510.0
   74726081   54.0  338.0 1241.0 1701.0 1090.0   59.0  299.0  300.0  300.0  300.0 1490.0
   74730097   54.0  338.0 1208.0 1698.0 1070.0   57.0  300.0  300.0  300.0  300.0 1500.0
   74734099   54.0  338.0 1216.0 1680.0 1080.0   58.0  300.0  300.0  300.0  300.0 1500.0
   74738105   54.0  338.0 1218.0 1686.0 1080.0   58.0  300.0  300.0  300.0  300.0 1500.0
   74742113   54.0  338.0 1241.0 1709.0 1080.0   58.0  300.0  300.0  300.0  300.0 1530.0
   74746128   54.0  338.0 1234.0 1696.0 1090.0   59.0  300.0  300.0  300.0  300.0 1490.0
   74750139   54.0  338.0 1228.0 1667.0 1090.0   59.0  300.0  300.0  300.0  300.0 1510.0
   74754150   54.0  338.0 1187.0 1700.0 1060.0   56.0  300.0  300.0  300.0  300.0 1510.0
   74758146   54.0  338.0 1209.0 1666.0 1080.0   58.0  300.0  300.0  300.0  300.0 1500.0
   74762148   54.0  338.0 1202.0 1689.0 1070.0   57.0  300.0  300.0  300.0  300.0 1500.0
   74766156   54.0  338.0 1216.0 1679.0 1080.0   58.0  300.0  300.0  300.0  300.0 1510.0
   74770182   54.0  338.0 1237.0 1691.0 1090.0   59.0  299.0  300.0  300.0  300.0 1500.0
   74774179   54.0  338.0 1220.0 1695.0 1080.0   58.0  299.0  300.0  300.0  300.0 1490.0
   74778176   54.0  338.0 1227.0 1713.0 1070.0   57.0  300.0  300.0  300.0  300.0 1500.0
   74782200   54.0  338.0 1213.0 1678.0 1080.0   58.0  300.0  300.0  300.0  300.0 1500.0
   74786195   54.0  338.0 1237.0 1687.0 1090.0   59.0  299.0  300.0  300.0  300.0 1500.0
   74790220   54.0  338.0 1224.0 1669.0 1090.0   59.0  299.0  300.0  300.0  300.0 1500.0
   74794204   54.0  338.0 1234.0 1685.0 1090.0   59.0  299.0  300.0  300.0  300.0 1500.0
   74798227   54.0  338.0 1239.0 1668.0 1100.0   60.0  299.0  300.0  300.0  300.0 1500.0
   74802245   54.0  338.0 1256.0 1721.0 1090.0   59.0  300.0  300.0  300.0  300.0 1510.0
   74806255   54.0  338.0 1256.0 1669.0 1110.0   61.0  300.0  300.0  300.0  300.0 1500.0
   74810264   54.0  338.0 1245.0 1666.0 1100.0   60.0  300.0  300.0  300.0  300.0 1490.0
   74814270   54.0  338.0 1221.0 1686.0 1080.0   58.0  299.0  300.0  300.0  300.0 1500.0
   74818289   54.0  338.0 1234.0 1672.0 1100.0   60.0  300.0  300.0  300.0  300.0 1500.0
   74822292   54.0  338.0 1238.0 1698.0 1090.0   59.0  299.0  300.0  300.0  300.0 1500.0
   74826295   54.0  338.0 1222.0 1705.0 1070.0   57.0  299.0  300.0  300.0  300.0 1500.0
   74830312   54.0  338.0 1234.0 1680.0 1090.0   59.0  300.0  300.0  300.0  300.0 1500.0
   74834327   54.0  338.0 1236.0 1698.0 1090.0   59.0  300.0  300.0  300.0  300.0 1500.0
   74838327   54.0  338.0 1240.0 1632.0 1120.0   62.0  300.0  300.0  300.0  300.0 1510.0
   74842323   54.0  338.0 1231.0 1666.0 1100.0   60.0  299.0  300.0  300.0  300.0 1500.0
   74846332   54.0  338.0 1242.0 1646.0 1110.0   61.0  300.0  300.0  300.0  300.0 1510.0
   74850337   54.0  338.0 1225.0 1655.0 1100.0   60.0  299.0  300.0  300.0  300.0 1490.0
   74854351   54.0  338.0 1203.0 1687.0 1070.0   57.0  299.0  300.0  300.0  300.0 1500.0
   74858357   54.0  338.0 1221.0 1703.0 1070.0   57.0  300.0  300.0  300.0  300.0 1510.0
   74862379   54.0  338.0 1211.0 1699.0 1070.0   57.0  300.0  300.0  300.0  300.0 1500.0
   74866377   54.0  338.0 1224.0 1699.0 1080.0   58.0  299.0  300.0  300.0  300.0 1500.0
   74870384   54.0  338.0 1230.0 1677.0 1090.0   59.0  300.0  300.0  300.0  300.0 1500.0
   74874399   54.0  338.0 1218.0 1674.0 1090.0   59.0  300.0  300.0  300.0  300.0 1490.0
   74878415   54.0  338.0 1196.0 1687.0 1070.0   57.0  300.0  300.0  300.0  300.0 1510.0
