# 
~VERSION INFORMATION
     VERS.                              2.0:Версия формата LAS
     WRAP.                               NO:Режим одной строчки на временной отчет
~WELL INFORMATION
     STRT.ms                       39169932:Время первой записи в файле
     STOP.ms                      115315297:Время последней записи в файле
     STEP.ms                              0:Шаг времени, 0 - переменный шаг
     NULL.                          -999.25:Метка, нет значения
     DATE.                       07.09.2023:Дата каротажа
      DRV.                                 :Наименование драйвера прибора
     NAME.                             ГГКП:Название прибора
     SNUM.                         18417002:Серийный номер прибора
     FRMW.                         0.19.7.3:Версия прошивки на контроллере прибора
~CURVE INFORMATION
     TIME.ms                       {0,11:0}:Время, количество миллисекунд от начало суток
       MT.°C                               :Температура
      TFG.°                                :Гравитационный поворот
      RSD.имп./сек                         :Счёт, ближний зонд ГГКП
      RLD.имп./сек                         :Счёт, дальний зонд ГГКП
     RHOB.кг/м3                            :Плотность
   HCRHOB.g/cm3                            :Плотность, у.е.
     ADCS.mV                               :Измеренное напряжение порога компараторапо ближнему зонду
     ADCL.mV                               :Измеренное напряжение порога компараторапо дальнему зонду
    THLDS.mV                               :Выставленный порог компараторапо ближнему зонду
    THLDL.mV                               :Выставленный порог компараторапо дальнему зонду
    GRUHV.В                                :Напряжение на высоковольтнике Гамма
~OTHER INFORMATION


~A     TIME     MT    TFG    RSD    RLD   RHOB HCRHOB   ADCS   ADCL  THLDS  THLDL  GRUHV
# ...
   94723740   37.0  338.0 1242.0 1679.0 1100.0   60.0  300.0  300.0  300.0  300.0 1500.0
   94727756   37.0  338.0 1250.0 1696.0 1090.0   59.0  300.0  300.0  300.0  300.0 1500.0
   94731746   37.0  338.0 1209.0 1673.0 1080.0   58.0  300.0  300.0  300.0  300.0 1490.0
   94735755   37.0  338.0 1242.0 1722.0 1080.0   58.0  300.0  300.0  300.0  300.0 1500.0
   94739757   37.0  338.0 1217.0 1693.0 1080.0   58.0  300.0  299.0  300.0  300.0 1510.0
   94743776   37.0  338.0 1215.0 1704.0 1070.0   57.0  300.0  300.0  300.0  300.0 1510.0
   94747780   37.0  338.0 1225.0 1676.0 1090.0   59.0  300.0  300.0  300.0  300.0 1500.0
   94751782   37.0  338.0 1218.0 1711.0 1070.0   57.0  300.0  300.0  300.0  300.0 1510.0
   94755797   37.0  338.0 1218.0 1688.0 1080.0   58.0  300.0  299.0  300.0  300.0 1500.0
   94759807   37.0  338.0 1223.0 1711.0 1070.0   57.0  300.0  300.0  300.0  300.0 1510.0
   94763817   37.0  338.0 1180.0 1695.0 1050.0   55.0  300.0  300.0  300.0  300.0 1500.0
   94767818   37.0  338.0 1248.0 1696.0 1090.0   59.0  300.0  300.0  300.0  300.0 1510.0
   94771839   37.0  338.0 1207.0 1717.0 1060.0   56.0  300.0  299.0  300.0  300.0 1510.0
   94775837   38.0  338.0 1221.0 1665.0 1090.0   59.0  300.0  300.0  300.0  300.0 1510.0
   94779851   37.0  338.0 1215.0 1716.0 1070.0   57.0  300.0  300.0  300.0  300.0 1500.0
   94783865   37.0  338.0 1196.0 1689.0 1070.0   57.0  300.0  300.0  300.0  300.0 1500.0
   94787884   37.0  338.0 1187.0 1705.0 1050.0   55.0  300.0  299.0  300.0  300.0 1490.0
   94791902   37.0  338.0 1223.0 1723.0 1070.0   57.0  300.0  299.0  300.0  300.0 1500.0
   94795908   37.0  338.0 1232.0 1706.0 1080.0   58.0  300.0  300.0  300.0  300.0 1500.0
   94799910   37.0  338.0 1194.0 1709.0 1060.0   56.0  300.0  300.0  300.0  300.0 1500.0
   94803914   37.0  338.0 1231.0 1716.0 1080.0   58.0  300.0  300.0  300.0  300.0 1510.0
   94807927   37.0  338.0 1197.0 1710.0 1060.0   56.0  300.0  300.0  300.0  300.0 1490.0
   94811953   37.0  338.0 1233.0 1692.0 1090.0   59.0  300.0  300.0  300.0  300.0 1490.0
   94815951   37.0  338.0 1186.0 1723.0 1050.0   55.0  300.0  300.0  300.0  300.0 1510.0
   94819966   37.0  338.0 1216.0 1689.0 1080.0   58.0  300.0  300.0  300.0  300.0 1500.0
   94823971   37.0  338.0 1194.0 1680.0 1070.0   57.0  300.0  299.0  300.0  300.0 1510.0
   94827990   37.0  338.0 1202.0 1674.0 1080.0   58.0  300.0  299.0  300.0  300.0 1500.0
   94831994   37.0  338.0 1190.0 1656.0 1080.0   58.0  300.0  300.0  300.0  300.0 1510.0
   94835997   37.0  338.0 1228.0 1709.0 1080.0   58.0  300.0  300.0  300.0  300.0 1500.0
   94840006   37.0  338.0 1236.0 1701.0 1080.0   58.0  299.0  300.0  300.0  300.0 1500.0
   94844017   37.0  338.0 1212.0 1684.0 1080.0   58.0  300.0  299.0  300.0  300.0 1500.0
   94848028   37.0  338.0 1210.0 1666.0 1080.0   58.0  300.0  300.0  300.0  300.0 1500.0
   94852038   37.0  338.0 1199.0 1718.0 1060.0   56.0  300.0  300.0  300.0  300.0 1500.0
   94856049   37.0  338.0 1219.0 1721.0 1070.0   57.0  300.0  299.0  300.0  300.0 1500.0
   94860055   37.0  338.0 1216.0 1705.0 1070.0   57.0  300.0  300.0  300.0  300.0 1490.0
   94864058   37.0  338.0 1221.0 1699.0 1080.0   58.0  300.0  299.0  300.0  300.0 1490.0
   94868064   37.0  338.0 1242.0 1657.0 1110.0   61.0  300.0  300.0  300.0  300.0 1500.0
   94872067   37.0  338.0 1190.0 1646.0 1080.0   58.0  300.0  300.0  300.0  300.0 1510.0
   94876075   37.0  338.0 1216.0 1694.0 1080.0   58.0  300.0  299.0  300.0  300.0 1500.0
   94880090   37.0  338.0 1248.0 1691.0 1100.0   60.0  300.0  300.0  300.0  300.0 1500.0
   94884115   37.0  338.0 1218.0 1701.0 1070.0   57.0  300.0  300.0  300.0  300.0 1500.0
   94888105   37.0  338.0 1209.0 1690.0 1070.0   57.0  300.0  299.0  300.0  300.0 1500.0
   94892120   37.0  338.0 1215.0 1679.0 1080.0   58.0  300.0  300.0  300.0  300.0 1500.0
   94896133   37.0  338.0 1227.0 1690.0 1080.0   58.0  299.0  300.0  300.0  300.0 1520.0
   94900136   37.0  338.0 1215.0 1732.0 1060.0   56.0  300.0  300.0  300.0  300.0 1510.0
   94904143   37.0  338.0 1212.0 1719.0 1060.0   56.0  300.0  299.0  300.0  300.0 1500.0
   94908155   37.0  338.0 1219.0 1692.0 1080.0   58.0  300.0  300.0  300.0  300.0 1500.0
   94912159   37.0  338.0 1232.0 1684.0 1090.0   59.0  300.0  300.0  300.0  300.0 1500.0
   94916168   37.0  336.0 1199.0 1665.0 1080.0   58.0  300.0  300.0  300.0  300.0 1500.0
   94920174   37.0  338.0 1222.0 1644.0 1100.0   60.0  300.0  300.0  300.0  300.0 1490.0
   94924181   37.0  338.0 1201.0 1676.0 1070.0   57.0  300.0  299.0  300.0  300.0 1500.0
   94928189   37.0  338.0 1229.0 1675.0 1090.0   59.0  300.0  300.0  300.0  300.0 1500.0
   94932199   37.0  338.0 1226.0 1735.0 1060.0   56.0  300.0  300.0  300.0  300.0 1520.0
   94936209   37.0  338.0 1238.0 1690.0 1090.0   59.0  300.0  299.0  300.0  300.0 1490.0
   94940223   37.0  338.0 1232.0 1667.0 1100.0   60.0  299.0  299.0  300.0  300.0 1510.0
   94944221   37.0  338.0 1193.0 1692.0 1060.0   56.0  300.0  300.0  300.0  300.0 1500.0
   94948238   37.0  338.0 1200.0 1684.0 1070.0   57.0  300.0  300.0  300.0  300.0 1500.0
   94952247   37.0  338.0 1244.0 1668.0 1100.0   60.0  300.0  300.0  300.0  300.0 1510.0
   94956264   37.0  338.0 1217.0 1700.0 1070.0   57.0  300.0  300.0  300.0  300.0 1500.0
   94960279   37.0  338.0 1212.0 1668.0 1080.0   58.0  300.0  299.0  300.0  300.0 1500.0
   94964284   37.0  338.0 1207.0 1711.0 1060.0   56.0  300.0  300.0  300.0  300.0 1500.0
   94968287   37.0  338.0 1197.0 1657.0 1080.0   58.0  300.0  300.0  300.0  300.0 1510.0
   94972299   37.0  338.0 1244.0 1679.0 1100.0   60.0  300.0  300.0  300.0  300.0 1500.0
   94976301   37.0  338.0 1227.0 1672.0 1090.0   59.0  300.0  299.0  300.0  300.0 1500.0
   94980307   37.0  338.0 1212.0 1654.0 1090.0   59.0  300.0  300.0  300.0  300.0 1510.0
   94984313   37.0  338.0 1250.0 1679.0 1100.0   60.0  300.0  300.0  300.0  300.0 1500.0
   94988323   37.0  338.0 1211.0 1707.0 1070.0   57.0  300.0  300.0  300.0  300.0 1500.0
   94992333   37.0  338.0 1230.0 1705.0 1080.0   58.0  300.0  300.0  300.0  300.0 1500.0
   94996335   37.0  338.0 1246.0 1692.0 1090.0   59.0  300.0  300.0  300.0  300.0 1500.0
   95000335   37.0  338.0 1206.0 1644.0 1090.0   59.0  299.0  300.0  300.0  300.0 1500.0
   95004349   37.0  338.0 1223.0 1697.0 1080.0   58.0  299.0  300.0  300.0  300.0 1510.0
   95008363   37.0  338.0 1222.0 1670.0 1090.0   59.0  300.0  300.0  300.0  300.0 1500.0
   95012377   37.0  338.0 1223.0 1681.0 1090.0   59.0  300.0  300.0  300.0  300.0 1500.0
   95016386   37.0  338.0 1219.0 1672.0 1090.0   59.0  300.0  299.0  300.0  300.0 1510.0
   95020390   37.0  338.0 1231.0 1665.0 1100.0   60.0  300.0  299.0  300.0  300.0 1500.0
   95024405   37.0  338.0 1204.0 1679.0 1070.0   57.0  300.0  300.0  300.0  300.0 1500.0
   95028412   37.0  338.0 1223.0 1672.0 1090.0   59.0  300.0  299.0  300.0  300.0 1500.0
   95032420   37.0  338.0 1185.0 1697.0 1060.0   56.0  300.0  300.0  300.0  300.0 1510.0
   95036433   37.0  338.0 1223.0 1673.0 1090.0   59.0  300.0  300.0  300.0  300.0 1500.0
   95040427   37.0  338.0 1226.0 1701.0 1080.0   58.0  300.0  300.0  300.0  300.0 1490.0
   95044450   37.0  338.0 1243.0 1705.0 1090.0   59.0  300.0  300.0  300.0  300.0 1500.0
   95048446   37.0  338.0 1239.0 1688.0 1090.0   59.0  300.0  299.0  300.0  300.0 1500.0
   95052464   37.0  338.0 1205.0 1702.0 1070.0   57.0  300.0  300.0  300.0  300.0 1500.0
   95056471   37.0  338.0 1224.0 1705.0 1080.0   58.0  300.0  300.0  300.0  300.0 1500.0
   95060487   37.0  338.0 1211.0 1699.0 1070.0   57.0  300.0  300.0  300.0  300.0 1510.0
   95064491   37.0  338.0 1243.0 1675.0 1100.0   60.0  300.0  300.0  300.0  300.0 1500.0
   95068494   37.0  338.0 1177.0 1725.0 1040.0   54.0  300.0  300.0  300.0  300.0 1490.0
   95072508   37.0  338.0 1237.0 1687.0 1090.0   59.0  300.0  300.0  300.0  300.0 1500.0
   95076512   37.0  338.0 1204.0 1676.0 1080.0   58.0  300.0  300.0  300.0  300.0 1510.0
   95080535   37.0  338.0 1221.0 1674.0 1090.0   59.0  300.0  299.0  300.0  300.0 1500.0
