# 
~VERSION INFORMATION
     VERS.                              2.0:Версия формата LAS
     WRAP.                               NO:Режим одной строчки на временной отчет
~WELL INFORMATION
     STRT.ms                       39169932:Время первой записи в файле
     STOP.ms                      115315297:Время последней записи в файле
     STEP.ms                              0:Шаг времени, 0 - переменный шаг
     NULL.                          -999.25:Метка, нет значения
     DATE.                       07.09.2023:Дата каротажа
      DRV.                                 :Наименование драйвера прибора
     NAME.                             ГГКП:Название прибора
     SNUM.                         18417002:Серийный номер прибора
     FRMW.                         0.19.7.3:Версия прошивки на контроллере прибора
~CURVE INFORMATION
     TIME.ms                       {0,11:0}:Время, количество миллисекунд от начало суток
       MT.°C                               :Температура
      TFG.°                                :Гравитационный поворот
      RSD.имп./сек                         :Счёт, ближний зонд ГГКП
      RLD.имп./сек                         :Счёт, дальний зонд ГГКП
     RHOB.кг/м3                            :Плотность
   HCRHOB.g/cm3                            :Плотность, у.е.
     ADCS.mV                               :Измеренное напряжение порога компараторапо ближнему зонду
     ADCL.mV                               :Измеренное напряжение порога компараторапо дальнему зонду
    THLDS.mV                               :Выставленный порог компараторапо ближнему зонду
    THLDL.mV                               :Выставленный порог компараторапо дальнему зонду
    GRUHV.В                                :Напряжение на высоковольтнике Гамма
~OTHER INFORMATION


~A     TIME     MT    TFG    RSD    RLD   RHOB HCRHOB   ADCS   ADCL  THLDS  THLDL  GRUHV
   39169932   29.0  336.0 1252.0 1696.0 1100.0   60.0  299.0  300.0  300.0  300.0 1500.0
   39173945   29.0  336.0 1278.0 1746.0 1090.0   59.0  299.0  299.0  300.0  300.0 1510.0
   39177967   29.0  336.0 1281.0 1677.0 1120.0   62.0  299.0  299.0  300.0  300.0 1510.0
   39181958   29.0  336.0 1273.0 1643.0 1130.0   63.0  299.0  300.0  300.0  300.0 1510.0
   39185964   29.0  336.0 1250.0 1653.0 1110.0   61.0  299.0  300.0  300.0  300.0 1510.0
   39189992   29.0  336.0 1263.0 1682.0 1110.0   61.0  299.0  300.0  300.0  300.0 1520.0
   39193975   29.0  336.0 1269.0 1666.0 1120.0   62.0  299.0  300.0  300.0  300.0 1500.0
   39197968   29.0  336.0 1265.0 1694.0 1100.0   60.0  299.0  299.0  300.0  300.0 1500.0
   39201985   29.0  336.0 1262.0 1655.0 1120.0   62.0  299.0  300.0  300.0  300.0 1500.0
   39205989   29.0  336.0 1263.0 1705.0 1100.0   60.0  299.0  300.0  300.0  300.0 1510.0
   39209981   29.0  336.0 1260.0 1678.0 1110.0   61.0  299.0  299.0  300.0  300.0 1510.0
   39213976   29.0  336.0 1252.0 1652.0 1110.0   61.0  299.0  300.0  300.0  300.0 1500.0
   39217981   29.0  336.0 1260.0 1656.0 1120.0   62.0  299.0  300.0  300.0  300.0 1500.0
   39221984   29.0  336.0 1264.0 1659.0 1120.0   62.0  299.0  299.0  300.0  300.0 1500.0
   39225980   29.0  336.0 1262.0 1683.0 1110.0   61.0  300.0  300.0  300.0  300.0 1500.0
   39229989   29.0  336.0 1279.0 1701.0 1110.0   61.0  299.0  300.0  300.0  300.0 1500.0
   39234007   29.0  336.0 1235.0 1705.0 1080.0   58.0  299.0  300.0  300.0  300.0 1500.0
   39238017   29.0  336.0 1237.0 1696.0 1090.0   59.0  299.0  299.0  300.0  300.0 1510.0
   39242020   29.0  336.0 1254.0 1669.0 1110.0   61.0  299.0  300.0  300.0  300.0 1500.0
   39246020   29.0  336.0 1259.0 1723.0 1090.0   59.0  299.0  300.0  300.0  300.0 1510.0
   39250032   29.0  336.0 1278.0 1681.0 1120.0   62.0  299.0  300.0  300.0  300.0 1500.0
   39254050   29.0  336.0 1221.0 1679.0 1090.0   59.0  299.0  300.0  300.0  300.0 1510.0
   39258048   29.0  336.0 1266.0 1672.0 1110.0   61.0  299.0  300.0  300.0  300.0 1500.0
   39262050   29.0  336.0 1250.0 1698.0 1090.0   59.0  299.0  300.0  300.0  300.0 1500.0
   39266069   29.0  336.0 1265.0 1687.0 1110.0   61.0  299.0  300.0  300.0  300.0 1490.0
   39270077   29.0  336.0 1253.0 1716.0 1090.0   59.0  299.0  300.0  300.0  300.0 1500.0
   39274075   29.0  336.0 1266.0 1692.0 1110.0   61.0  299.0  300.0  300.0  300.0 1500.0
   39278082   29.0  336.0 1259.0 1677.0 1110.0   61.0  299.0  300.0  300.0  300.0 1490.0
   39282073   29.0  336.0 1270.0 1684.0 1110.0   61.0  300.0  300.0  300.0  300.0 1500.0
   39286072   29.0  336.0 1221.0 1664.0 1090.0   59.0  299.0  300.0  300.0  300.0 1500.0
   39290070   29.0  336.0 1248.0 1669.0 1110.0   61.0  299.0  300.0  300.0  300.0 1500.0
   39294073   29.0  336.0 1283.0 1642.0 1140.0   64.0  299.0  300.0  300.0  300.0 1500.0
   39298090   29.0  336.0 1265.0 1682.0 1110.0   61.0  299.0  300.0  300.0  300.0 1490.0
   39302097   29.0  336.0 1241.0 1710.0 1080.0   58.0  300.0  299.0  300.0  300.0 1510.0
   39306109   29.0  336.0 1292.0 1709.0 1110.0   61.0  299.0  300.0  300.0  300.0 1500.0
   39310117   29.0  336.0 1281.0 1681.0 1120.0   62.0  299.0  300.0  300.0  300.0 1510.0
   39314126   29.0  336.0 1242.0 1674.0 1100.0   60.0  299.0  300.0  300.0  300.0 1490.0
   39318123   29.0  336.0 1262.0 1666.0 1110.0   61.0  299.0  299.0  300.0  300.0 1510.0
   39322133   29.0  336.0 1253.0 1708.0 1090.0   59.0  299.0  300.0  300.0  300.0 1500.0
   39326158   29.0  336.0 1256.0 1678.0 1110.0   61.0  299.0  300.0  300.0  300.0 1510.0
   39330146   29.0  336.0 1229.0 1654.0 1100.0   60.0  299.0  300.0  300.0  300.0 1510.0
   39334174   29.0  336.0 1253.0 1694.0 1100.0   60.0  299.0  300.0  300.0  300.0 1490.0
   39338165   29.0  336.0 1258.0 1700.0 1100.0   60.0  299.0  300.0  300.0  300.0 1500.0
   39342175   29.0  336.0 1251.0 1708.0 1090.0   59.0  299.0  300.0  300.0  300.0 1510.0
   39346183   29.0  336.0 1264.0 1713.0 1100.0   60.0  299.0  299.0  300.0  300.0 1500.0
   39350175   29.0  336.0 1242.0 1705.0 1090.0   59.0  299.0  299.0  300.0  300.0 1500.0
   39354177   29.0  336.0 1255.0 1691.0 1100.0   60.0  299.0  299.0  300.0  300.0 1510.0
   39358214   29.0  336.0 1264.0 1691.0 1100.0   60.0  299.0  300.0  300.0  300.0 1500.0
   39362185   29.0  336.0 1260.0 1696.0 1100.0   60.0  299.0  299.0  300.0  300.0 1520.0
   39366190   29.0  336.0 1271.0 1673.0 1120.0   62.0  299.0  300.0  300.0  300.0 1510.0
   39370187   29.0  336.0 1252.0 1722.0 1080.0   58.0  299.0  300.0  300.0  300.0 1500.0
   39374201   29.0  336.0 1250.0 1665.0 1110.0   61.0  299.0  300.0  300.0  300.0 1500.0
   39378204   29.0  336.0 1269.0 1712.0 1100.0   60.0  299.0  300.0  300.0  300.0 1490.0
   39382224   29.0  336.0 1274.0 1705.0 1100.0   60.0  299.0  300.0  300.0  300.0 1500.0
   39386222   29.0  336.0 1242.0 1686.0 1090.0   59.0  299.0  300.0  300.0  300.0 1500.0
   39390229   29.0  336.0 1264.0 1675.0 1110.0   61.0  299.0  300.0  300.0  300.0 1500.0
   39394237   29.0  336.0 1263.0 1685.0 1110.0   61.0  299.0  299.0  300.0  300.0 1500.0
   39398250   29.0  336.0 1260.0 1665.0 1110.0   61.0  299.0  299.0  300.0  300.0 1500.0
   39402241   29.0  336.0 1246.0 1665.0 1110.0   61.0  299.0  300.0  300.0  300.0 1510.0
   39406244   29.0  336.0 1263.0 1688.0 1110.0   61.0  299.0  299.0  300.0  300.0 1500.0
   39410258   29.0  336.0 1249.0 1689.0 1100.0   60.0  299.0  300.0  300.0  300.0 1490.0
   39414275   29.0  336.0 1247.0 1708.0 1090.0   59.0  299.0  300.0  300.0  300.0 1500.0
   39418272   29.0  336.0 1236.0 1674.0 1100.0   60.0  299.0  300.0  300.0  300.0 1500.0
   39422275   29.0  336.0 1235.0 1677.0 1090.0   59.0  299.0  299.0  300.0  300.0 1500.0
   39426284   29.0  336.0 1281.0 1679.0 1120.0   62.0  299.0  299.0  300.0  300.0 1490.0
   39430286   29.0  336.0 1270.0 1674.0 1120.0   62.0  299.0  299.0  300.0  300.0 1490.0
   39434289   29.0  336.0 1245.0 1683.0 1100.0   60.0  299.0  300.0  300.0  300.0 1510.0
   39438288   29.0  336.0 1227.0 1689.0 1080.0   58.0  299.0  300.0  300.0  300.0 1500.0
   39442297   29.0  336.0 1266.0 1685.0 1110.0   61.0  299.0  300.0  300.0  300.0 1500.0
   39446310   29.0  336.0 1262.0 1707.0 1100.0   60.0  299.0  300.0  300.0  300.0 1510.0
   39450339   29.0  336.0 1237.0 1657.0 1100.0   60.0  299.0  300.0  300.0  300.0 1500.0
   39454336   29.0  336.0 1280.0 1680.0 1120.0   62.0  299.0  299.0  300.0  300.0 1490.0
   39458346   29.0  336.0 1235.0 1676.0 1090.0   59.0  299.0  300.0  300.0  300.0 1510.0
   39462361   29.0  336.0 1273.0 1667.0 1120.0   62.0  299.0  300.0  300.0  300.0 1500.0
   39466372   29.0  336.0 1254.0 1691.0 1100.0   60.0  299.0  300.0  300.0  300.0 1500.0
   39470380   29.0  336.0 1281.0 1688.0 1120.0   62.0  299.0  299.0  300.0  300.0 1500.0
   39474399   29.0  336.0 1283.0 1696.0 1110.0   61.0  299.0  300.0  300.0  300.0 1490.0
   39478423   29.0  336.0 1274.0 1677.0 1120.0   62.0  299.0  300.0  300.0  300.0 1500.0
   39482419   29.0  336.0 1265.0 1682.0 1110.0   61.0  299.0  299.0  300.0  300.0 1500.0
   39486422   29.0  336.0 1285.0 1678.0 1120.0   62.0  300.0  300.0  300.0  300.0 1500.0
   39490447   29.0  336.0 1269.0 1701.0 1100.0   60.0  299.0  300.0  300.0  300.0 1510.0
   39494432   29.0  336.0 1240.0 1679.0 1100.0   60.0  299.0  300.0  300.0  300.0 1500.0
   39498451   29.0  336.0 1270.0 1683.0 1110.0   61.0  299.0  300.0  300.0  300.0 1500.0
   39502448   29.0  336.0 1239.0 1667.0 1100.0   60.0  299.0  300.0  300.0  300.0 1510.0
   39506463   29.0  336.0 1256.0 1719.0 1090.0   59.0  299.0  300.0  300.0  300.0 1490.0
   39510466   29.0  336.0 1273.0 1682.0 1110.0   61.0  299.0  299.0  300.0  300.0 1500.0
   39514474   29.0  336.0 1253.0 1679.0 1100.0   60.0  299.0  300.0  300.0  300.0 1490.0
   39518472   29.0  336.0 1267.0 1687.0 1110.0   61.0  299.0  300.0  300.0  300.0 1510.0
   39522485   29.0  336.0 1260.0 1698.0 1100.0   60.0  299.0  299.0  300.0  300.0 1490.0
   39526488   29.0  336.0 1228.0 1701.0 1080.0   58.0  299.0  299.0  300.0  300.0 1490.0
