# 
~VERSION INFORMATION
     VERS.                              2.0:Версия формата LAS
     WRAP.                               NO:Режим одной строчки на временной отчет
~WELL INFORMATION
     STRT.ms                       39169932:Время первой записи в файле
     STOP.ms                      115315297:Время последней записи в файле
     STEP.ms                              0:Шаг времени, 0 - переменный шаг
     NULL.                          -999.25:Метка, нет значения
     DATE.                       07.09.2023:Дата каротажа
      DRV.                                 :Наименование драйвера прибора
     NAME.                             ГГКП:Название прибора
     SNUM.                         18417002:Серийный номер прибора
     FRMW.                         0.19.7.3:Версия прошивки на контроллере прибора
~CURVE INFORMATION
     TIME.ms                       {0,11:0}:Время, количество миллисекунд от начало суток
       MT.°C                               :Температура
      TFG.°                                :Гравитационный поворот
      RSD.имп./сек                         :Счёт, ближний зонд ГГКП
      RLD.имп./сек                         :Счёт, дальний зонд ГГКП
     RHOB.кг/м3                            :Плотность
   HCRHOB.g/cm3                            :Плотность, у.е.
     ADCS.mV                               :Измеренное напряжение порога компараторапо ближнему зонду
     ADCL.mV                               :Измеренное напряжение порога компараторапо дальнему зонду
    THLDS.mV                               :Выставленный порог компараторапо ближнему зонду
    THLDL.mV                               :Выставленный порог компараторапо дальнему зонду
    GRUHV.В                                :Напряжение на высоковольтнике Гамма
~OTHER INFORMATION


~A     TIME     MT    TFG    RSD    RLD   RHOB HCRHOB   ADCS   ADCL  THLDS  THLDL  GRUHV
# ...
  114926394   33.0  338.0 1227.0 1670.0 1090.0   59.0  299.0  299.0  300.0  300.0 1500.0
  114930400   33.0  338.0 1198.0 1694.0 1070.0   57.0  299.0  299.0  300.0  300.0 1500.0
  114934411   33.0  338.0 1219.0 1698.0 1080.0   58.0  299.0  300.0  300.0  300.0 1510.0
  114938417   33.0  336.0 1210.0 1675.0 1080.0   58.0  299.0  299.0  300.0  300.0 1500.0
  114942416   33.0  336.0 1227.0 1664.0 1090.0   59.0  299.0  300.0  300.0  300.0 1500.0
  114946435   33.0  338.0 1197.0 1683.0 1070.0   57.0  300.0  299.0  300.0  300.0 1500.0
  114950451   33.0  338.0 1246.0 1691.0 1090.0   59.0  299.0  300.0  300.0  300.0 1510.0
  114954466   33.0  338.0 1211.0 1656.0 1090.0   59.0  299.0  299.0  300.0  300.0 1500.0
  114958488   33.0  338.0 1190.0 1702.0 1060.0   56.0  300.0  300.0  300.0  300.0 1500.0
  114962480   33.0  338.0 1213.0 1685.0 1080.0   58.0  300.0  299.0  300.0  300.0 1490.0
  114966492   33.0  338.0 1238.0 1703.0 1080.0   58.0  299.0  300.0  300.0  300.0 1500.0
  114970496   33.0  336.0 1215.0 1674.0 1080.0   58.0  299.0  300.0  300.0  300.0 1500.0
  114974508   33.0  338.0 1213.0 1712.0 1070.0   57.0  300.0  299.0  300.0  300.0 1500.0
  114978521   33.0  336.0 1217.0 1648.0 1100.0   60.0  299.0  300.0  300.0  300.0 1500.0
  114982537   33.0  338.0 1220.0 1710.0 1070.0   57.0  299.0  300.0  300.0  300.0 1500.0
  114986538   33.0  338.0 1207.0 1679.0 1080.0   58.0  300.0  300.0  300.0  300.0 1510.0
  114990542   33.0  338.0 1223.0 1679.0 1090.0   59.0  300.0  300.0  300.0  300.0 1490.0
  114994551   33.0  338.0 1208.0 1665.0 1080.0   58.0  299.0  300.0  300.0  300.0 1510.0
  114998560   33.0  338.0 1230.0 1709.0 1080.0   58.0  299.0  300.0  300.0  300.0 1500.0
  115002572   33.0  336.0 1224.0 1695.0 1080.0   58.0  300.0  299.0  300.0  300.0 1510.0
  115006574   33.0  338.0 1233.0 1734.0 1070.0   57.0  300.0  300.0  300.0  300.0 1500.0
  115010574   33.0  338.0 1219.0 1696.0 1080.0   58.0  299.0  300.0  300.0  300.0 1500.0
  115014591   33.0  338.0 1223.0 1681.0 1090.0   59.0  300.0  300.0  300.0  300.0 1500.0
  115018594   33.0  338.0 1239.0 1667.0 1100.0   60.0  299.0  300.0  300.0  300.0 1510.0
  115022616   33.0  336.0 1210.0 1671.0 1080.0   58.0  299.0  300.0  300.0  300.0 1500.0
  115026620   33.0  338.0 1188.0 1668.0 1070.0   57.0  300.0  300.0  300.0  300.0 1510.0
  115030632   33.0  338.0 1220.0 1666.0 1090.0   59.0  300.0  299.0  300.0  300.0 1510.0
  115034650   33.0  338.0 1208.0 1718.0 1060.0   56.0  300.0  299.0  300.0  300.0 1500.0
  115038658   33.0  338.0 1231.0 1690.0 1090.0   59.0  299.0  300.0  300.0  300.0 1500.0
  115042663   33.0  336.0 1210.0 1685.0 1080.0   58.0  300.0  299.0  300.0  300.0 1500.0
  115046692   33.0  338.0 1202.0 1665.0 1080.0   58.0  299.0  300.0  300.0  300.0 1500.0
  115050689   33.0  338.0 1214.0 1733.0 1060.0   56.0  299.0  299.0  300.0  300.0 1500.0
  115054703   33.0  338.0 1223.0 1687.0 1080.0   58.0  299.0  300.0  300.0  300.0 1500.0
  115058710   33.0  338.0 1220.0 1668.0 1090.0   59.0  300.0  300.0  300.0  300.0 1490.0
  115062721   33.0  336.0 1189.0 1689.0 1060.0   56.0  299.0  300.0  300.0  300.0 1510.0
  115066730   33.0  338.0 1203.0 1691.0 1070.0   57.0  299.0  300.0  300.0  300.0 1500.0
  115070749   33.0  338.0 1205.0 1671.0 1080.0   58.0  300.0  299.0  300.0  300.0 1490.0
  115074774   33.0  338.0 1191.0 1684.0 1060.0   56.0  299.0  299.0  300.0  300.0 1500.0
  115078779   33.0  336.0 1236.0 1662.0 1100.0   60.0  300.0  300.0  300.0  300.0 1500.0
  115082789   33.0  338.0 1226.0 1734.0 1060.0   56.0  299.0  300.0  300.0  300.0 1500.0
  115086801   33.0  338.0 1210.0 1708.0 1070.0   57.0  300.0  299.0  300.0  300.0 1500.0
  115090802   33.0  336.0 1193.0 1699.0 1060.0   56.0  300.0  299.0  300.0  300.0 1500.0
  115094821   33.0  338.0 1245.0 1696.0 1090.0   59.0  299.0  299.0  300.0  300.0 1500.0
  115098830   33.0  338.0 1234.0 1656.0 1100.0   60.0  300.0  300.0  300.0  300.0 1500.0
  115102837   33.0  338.0 1204.0 1684.0 1070.0   57.0  300.0  300.0  300.0  300.0 1510.0
  115106842   33.0  338.0 1209.0 1705.0 1070.0   57.0  300.0  300.0  300.0  300.0 1510.0
  115110843   33.0  338.0 1228.0 1733.0 1070.0   57.0  299.0  300.0  300.0  300.0 1500.0
  115114850   33.0  338.0 1201.0 1688.0 1070.0   57.0  300.0  299.0  300.0  300.0 1490.0
  115118852   33.0  336.0 1199.0 1660.0 1080.0   58.0  299.0  299.0  300.0  300.0 1510.0
  115122862   33.0  338.0 1224.0 1673.0 1090.0   59.0  300.0  300.0  300.0  300.0 1500.0
  115126875   33.0  338.0 1218.0 1702.0 1070.0   57.0  300.0  300.0  300.0  300.0 1500.0
  115130898   33.0  336.0 1218.0 1684.0 1080.0   58.0  299.0  300.0  300.0  300.0 1500.0
  115134896   33.0  338.0 1227.0 1709.0 1080.0   58.0  299.0  300.0  300.0  300.0 1500.0
  115138911   33.0  338.0 1217.0 1654.0 1090.0   59.0  300.0  300.0  300.0  300.0 1510.0
  115142912   33.0  338.0 1246.0 1711.0 1090.0   59.0  300.0  300.0  300.0  300.0 1490.0
  115146925   33.0  336.0 1226.0 1650.0 1100.0   60.0  300.0  300.0  300.0  300.0 1500.0
  115150932   33.0  338.0 1211.0 1678.0 1080.0   58.0  299.0  300.0  300.0  300.0 1500.0
  115154941   33.0  338.0 1212.0 1684.0 1080.0   58.0  300.0  299.0  300.0  300.0 1490.0
  115158940   33.0  338.0 1216.0 1678.0 1080.0   58.0  299.0  299.0  300.0  300.0 1500.0
  115162959   33.0  336.0 1219.0 1653.0 1100.0   60.0  300.0  300.0  300.0  300.0 1500.0
  115166967   33.0  336.0 1199.0 1681.0 1070.0   57.0  300.0  299.0  300.0  300.0 1500.0
  115170982   33.0  338.0 1204.0 1685.0 1070.0   57.0  299.0  300.0  300.0  300.0 1510.0
  115174989   33.0  338.0 1223.0 1705.0 1070.0   57.0  300.0  300.0  300.0  300.0 1520.0
  115179011   33.0  336.0 1230.0 1665.0 1100.0   60.0  299.0  300.0  300.0  300.0 1490.0
  115183011   33.0  338.0 1200.0 1694.0 1070.0   57.0  300.0  300.0  300.0  300.0 1500.0
  115187004   33.0  338.0 1245.0 1679.0 1100.0   60.0  299.0  300.0  300.0  300.0 1510.0
  115191009   33.0  338.0 1200.0 1701.0 1060.0   56.0  300.0  299.0  300.0  300.0 1500.0
  115195020   33.0  338.0 1189.0 1649.0 1080.0   58.0  300.0  299.0  300.0  300.0 1500.0
  115199029   33.0  338.0 1238.0 1684.0 1090.0   59.0  299.0  300.0  300.0  300.0 1500.0
  115203040   33.0  338.0 1223.0 1669.0 1090.0   59.0  299.0  299.0  300.0  300.0 1500.0
  115207047   33.0  338.0 1188.0 1684.0 1060.0   56.0  300.0  299.0  300.0  300.0 1510.0
  115211062   33.0  336.0 1235.0 1684.0 1090.0   59.0  299.0  299.0  300.0  300.0 1500.0
  115215058   33.0  338.0 1204.0 1670.0 1080.0   58.0  299.0  299.0  300.0  300.0 1500.0
  115219054   33.0  336.0 1223.0 1661.0 1090.0   59.0  299.0  299.0  300.0  300.0 1500.0
  115223066   33.0  338.0 1251.0 1699.0 1090.0   59.0  299.0  300.0  300.0  300.0 1500.0
  115227081   33.0  338.0 1225.0 1698.0 1080.0   58.0  300.0  299.0  300.0  300.0 1500.0
  115231094   33.0  338.0 1221.0 1699.0 1080.0   58.0  299.0  300.0  300.0  300.0 1500.0
  115235107   33.0  338.0 1219.0 1686.0 1080.0   58.0  300.0  300.0  300.0  300.0 1500.0
  115239117   33.0  338.0 1227.0 1686.0 1090.0   59.0  300.0  300.0  300.0  300.0 1500.0
  115243127   33.0  336.0 1217.0 1709.0 1070.0   57.0  299.0  299.0  300.0  300.0 1510.0
  115247128   33.0  336.0 1186.0 1656.0 1070.0   57.0  300.0  300.0  300.0  300.0 1500.0
  115251140   33.0  338.0 1171.0 1688.0 1050.0   55.0  300.0  299.0  300.0  300.0 1500.0
  115255161   33.0  338.0 1218.0 1719.0 1070.0   57.0  300.0  299.0  300.0  300.0 1500.0
  115259170   33.0  338.0 1222.0 1692.0 1080.0   58.0  300.0  300.0  300.0  300.0 1490.0
  115263186   33.0  338.0 1234.0 1710.0 1080.0   58.0  300.0  300.0  300.0  300.0 1500.0
  115267196   33.0  338.0 1205.0 1708.0 1060.0   56.0  300.0  299.0  300.0  300.0 1500.0
  115271207   33.0  336.0 1180.0 1691.0 1060.0   56.0  299.0  300.0  300.0  300.0 1500.0
  115275208   33.0  338.0 1253.0 1701.0 1090.0   59.0  299.0  300.0  300.0  300.0 1500.0
  115279216   33.0  338.0 1219.0 1731.0 1060.0   56.0  300.0  300.0  300.0  300.0 1510.0
  115283217   33.0  338.0 1218.0 1665.0 1090.0   59.0  300.0  299.0  300.0  300.0 1490.0
