# 
~VERSION INFORMATION
     VERS.                              2.0:Версия формата LAS
     WRAP.                               NO:Режим одной строчки на временной отчет
~WELL INFORMATION
     STRT.ms                       39169932:Время первой записи в файле
     STOP.ms                      115315297:Время последней записи в файле
     STEP.ms                              0:Шаг времени, 0 - переменный шаг
     NULL.                          -999.25:Метка, нет значения
     DATE.                       07.09.2023:Дата каротажа
      DRV.                                 :Наименование драйвера прибора
     NAME.                             ГГКП:Название прибора
     SNUM.                         18417002:Серийный номер прибора
     FRMW.                         0.19.7.3:Версия прошивки на контроллере прибора
~CURVE INFORMATION
     TIME.ms                       {0,11:0}:Время, количество миллисекунд от начало суток
       MT.°C                               :Температура
      TFG.°                                :Гравитационный поворот
      RSD.имп./сек                         :Счёт, ближний зонд ГГКП
      RLD.имп./сек                         :Счёт, дальний зонд ГГКП
     RHOB.кг/м3                            :Плотность
   HCRHOB.g/cm3                            :Плотность, у.е.
     ADCS.mV                               :Измеренное напряжение порога компараторапо ближнему зонду
     ADCL.mV                               :Измеренное напряжение порога компараторапо дальнему зонду
    THLDS.mV                               :Выставленный порог компараторапо ближнему зонду
    THLDL.mV                               :Выставленный порог компараторапо дальнему зонду
    GRUHV.В                                :Напряжение на высоковольтнике Гамма
~OTHER INFORMATION


~A     TIME     MT    TFG    RSD    RLD   RHOB HCRHOB   ADCS   ADCL  THLDS  THLDL  GRUHV
# ...
   84622795   43.0  338.0 1205.0 1684.0 1070.0   57.0  300.0  300.0  300.0  300.0 1500.0
   84626811   43.0  338.0 1221.0 1695.0 1080.0   58.0  300.0  300.0  300.0  300.0 1500.0
   84630815   43.0  338.0 1195.0 1670.0 1070.0   57.0  300.0  300.0  300.0  300.0 1490.0
   84634817   43.0  338.0 1205.0 1677.0 1080.0   58.0  300.0  300.0  300.0  300.0 1510.0
   84638823   43.0  338.0 1197.0 1684.0 1070.0   57.0  300.0  299.0  300.0  300.0 1500.0
   84642836   43.0  338.0 1218.0 1656.0 1090.0   59.0  300.0  300.0  300.0  300.0 1510.0
   84646835   43.0  338.0 1243.0 1693.0 1090.0   59.0  300.0  300.0  300.0  300.0 1500.0
   84650841   43.0  338.0 1232.0 1690.0 1090.0   59.0  300.0  300.0  300.0  300.0 1500.0
   84654846   43.0  338.0 1236.0 1674.0 1100.0   60.0  300.0  300.0  300.0  300.0 1500.0
   84658850   43.0  338.0 1221.0 1648.0 1100.0   60.0  300.0  300.0  300.0  300.0 1500.0
   84662866   43.0  338.0 1205.0 1662.0 1080.0   58.0  300.0  300.0  300.0  300.0 1500.0
   84666873   43.0  338.0 1221.0 1686.0 1080.0   58.0  300.0  300.0  300.0  300.0 1500.0
   84670889   43.0  338.0 1230.0 1714.0 1080.0   58.0  300.0  300.0  300.0  300.0 1510.0
   84674894   43.0  338.0 1224.0 1709.0 1070.0   57.0  300.0  300.0  300.0  300.0 1490.0
   84678902   43.0  338.0 1213.0 1699.0 1070.0   57.0  300.0  300.0  300.0  300.0 1510.0
   84682913   43.0  338.0 1213.0 1701.0 1070.0   57.0  300.0  300.0  300.0  300.0 1500.0
   84686928   43.0  338.0 1238.0 1654.0 1110.0   61.0  300.0  300.0  300.0  300.0 1510.0
   84690940   43.0  338.0 1235.0 1713.0 1080.0   58.0  300.0  300.0  300.0  300.0 1510.0
   84694949   43.0  338.0 1239.0 1668.0 1100.0   60.0  300.0  300.0  300.0  300.0 1500.0
   84698958   43.0  338.0 1216.0 1701.0 1070.0   57.0  300.0  300.0  300.0  300.0 1490.0
   84702963   43.0  338.0 1224.0 1681.0 1090.0   59.0  300.0  300.0  300.0  300.0 1500.0
   84706978   43.0  338.0 1225.0 1667.0 1090.0   59.0  300.0  300.0  300.0  300.0 1500.0
   84710999   43.0  338.0 1221.0 1717.0 1070.0   57.0  300.0  300.0  300.0  300.0 1500.0
   84715002   43.0  338.0 1218.0 1715.0 1070.0   57.0  300.0  300.0  300.0  300.0 1510.0
   84719001   43.0  338.0 1229.0 1672.0 1090.0   59.0  300.0  299.0  300.0  300.0 1510.0
   84723011   43.0  338.0 1215.0 1698.0 1070.0   57.0  300.0  300.0  300.0  300.0 1490.0
   84727031   43.0  338.0 1215.0 1683.0 1080.0   58.0  300.0  300.0  300.0  300.0 1490.0
   84731034   43.0  338.0 1194.0 1659.0 1080.0   58.0  300.0  299.0  300.0  300.0 1500.0
   84735036   43.0  338.0 1222.0 1697.0 1080.0   58.0  300.0  300.0  300.0  300.0 1500.0
   84739041   43.0  338.0 1213.0 1686.0 1080.0   58.0  300.0  300.0  300.0  300.0 1500.0
   84743071   43.0  338.0 1237.0 1639.0 1110.0   61.0  300.0  300.0  300.0  300.0 1490.0
   84747066   43.0  338.0 1236.0 1701.0 1080.0   58.0  300.0  300.0  300.0  300.0 1500.0
   84751073   43.0  338.0 1224.0 1674.0 1090.0   59.0  300.0  300.0  300.0  300.0 1510.0
   84755084   43.0  338.0 1223.0 1688.0 1080.0   58.0  300.0  300.0  300.0  300.0 1490.0
   84759091   43.0  338.0 1215.0 1664.0 1090.0   59.0  300.0  299.0  300.0  300.0 1510.0
   84763100   43.0  338.0 1231.0 1707.0 1080.0   58.0  300.0  300.0  300.0  300.0 1500.0
   84767113   43.0  338.0 1206.0 1666.0 1080.0   58.0  300.0  300.0  300.0  300.0 1500.0
   84771118   43.0  338.0 1229.0 1670.0 1090.0   59.0  300.0  300.0  300.0  300.0 1500.0
   84775119   43.0  338.0 1214.0 1663.0 1090.0   59.0  300.0  299.0  300.0  300.0 1500.0
   84779129   43.0  338.0 1217.0 1652.0 1090.0   59.0  300.0  300.0  300.0  300.0 1500.0
   84783142   43.0  338.0 1204.0 1684.0 1070.0   57.0  300.0  300.0  300.0  300.0 1500.0
   84787152   43.0  338.0 1205.0 1666.0 1080.0   58.0  300.0  299.0  300.0  300.0 1500.0
   84791155   43.0  338.0 1206.0 1682.0 1070.0   57.0  300.0  300.0  300.0  300.0 1500.0
   84795174   43.0  338.0 1228.0 1678.0 1090.0   59.0  300.0  299.0  300.0  300.0 1500.0
   84799179   43.0  338.0 1244.0 1671.0 1100.0   60.0  300.0  299.0  300.0  300.0 1490.0
   84803195   43.0  338.0 1245.0 1665.0 1100.0   60.0  300.0  300.0  300.0  300.0 1500.0
   84807204   43.0  338.0 1229.0 1697.0 1080.0   58.0  300.0  300.0  300.0  300.0 1500.0
   84811210   43.0  338.0 1210.0 1687.0 1070.0   57.0  300.0  300.0  300.0  300.0 1500.0
   84815216   43.0  338.0 1239.0 1657.0 1110.0   61.0  300.0  300.0  300.0  300.0 1500.0
   84819214   43.0  338.0 1232.0 1713.0 1080.0   58.0  300.0  300.0  300.0  300.0 1500.0
   84823237   43.0  338.0 1244.0 1678.0 1100.0   60.0  299.0  300.0  300.0  300.0 1500.0
   84827228   43.0  338.0 1207.0 1664.0 1080.0   58.0  300.0  300.0  300.0  300.0 1510.0
   84831239   43.0  338.0 1185.0 1701.0 1050.0   55.0  300.0  300.0  300.0  300.0 1500.0
   84835258   43.0  338.0 1208.0 1695.0 1070.0   57.0  300.0  300.0  300.0  300.0 1500.0
   84839264   43.0  338.0 1195.0 1729.0 1050.0   55.0  300.0  300.0  300.0  300.0 1500.0
   84843280   43.0  338.0 1194.0 1658.0 1080.0   58.0  300.0  300.0  300.0  300.0 1500.0
   84847280   43.0  338.0 1209.0 1698.0 1070.0   57.0  300.0  300.0  300.0  300.0 1500.0
   84851283   43.0  338.0 1208.0 1688.0 1070.0   57.0  300.0  300.0  300.0  300.0 1510.0
   84855297   43.0  338.0 1196.0 1707.0 1060.0   56.0  300.0  300.0  300.0  300.0 1500.0
   84859308   43.0  338.0 1190.0 1696.0 1060.0   56.0  300.0  300.0  300.0  300.0 1490.0
   84863318   43.0  338.0 1237.0 1708.0 1080.0   58.0  300.0  300.0  300.0  300.0 1510.0
   84867333   43.0  338.0 1198.0 1696.0 1060.0   56.0  300.0  300.0  300.0  300.0 1500.0
   84871319   43.0  338.0 1223.0 1710.0 1070.0   57.0  300.0  300.0  300.0  300.0 1500.0
   84875341   43.0  338.0 1177.0 1700.0 1050.0   55.0  300.0  300.0  300.0  300.0 1500.0
   84879338   43.0  338.0 1195.0 1715.0 1050.0   55.0  300.0  300.0  300.0  300.0 1500.0
   84883340   43.0  338.0 1215.0 1688.0 1080.0   58.0  300.0  300.0  300.0  300.0 1510.0
   84887358   43.0  338.0 1213.0 1703.0 1070.0   57.0  300.0  300.0  300.0  300.0 1500.0
   84891360   43.0  338.0 1228.0 1686.0 1090.0   59.0  299.0  300.0  300.0  300.0 1500.0
   84895371   43.0  338.0 1225.0 1720.0 1070.0   57.0  300.0  299.0  300.0  300.0 1500.0
   84899381   43.0  338.0 1244.0 1693.0 1090.0   59.0  299.0  300.0  300.0  300.0 1500.0
   84903388   43.0  338.0 1225.0 1701.0 1080.0   58.0  300.0  300.0  300.0  300.0 1510.0
   84907398   43.0  338.0 1198.0 1672.0 1070.0   57.0  300.0  299.0  300.0  300.0 1500.0
   84911407   43.0  338.0 1201.0 1664.0 1080.0   58.0  300.0  300.0  300.0  300.0 1500.0
   84915411   43.0  338.0 1242.0 1710.0 1080.0   58.0  300.0  300.0  300.0  300.0 1500.0
   84919415   43.0  338.0 1222.0 1703.0 1080.0   58.0  300.0  300.0  300.0  300.0 1500.0
   84923423   43.0  338.0 1215.0 1720.0 1060.0   56.0  300.0  300.0  300.0  300.0 1500.0
   84927439   43.0  338.0 1196.0 1704.0 1060.0   56.0  300.0  300.0  300.0  300.0 1500.0
   84931446   43.0  338.0 1204.0 1629.0 1100.0   60.0  300.0  300.0  300.0  300.0 1490.0
   84935452   43.0  338.0 1201.0 1672.0 1080.0   58.0  300.0  300.0  300.0  300.0 1500.0
   84939455   43.0  338.0 1184.0 1664.0 1070.0   57.0  300.0  300.0  300.0  300.0 1510.0
   84943459   43.0  338.0 1233.0 1682.0 1090.0   59.0  300.0  300.0  300.0  300.0 1500.0
   84947468   43.0  338.0 1184.0 1717.0 1050.0   55.0  300.0  299.0  300.0  300.0 1500.0
   84951480   43.0  338.0 1192.0 1628.0 1090.0   59.0  300.0  300.0  300.0  300.0 1490.0
   84955477   43.0  338.0 1246.0 1691.0 1090.0   59.0  300.0  299.0  300.0  300.0 1510.0
   84959480   43.0  338.0 1219.0 1704.0 1070.0   57.0  300.0  300.0  300.0  300.0 1500.0
   84963484   43.0  338.0 1216.0 1717.0 1070.0   57.0  300.0  300.0  300.0  300.0 1500.0
   84967490   43.0  338.0 1235.0 1700.0 1080.0   58.0  300.0  300.0  300.0  300.0 1510.0
   84971505   43.0  338.0 1235.0 1680.0 1090.0   59.0  300.0  300.0  300.0  300.0 1510.0
   84975505   43.0  338.0 1231.0 1658.0 1100.0   60.0  300.0  300.0  300.0  300.0 1500.0
   84979512   43.0  338.0 1236.0 1691.0 1090.0   59.0  300.0  300.0  300.0  300.0 1500.0
