# 
~VERSION INFORMATION
     VERS.                              2.0:Версия формата LAS
     WRAP.                               NO:Режим одной строчки на временной отчет
~WELL INFORMATION
     STRT.ms                       39169932:Время первой записи в файле
     STOP.ms                      115315297:Время последней записи в файле
     STEP.ms                              0:Шаг времени, 0 - переменный шаг
     NULL.                          -999.25:Метка, нет значения
     DATE.                       07.09.2023:Дата каротажа
      DRV.                                 :Наименование драйвера прибора
     NAME.                             ГГКП:Название прибора
     SNUM.                         18417002:Серийный номер прибора
     FRMW.                         0.19.7.3:Версия прошивки на контроллере прибора
~CURVE INFORMATION
     TIME.ms                       {0,11:0}:Время, количество миллисекунд от начало суток
       MT.°C                               :Температура
      TFG.°                                :Гравитационный поворот
      RSD.имп./сек                         :Счёт, ближний зонд ГГКП
      RLD.имп./сек                         :Счёт, дальний зонд ГГКП
     RHOB.кг/м3                            :Плотность
   HCRHOB.g/cm3                            :Плотность, у.е.
     ADCS.mV                               :Измеренное напряжение порога компараторапо ближнему зонду
     ADCL.mV                               :Измеренное напряжение порога компараторапо дальнему зонду
    THLDS.mV                               :Выставленный порог компараторапо ближнему зонду
    THLDL.mV                               :Выставленный порог компараторапо дальнему зонду
    GRUHV.В                                :Напряжение на высоковольтнике Гамма
~OTHER INFORMATION


~A     TIME     MT    TFG    RSD    RLD   RHOB HCRHOB   ADCS   ADCL  THLDS  THLDL  GRUHV
# ...
   64420267   82.0  340.0 1234.0 1688.0 1090.0   59.0  299.0  299.0  300.0  300.0 1510.0
   64424276   82.0  340.0 1223.0 1715.0 1070.0   57.0  299.0  299.0  300.0  300.0 1490.0
   64428286   82.0  340.0 1232.0 1688.0 1090.0   59.0  300.0  300.0  300.0  300.0 1500.0
   64432287   82.0  340.0 1223.0 1676.0 1090.0   59.0  299.0  299.0  300.0  300.0 1510.0
   64436307   82.0  340.0 1221.0 1700.0 1080.0   58.0  299.0  299.0  300.0  300.0 1490.0
   64440317   82.0  340.0 1231.0 1668.0 1100.0   60.0  299.0  299.0  300.0  300.0 1490.0
   64444333   82.0  340.0 1237.0 1672.0 1100.0   60.0  299.0  299.0  300.0  300.0 1500.0
   64448342   82.0  340.0 1257.0 1673.0 1110.0   61.0  299.0  300.0  300.0  300.0 1500.0
   64452344   82.0  340.0 1220.0 1707.0 1070.0   57.0  299.0  299.0  300.0  300.0 1500.0
   64456355   82.0  340.0 1233.0 1672.0 1100.0   60.0  299.0  300.0  300.0  300.0 1510.0
   64460370   82.0  340.0 1230.0 1681.0 1090.0   59.0  299.0  300.0  300.0  300.0 1500.0
   64464376   82.0  340.0 1248.0 1704.0 1090.0   59.0  299.0  299.0  300.0  300.0 1500.0
   64468393   82.0  340.0 1184.0 1731.0 1040.0   54.0  299.0  299.0  300.0  300.0 1500.0
   64472408   82.0  340.0 1205.0 1748.0 1050.0   55.0  299.0  300.0  300.0  300.0 1500.0
   64476419   82.0  340.0 1225.0 1709.0 1080.0   58.0  299.0  299.0  300.0  300.0 1510.0
   64480421   82.0  340.0 1243.0 1671.0 1100.0   60.0  299.0  299.0  300.0  300.0 1490.0
   64484438   82.0  340.0 1249.0 1713.0 1090.0   59.0  299.0  300.0  300.0  300.0 1500.0
   64488445   82.0  340.0 1208.0 1680.0 1080.0   58.0  299.0  300.0  300.0  300.0 1500.0
   64492455   82.0  340.0 1240.0 1698.0 1090.0   59.0  299.0  299.0  300.0  300.0 1500.0
   64496467   82.0  340.0 1194.0 1712.0 1050.0   55.0  299.0  300.0  300.0  300.0 1500.0
   64500474   82.0  340.0 1229.0 1699.0 1080.0   58.0  299.0  299.0  300.0  300.0 1510.0
   64504477   82.0  340.0 1255.0 1690.0 1100.0   60.0  299.0  299.0  300.0  300.0 1490.0
   64508486   82.0  340.0 1228.0 1671.0 1090.0   59.0  299.0  299.0  300.0  300.0 1500.0
   64512485   82.0  340.0 1227.0 1698.0 1080.0   58.0  299.0  300.0  300.0  300.0 1500.0
   64516484   82.0  340.0 1245.0 1707.0 1090.0   59.0  299.0  299.0  300.0  300.0 1490.0
   64520491   82.0  340.0 1194.0 1713.0 1050.0   55.0  299.0  299.0  300.0  300.0 1500.0
   64524503   81.0  340.0 1211.0 1666.0 1080.0   58.0  299.0  299.0  300.0  300.0 1510.0
   64528516   81.0  340.0 1189.0 1673.0 1070.0   57.0  299.0  300.0  300.0  300.0 1500.0
   64532519   81.0  340.0 1197.0 1721.0 1050.0   55.0  299.0  299.0  300.0  300.0 1500.0
   64536524   81.0  340.0 1203.0 1712.0 1060.0   56.0  299.0  299.0  300.0  300.0 1500.0
   64540536   81.0  340.0 1236.0 1667.0 1100.0   60.0  299.0  299.0  300.0  300.0 1500.0
   64544549   81.0  340.0 1204.0 1701.0 1070.0   57.0  299.0  299.0  300.0  300.0 1490.0
   64548566   81.0  340.0 1214.0 1675.0 1080.0   58.0  299.0  299.0  300.0  300.0 1500.0
   64552555   81.0  340.0 1201.0 1690.0 1070.0   57.0  299.0  299.0  300.0  300.0 1510.0
   64556563   81.0  340.0 1215.0 1653.0 1090.0   59.0  299.0  299.0  300.0  300.0 1510.0
   64560584   81.0  340.0 1228.0 1665.0 1100.0   60.0  299.0  300.0  300.0  300.0 1500.0
   64564598   81.0  340.0 1203.0 1713.0 1060.0   56.0  299.0  299.0  300.0  300.0 1500.0
   64568606   81.0  340.0 1244.0 1639.0 1120.0   62.0  299.0  299.0  300.0  300.0 1490.0
   64572620   81.0  340.0 1210.0 1670.0 1080.0   58.0  299.0  299.0  300.0  300.0 1490.0
   64576646   81.0  340.0 1207.0 1694.0 1070.0   57.0  299.0  299.0  300.0  300.0 1500.0
   64580650   81.0  340.0 1180.0 1693.0 1050.0   55.0  299.0  299.0  300.0  300.0 1510.0
   64584657   81.0  340.0 1185.0 1710.0 1050.0   55.0  299.0  299.0  300.0  300.0 1500.0
   64588662   81.0  340.0 1229.0 1697.0 1080.0   58.0  299.0  299.0  300.0  300.0 1500.0
   64592671   81.0  340.0 1213.0 1684.0 1080.0   58.0  299.0  299.0  300.0  300.0 1500.0
   64596680   81.0  340.0 1221.0 1672.0 1090.0   59.0  299.0  300.0  300.0  300.0 1490.0
   64600681   81.0  340.0 1216.0 1687.0 1080.0   58.0  299.0  299.0  300.0  300.0 1500.0
   64604688   81.0  340.0 1208.0 1708.0 1070.0   57.0  299.0  299.0  300.0  300.0 1500.0
   64608706   81.0  340.0 1203.0 1705.0 1060.0   56.0  299.0  299.0  300.0  300.0 1500.0
   64612713   81.0  340.0 1199.0 1720.0 1050.0   55.0  299.0  299.0  300.0  300.0 1500.0
   64616728   81.0  340.0 1238.0 1672.0 1100.0   60.0  299.0  300.0  300.0  300.0 1490.0
   64620717   81.0  340.0 1249.0 1647.0 1110.0   61.0  299.0  299.0  300.0  300.0 1500.0
   64624727   81.0  340.0 1209.0 1651.0 1090.0   59.0  299.0  299.0  300.0  300.0 1500.0
   64628728   81.0  340.0 1215.0 1701.0 1070.0   57.0  299.0  300.0  300.0  300.0 1500.0
   64632749   81.0  340.0 1217.0 1688.0 1080.0   58.0  299.0  300.0  300.0  300.0 1500.0
   64636750   81.0  340.0 1233.0 1677.0 1090.0   59.0  299.0  299.0  300.0  300.0 1510.0
   64640764   81.0  340.0 1244.0 1680.0 1100.0   60.0  299.0  299.0  300.0  300.0 1510.0
   64644769   81.0  340.0 1233.0 1676.0 1090.0   59.0  299.0  300.0  300.0  300.0 1510.0
   64648770   81.0  340.0 1225.0 1706.0 1080.0   58.0  299.0  300.0  300.0  300.0 1500.0
   64652790   81.0  340.0 1216.0 1696.0 1070.0   57.0  299.0  299.0  300.0  300.0 1500.0
   64656796   81.0  340.0 1207.0 1686.0 1070.0   57.0  299.0  300.0  300.0  300.0 1490.0
   64660801   81.0  340.0 1230.0 1668.0 1090.0   59.0  299.0  299.0  300.0  300.0 1500.0
   64664813   81.0  340.0 1231.0 1709.0 1080.0   58.0  299.0  300.0  300.0  300.0 1490.0
   64668829   81.0  340.0 1232.0 1700.0 1080.0   58.0  299.0  300.0  300.0  300.0 1500.0
   64672846   81.0  340.0 1227.0 1715.0 1070.0   57.0  299.0  300.0  300.0  300.0 1500.0
   64676846   81.0  340.0 1206.0 1680.0 1080.0   58.0  299.0  300.0  300.0  300.0 1500.0
   64680848   81.0  340.0 1223.0 1716.0 1070.0   57.0  299.0  299.0  300.0  300.0 1500.0
   64684869   81.0  340.0 1231.0 1710.0 1080.0   58.0  299.0  300.0  300.0  300.0 1500.0
   64688870   81.0  340.0 1218.0 1661.0 1090.0   59.0  299.0  299.0  300.0  300.0 1500.0
   64692879   81.0  340.0 1225.0 1692.0 1080.0   58.0  299.0  299.0  300.0  300.0 1500.0
   64696896   81.0  340.0 1257.0 1667.0 1110.0   61.0  299.0  300.0  300.0  300.0 1500.0
   64700895   81.0  340.0 1208.0 1677.0 1080.0   58.0  299.0  299.0  300.0  300.0 1500.0
   64704897   81.0  340.0 1228.0 1691.0 1080.0   58.0  299.0  299.0  300.0  300.0 1500.0
   64708899   81.0  340.0 1219.0 1751.0 1050.0   55.0  299.0  299.0  300.0  300.0 1500.0
   64712916   81.0  340.0 1179.0 1694.0 1050.0   55.0  299.0  299.0  300.0  300.0 1510.0
   64716922   81.0  340.0 1205.0 1676.0 1080.0   58.0  299.0  299.0  300.0  300.0 1510.0
   64720926   81.0  340.0 1185.0 1716.0 1050.0   55.0  299.0  299.0  300.0  300.0 1500.0
   64724952   81.0  340.0 1234.0 1723.0 1070.0   57.0  299.0  299.0  300.0  300.0 1500.0
   64728957   81.0  340.0 1197.0 1681.0 1070.0   57.0  299.0  300.0  300.0  300.0 1510.0
   64732953   81.0  340.0 1212.0 1656.0 1090.0   59.0  299.0  300.0  300.0  300.0 1480.0
   64736962   81.0  340.0 1201.0 1712.0 1060.0   56.0  299.0  300.0  300.0  300.0 1500.0
   64740969   81.0  340.0 1219.0 1674.0 1090.0   59.0  299.0  299.0  300.0  300.0 1500.0
   64744980   81.0  340.0 1214.0 1697.0 1070.0   57.0  299.0  299.0  300.0  300.0 1500.0
   64748984   80.0  340.0 1208.0 1696.0 1070.0   57.0  299.0  300.0  300.0  300.0 1520.0
   64752989   81.0  340.0 1198.0 1656.0 1080.0   58.0  299.0  300.0  300.0  300.0 1490.0
   64757006   81.0  340.0 1214.0 1681.0 1080.0   58.0  299.0  300.0  300.0  300.0 1500.0
   64761014   80.0  340.0 1235.0 1732.0 1070.0   57.0  299.0  299.0  300.0  300.0 1510.0
   64765021   80.0  340.0 1228.0 1667.0 1090.0   59.0  299.0  299.0  300.0  300.0 1510.0
   64769034   80.0  340.0 1263.0 1680.0 1110.0   61.0  299.0  300.0  300.0  300.0 1520.0
   64773051   80.0  340.0 1223.0 1692.0 1080.0   58.0  299.0  300.0  300.0  300.0 1490.0
   64777056   80.0  340.0 1217.0 1696.0 1080.0   58.0  299.0  299.0  300.0  300.0 1510.0
