# 
~VERSION INFORMATION
     VERS.                              2.0:Версия формата LAS
     WRAP.                               NO:Режим одной строчки на временной отчет
~WELL INFORMATION
     STRT.ms                       39169932:Время первой записи в файле
     STOP.ms                      115315297:Время последней записи в файле
     STEP.ms                              0:Шаг времени, 0 - переменный шаг
     NULL.                          -999.25:Метка, нет значения
     DATE.                       07.09.2023:Дата каротажа
      DRV.                                 :Наименование драйвера прибора
     NAME.                             ГГКП:Название прибора
     SNUM.                         18417002:Серийный номер прибора
     FRMW.                         0.19.7.3:Версия прошивки на контроллере прибора
~CURVE INFORMATION
     TIME.ms                       {0,11:0}:Время, количество миллисекунд от начало суток
       MT.°C                               :Температура
      TFG.°                                :Гравитационный поворот
      RSD.имп./сек                         :Счёт, ближний зонд ГГКП
      RLD.имп./сек                         :Счёт, дальний зонд ГГКП
     RHOB.кг/м3                            :Плотность
   HCRHOB.g/cm3                            :Плотность, у.е.
     ADCS.mV                               :Измеренное напряжение порога компараторапо ближнему зонду
     ADCL.mV                               :Измеренное напряжение порога компараторапо дальнему зонду
    THLDS.mV                               :Выставленный порог компараторапо ближнему зонду
    THLDL.mV                               :Выставленный порог компараторапо дальнему зонду
    GRUHV.В                                :Напряжение на высоковольтнике Гамма
~OTHER INFORMATION


~A     TIME     MT    TFG    RSD    RLD   RHOB HCRHOB   ADCS   ADCL  THLDS  THLDL  GRUHV
# ...
   99774338   35.0  338.0 1218.0 1699.0 1070.0   57.0  300.0  300.0  300.0  300.0 1500.0
   99778343   36.0  338.0 1229.0 1685.0 1090.0   59.0  299.0  300.0  300.0  300.0 1490.0
   99782363   35.0  338.0 1226.0 1673.0 1090.0   59.0  300.0  300.0  300.0  300.0 1500.0
   99786372   35.0  338.0 1215.0 1668.0 1090.0   59.0  300.0  300.0  300.0  300.0 1510.0
   99790373   35.0  338.0 1218.0 1722.0 1060.0   56.0  299.0  300.0  300.0  300.0 1510.0
   99794390   36.0  338.0 1192.0 1709.0 1050.0   55.0  299.0  300.0  300.0  300.0 1500.0
   99798383   35.0  338.0 1204.0 1686.0 1070.0   57.0  300.0  300.0  300.0  300.0 1510.0
   99802390   35.0  338.0 1209.0 1702.0 1070.0   57.0  300.0  300.0  300.0  300.0 1500.0
   99806395   36.0  338.0 1199.0 1718.0 1060.0   56.0  299.0  299.0  300.0  300.0 1510.0
   99810412   35.0  338.0 1243.0 1691.0 1090.0   59.0  299.0  299.0  300.0  300.0 1520.0
   99814424   36.0  338.0 1217.0 1682.0 1080.0   58.0  300.0  299.0  300.0  300.0 1500.0
   99818427   36.0  338.0 1231.0 1703.0 1080.0   58.0  300.0  300.0  300.0  300.0 1510.0
   99822436   35.0  338.0 1227.0 1694.0 1080.0   58.0  300.0  300.0  300.0  300.0 1500.0
   99826447   36.0  338.0 1213.0 1682.0 1080.0   58.0  300.0  299.0  300.0  300.0 1500.0
   99830461   36.0  338.0 1224.0 1643.0 1100.0   60.0  300.0  300.0  300.0  300.0 1500.0
   99834482   36.0  338.0 1204.0 1688.0 1070.0   57.0  300.0  300.0  300.0  300.0 1500.0
   99838481   36.0  338.0 1221.0 1704.0 1070.0   57.0  300.0  300.0  300.0  300.0 1510.0
   99842494   36.0  338.0 1206.0 1681.0 1080.0   58.0  300.0  300.0  300.0  300.0 1490.0
   99846500   36.0  338.0 1206.0 1696.0 1070.0   57.0  300.0  299.0  300.0  300.0 1510.0
   99850524   36.0  338.0 1216.0 1697.0 1070.0   57.0  300.0  300.0  300.0  300.0 1500.0
   99854520   36.0  338.0 1208.0 1679.0 1080.0   58.0  300.0  299.0  300.0  300.0 1500.0
   99858537   35.0  338.0 1222.0 1687.0 1080.0   58.0  299.0  300.0  300.0  300.0 1500.0
   99862550   35.0  338.0 1215.0 1715.0 1070.0   57.0  300.0  300.0  300.0  300.0 1510.0
   99866561   36.0  338.0 1210.0 1687.0 1070.0   57.0  299.0  300.0  300.0  300.0 1500.0
   99870572   36.0  338.0 1214.0 1689.0 1080.0   58.0  300.0  299.0  300.0  300.0 1500.0
   99874589   36.0  338.0 1220.0 1727.0 1060.0   56.0  299.0  299.0  300.0  300.0 1510.0
   99878592   36.0  336.0 1234.0 1692.0 1090.0   59.0  300.0  299.0  300.0  300.0 1490.0
   99882613   36.0  338.0 1220.0 1714.0 1070.0   57.0  299.0  300.0  300.0  300.0 1500.0
   99886617   35.0  338.0 1217.0 1683.0 1080.0   58.0  300.0  299.0  300.0  300.0 1490.0
   99890630   35.0  338.0 1268.0 1664.0 1120.0   62.0  300.0  300.0  300.0  300.0 1510.0
   99894654   35.0  338.0 1210.0 1670.0 1080.0   58.0  300.0  300.0  300.0  300.0 1510.0
   99898657   35.0  338.0 1246.0 1711.0 1090.0   59.0  300.0  299.0  300.0  300.0 1490.0
   99902666   36.0  338.0 1222.0 1704.0 1080.0   58.0  300.0  299.0  300.0  300.0 1510.0
   99906675   35.0  338.0 1241.0 1667.0 1100.0   60.0  300.0  299.0  300.0  300.0 1490.0
   99910687   35.0  338.0 1215.0 1679.0 1080.0   58.0  300.0  299.0  300.0  300.0 1500.0
   99914700   35.0  338.0 1199.0 1677.0 1070.0   57.0  299.0  300.0  300.0  300.0 1500.0
   99918715   35.0  338.0 1214.0 1691.0 1080.0   58.0  300.0  300.0  300.0  300.0 1490.0
   99922723   35.0  338.0 1209.0 1678.0 1080.0   58.0  299.0  299.0  300.0  300.0 1500.0
   99926723   36.0  338.0 1210.0 1713.0 1060.0   56.0  299.0  300.0  300.0  300.0 1500.0
   99930736   36.0  338.0 1215.0 1700.0 1070.0   57.0  299.0  299.0  300.0  300.0 1510.0
   99934739   35.0  338.0 1203.0 1691.0 1070.0   57.0  300.0  299.0  300.0  300.0 1500.0
   99938750   35.0  338.0 1214.0 1696.0 1070.0   57.0  300.0  300.0  300.0  300.0 1500.0
   99942751   36.0  338.0 1226.0 1672.0 1090.0   59.0  300.0  299.0  300.0  300.0 1500.0
   99946759   36.0  338.0 1205.0 1675.0 1080.0   58.0  300.0  299.0  300.0  300.0 1510.0
   99950767   36.0  338.0 1233.0 1681.0 1090.0   59.0  299.0  300.0  300.0  300.0 1500.0
   99954768   35.0  338.0 1212.0 1707.0 1070.0   57.0  300.0  299.0  300.0  300.0 1500.0
   99958779   36.0  338.0 1201.0 1670.0 1080.0   58.0  299.0  300.0  300.0  300.0 1500.0
   99962794   35.0  338.0 1230.0 1678.0 1090.0   59.0  300.0  299.0  300.0  300.0 1490.0
   99966806   35.0  338.0 1211.0 1666.0 1080.0   58.0  300.0  299.0  300.0  300.0 1500.0
   99970819   35.0  338.0 1205.0 1665.0 1080.0   58.0  299.0  300.0  300.0  300.0 1500.0
   99974845   36.0  338.0 1217.0 1704.0 1070.0   57.0  300.0  300.0  300.0  300.0 1490.0
   99978845   35.0  338.0 1224.0 1671.0 1090.0   59.0  299.0  300.0  300.0  300.0 1500.0
   99982857   36.0  338.0 1202.0 1703.0 1060.0   56.0  299.0  300.0  300.0  300.0 1500.0
   99986871   36.0  338.0 1239.0 1675.0 1100.0   60.0  300.0  300.0  300.0  300.0 1500.0
   99990886   36.0  338.0 1199.0 1707.0 1060.0   56.0  300.0  300.0  300.0  300.0 1500.0
   99994890   35.0  338.0 1224.0 1659.0 1100.0   60.0  300.0  299.0  300.0  300.0 1490.0
   99998899   35.0  338.0 1197.0 1692.0 1070.0   57.0  299.0  300.0  300.0  300.0 1500.0
  100002900   35.0  338.0 1244.0 1676.0 1100.0   60.0  300.0  299.0  300.0  300.0 1500.0
  100006914   35.0  338.0 1202.0 1663.0 1080.0   58.0  299.0  300.0  300.0  300.0 1510.0
  100010925   35.0  338.0 1205.0 1720.0 1060.0   56.0  299.0  299.0  300.0  300.0 1510.0
  100014927   35.0  338.0 1220.0 1679.0 1080.0   58.0  299.0  300.0  300.0  300.0 1500.0
  100018925   35.0  338.0 1195.0 1692.0 1060.0   56.0  300.0  299.0  300.0  300.0 1500.0
  100022934   35.0  338.0 1239.0 1655.0 1110.0   61.0  300.0  300.0  300.0  300.0 1510.0
  100026936   35.0  338.0 1215.0 1714.0 1070.0   57.0  300.0  299.0  300.0  300.0 1510.0
  100030934   35.0  338.0 1233.0 1708.0 1080.0   58.0  299.0  299.0  300.0  300.0 1500.0
  100034943   35.0  338.0 1224.0 1690.0 1080.0   58.0  299.0  299.0  300.0  300.0 1490.0
  100038957   35.0  338.0 1272.0 1696.0 1110.0   61.0  300.0  299.0  300.0  300.0 1500.0
  100042980   35.0  338.0 1211.0 1671.0 1080.0   58.0  299.0  299.0  300.0  300.0 1500.0
  100046975   35.0  338.0 1219.0 1686.0 1080.0   58.0  299.0  299.0  300.0  300.0 1500.0
  100050981   36.0  338.0 1210.0 1692.0 1070.0   57.0  299.0  300.0  300.0  300.0 1490.0
  100054983   35.0  338.0 1206.0 1726.0 1060.0   56.0  300.0  300.0  300.0  300.0 1520.0
  100058986   35.0  338.0 1205.0 1701.0 1070.0   57.0  299.0  299.0  300.0  300.0 1500.0
  100062996   35.0  338.0 1237.0 1699.0 1090.0   59.0  299.0  300.0  300.0  300.0 1500.0
  100067004   35.0  338.0 1243.0 1676.0 1100.0   60.0  300.0  300.0  300.0  300.0 1500.0
  100071010   35.0  338.0 1249.0 1714.0 1090.0   59.0  299.0  299.0  300.0  300.0 1500.0
  100075033   35.0  338.0 1212.0 1674.0 1080.0   58.0  300.0  300.0  300.0  300.0 1500.0
  100079025   35.0  338.0 1252.0 1686.0 1100.0   60.0  300.0  300.0  300.0  300.0 1510.0
  100083034   35.0  338.0 1216.0 1673.0 1080.0   58.0  300.0  299.0  300.0  300.0 1510.0
  100087051   36.0  338.0 1224.0 1681.0 1090.0   59.0  300.0  299.0  300.0  300.0 1510.0
  100091044   36.0  338.0 1214.0 1650.0 1090.0   59.0  300.0  300.0  300.0  300.0 1500.0
  100095052   35.0  338.0 1178.0 1702.0 1050.0   55.0  300.0  299.0  300.0  300.0 1510.0
  100099063   35.0  338.0 1239.0 1704.0 1080.0   58.0  300.0  299.0  300.0  300.0 1500.0
  100103088   35.0  338.0 1211.0 1714.0 1060.0   56.0  299.0  300.0  300.0  300.0 1500.0
  100107080   35.0  338.0 1209.0 1695.0 1070.0   57.0  300.0  299.0  300.0  300.0 1500.0
  100111088   36.0  338.0 1238.0 1719.0 1080.0   58.0  300.0  300.0  300.0  300.0 1500.0
  100115097   35.0  338.0 1221.0 1709.0 1070.0   57.0  299.0  299.0  300.0  300.0 1510.0
  100119107   35.0  338.0 1235.0 1704.0 1080.0   58.0  300.0  299.0  300.0  300.0 1500.0
  100123118   35.0  338.0 1221.0 1705.0 1070.0   57.0  299.0  300.0  300.0  300.0 1500.0
  100127127   35.0  338.0 1198.0 1700.0 1060.0   56.0  300.0  299.0  300.0  300.0 1510.0
  100131131   35.0  338.0 1205.0 1701.0 1070.0   57.0  299.0  300.0  300.0  300.0 1500.0
