# 
~VERSION INFORMATION
     VERS.                              2.0:Версия формата LAS
     WRAP.                               NO:Режим одной строчки на временной отчет
~WELL INFORMATION
     STRT.ms                       39169932:Время первой записи в файле
     STOP.ms                      115315297:Время последней записи в файле
     STEP.ms                              0:Шаг времени, 0 - переменный шаг
     NULL.                          -999.25:Метка, нет значения
     DATE.                       07.09.2023:Дата каротажа
      DRV.                                 :Наименование драйвера прибора
     NAME.                             ГГКП:Название прибора
     SNUM.                         18417002:Серийный номер прибора
     FRMW.                         0.19.7.3:Версия прошивки на контроллере прибора
~CURVE INFORMATION
     TIME.ms                       {0,11:0}:Время, количество миллисекунд от начало суток
       MT.°C                               :Температура
      TFG.°                                :Гравитационный поворот
      RSD.имп./сек                         :Счёт, ближний зонд ГГКП
      RLD.имп./сек                         :Счёт, дальний зонд ГГКП
     RHOB.кг/м3                            :Плотность
   HCRHOB.g/cm3                            :Плотность, у.е.
     ADCS.mV                               :Измеренное напряжение порога компараторапо ближнему зонду
     ADCL.mV                               :Измеренное напряжение порога компараторапо дальнему зонду
    THLDS.mV                               :Выставленный порог компараторапо ближнему зонду
    THLDL.mV                               :Выставленный порог компараторапо дальнему зонду
    GRUHV.В                                :Напряжение на высоковольтнике Гамма
~OTHER INFORMATION


~A     TIME     MT    TFG    RSD    RLD   RHOB HCRHOB   ADCS   ADCL  THLDS  THLDL  GRUHV
# ...
  104825107   34.0  336.0 1212.0 1660.0 1090.0   59.0  299.0  300.0  300.0  300.0 1510.0
  104829114   34.0  338.0 1205.0 1690.0 1070.0   57.0  299.0  300.0  300.0  300.0 1520.0
  104833130   34.0  338.0 1210.0 1711.0 1070.0   57.0  299.0  299.0  300.0  300.0 1510.0
  104837125   34.0  338.0 1242.0 1698.0 1090.0   59.0  300.0  300.0  300.0  300.0 1500.0
  104841140   34.0  338.0 1269.0 1698.0 1100.0   60.0  299.0  300.0  300.0  300.0 1490.0
  104845151   34.0  336.0 1219.0 1662.0 1090.0   59.0  299.0  300.0  300.0  300.0 1510.0
  104849166   34.0  336.0 1225.0 1678.0 1090.0   59.0  300.0  299.0  300.0  300.0 1500.0
  104853188   34.0  338.0 1213.0 1671.0 1080.0   58.0  300.0  299.0  300.0  300.0 1520.0
  104857183   34.0  338.0 1209.0 1701.0 1070.0   57.0  299.0  299.0  300.0  300.0 1500.0
  104861195   34.0  338.0 1214.0 1675.0 1080.0   58.0  300.0  300.0  300.0  300.0 1500.0
  104865199   34.0  338.0 1212.0 1671.0 1080.0   58.0  300.0  300.0  300.0  300.0 1500.0
  104869207   34.0  338.0 1215.0 1655.0 1090.0   59.0  299.0  300.0  300.0  300.0 1500.0
  104873223   34.0  338.0 1216.0 1699.0 1070.0   57.0  299.0  300.0  300.0  300.0 1500.0
  104877228   34.0  338.0 1209.0 1697.0 1070.0   57.0  300.0  300.0  300.0  300.0 1500.0
  104881237   34.0  338.0 1195.0 1730.0 1050.0   55.0  299.0  300.0  300.0  300.0 1500.0
  104885246   34.0  338.0 1219.0 1692.0 1080.0   58.0  299.0  300.0  300.0  300.0 1500.0
  104889256   34.0  338.0 1233.0 1703.0 1080.0   58.0  300.0  300.0  300.0  300.0 1500.0
  104893264   34.0  338.0 1228.0 1718.0 1070.0   57.0  299.0  299.0  300.0  300.0 1500.0
  104897277   34.0  338.0 1237.0 1682.0 1090.0   59.0  300.0  300.0  300.0  300.0 1500.0
  104901279   34.0  338.0 1197.0 1703.0 1060.0   56.0  300.0  299.0  300.0  300.0 1500.0
  104905288   34.0  338.0 1234.0 1696.0 1090.0   59.0  299.0  299.0  300.0  300.0 1500.0
  104909300   34.0  338.0 1201.0 1685.0 1070.0   57.0  300.0  300.0  300.0  300.0 1510.0
  104913311   34.0  338.0 1241.0 1660.0 1100.0   60.0  300.0  299.0  300.0  300.0 1500.0
  104917316   34.0  336.0 1199.0 1678.0 1070.0   57.0  299.0  300.0  300.0  300.0 1500.0
  104921325   34.0  338.0 1186.0 1691.0 1060.0   56.0  300.0  300.0  300.0  300.0 1500.0
  104925329   34.0  338.0 1197.0 1681.0 1070.0   57.0  300.0  300.0  300.0  300.0 1510.0
  104929333   34.0  338.0 1207.0 1696.0 1070.0   57.0  299.0  300.0  300.0  300.0 1500.0
  104933336   34.0  338.0 1233.0 1745.0 1060.0   56.0  300.0  300.0  300.0  300.0 1500.0
  104937345   34.0  338.0 1231.0 1706.0 1080.0   58.0  300.0  300.0  300.0  300.0 1530.0
  104941359   34.0  338.0 1213.0 1727.0 1060.0   56.0  299.0  300.0  300.0  300.0 1500.0
  104945365   34.0  338.0 1226.0 1708.0 1080.0   58.0  300.0  299.0  300.0  300.0 1510.0
  104949369   34.0  338.0 1209.0 1678.0 1080.0   58.0  300.0  300.0  300.0  300.0 1490.0
  104953376   34.0  338.0 1223.0 1690.0 1080.0   58.0  299.0  300.0  300.0  300.0 1500.0
  104957386   34.0  338.0 1214.0 1640.0 1100.0   60.0  299.0  300.0  300.0  300.0 1490.0
  104961396   34.0  338.0 1212.0 1700.0 1070.0   57.0  300.0  299.0  300.0  300.0 1500.0
  104965415   34.0  338.0 1217.0 1660.0 1090.0   59.0  300.0  300.0  300.0  300.0 1490.0
  104969420   34.0  338.0 1248.0 1688.0 1100.0   60.0  299.0  300.0  300.0  300.0 1500.0
  104973428   34.0  338.0 1191.0 1706.0 1060.0   56.0  300.0  299.0  300.0  300.0 1500.0
  104977442   34.0  338.0 1206.0 1673.0 1080.0   58.0  300.0  300.0  300.0  300.0 1510.0
  104981450   34.0  338.0 1222.0 1683.0 1080.0   58.0  299.0  300.0  300.0  300.0 1500.0
  104985452   34.0  338.0 1220.0 1669.0 1090.0   59.0  299.0  300.0  300.0  300.0 1510.0
  104989469   34.0  338.0 1236.0 1693.0 1090.0   59.0  300.0  300.0  300.0  300.0 1500.0
  104993471   34.0  336.0 1239.0 1686.0 1090.0   59.0  300.0  300.0  300.0  300.0 1500.0
  104997477   34.0  338.0 1210.0 1700.0 1070.0   57.0  300.0  300.0  300.0  300.0 1500.0
  105001483   34.0  338.0 1209.0 1691.0 1070.0   57.0  300.0  299.0  300.0  300.0 1510.0
  105005497   34.0  338.0 1226.0 1658.0 1100.0   60.0  299.0  300.0  300.0  300.0 1500.0
  105009496   34.0  338.0 1219.0 1662.0 1090.0   59.0  299.0  300.0  300.0  300.0 1500.0
  105013494   34.0  338.0 1213.0 1680.0 1080.0   58.0  299.0  300.0  300.0  300.0 1500.0
  105017505   34.0  338.0 1186.0 1698.0 1060.0   56.0  300.0  300.0  300.0  300.0 1500.0
  105021516   34.0  338.0 1196.0 1696.0 1060.0   56.0  299.0  300.0  300.0  300.0 1510.0
  105025519   34.0  338.0 1213.0 1683.0 1080.0   58.0  300.0  300.0  300.0  300.0 1500.0
  105029533   34.0  338.0 1201.0 1682.0 1070.0   57.0  300.0  300.0  300.0  300.0 1510.0
  105033537   34.0  338.0 1244.0 1709.0 1090.0   59.0  299.0  300.0  300.0  300.0 1510.0
  105037548   34.0  338.0 1211.0 1704.0 1070.0   57.0  300.0  300.0  300.0  300.0 1510.0
  105041562   34.0  338.0 1199.0 1683.0 1070.0   57.0  300.0  300.0  300.0  300.0 1500.0
  105045566   34.0  338.0 1210.0 1687.0 1070.0   57.0  300.0  299.0  300.0  300.0 1500.0
  105049560   34.0  338.0 1226.0 1693.0 1080.0   58.0  300.0  299.0  300.0  300.0 1500.0
  105053580   34.0  338.0 1212.0 1688.0 1080.0   58.0  300.0  299.0  300.0  300.0 1500.0
  105057577   34.0  336.0 1209.0 1675.0 1080.0   58.0  299.0  300.0  300.0  300.0 1500.0
  105061580   34.0  338.0 1209.0 1708.0 1070.0   57.0  300.0  299.0  300.0  300.0 1500.0
  105065596   34.0  336.0 1192.0 1689.0 1060.0   56.0  300.0  300.0  300.0  300.0 1500.0
  105069610   34.0  338.0 1232.0 1728.0 1070.0   57.0  299.0  299.0  300.0  300.0 1500.0
  105073624   34.0  338.0 1227.0 1742.0 1060.0   56.0  299.0  299.0  300.0  300.0 1500.0
  105077618   34.0  338.0 1245.0 1677.0 1100.0   60.0  300.0  299.0  300.0  300.0 1500.0
  105081637   34.0  338.0 1199.0 1713.0 1060.0   56.0  300.0  299.0  300.0  300.0 1500.0
  105085638   34.0  338.0 1239.0 1706.0 1080.0   58.0  300.0  299.0  300.0  300.0 1500.0
  105089657   34.0  338.0 1213.0 1686.0 1080.0   58.0  299.0  299.0  300.0  300.0 1500.0
  105093660   34.0  338.0 1240.0 1706.0 1080.0   58.0  299.0  300.0  300.0  300.0 1500.0
  105097673   34.0  338.0 1255.0 1686.0 1100.0   60.0  300.0  299.0  300.0  300.0 1500.0
  105101689   34.0  338.0 1237.0 1698.0 1090.0   59.0  299.0  300.0  300.0  300.0 1500.0
  105105694   34.0  338.0 1238.0 1750.0 1070.0   57.0  299.0  300.0  300.0  300.0 1500.0
  105109721   34.0  338.0 1194.0 1698.0 1060.0   56.0  299.0  299.0  300.0  300.0 1500.0
  105113724   34.0  338.0 1219.0 1679.0 1080.0   58.0  299.0  300.0  300.0  300.0 1510.0
  105117738   34.0  338.0 1217.0 1720.0 1070.0   57.0  300.0  300.0  300.0  300.0 1500.0
  105121752   34.0  336.0 1223.0 1682.0 1080.0   58.0  299.0  299.0  300.0  300.0 1490.0
  105125775   34.0  338.0 1217.0 1680.0 1080.0   58.0  299.0  299.0  300.0  300.0 1520.0
  105129778   34.0  338.0 1205.0 1689.0 1070.0   57.0  300.0  299.0  300.0  300.0 1500.0
  105133791   34.0  336.0 1195.0 1692.0 1060.0   56.0  299.0  300.0  300.0  300.0 1510.0
  105137805   34.0  338.0 1213.0 1656.0 1090.0   59.0  299.0  300.0  300.0  300.0 1500.0
  105141824   34.0  338.0 1221.0 1668.0 1090.0   59.0  299.0  299.0  300.0  300.0 1500.0
  105145837   34.0  338.0 1230.0 1657.0 1100.0   60.0  300.0  299.0  300.0  300.0 1500.0
  105149843   34.0  338.0 1181.0 1653.0 1070.0   57.0  299.0  300.0  300.0  300.0 1500.0
  105153861   34.0  338.0 1220.0 1687.0 1080.0   58.0  299.0  300.0  300.0  300.0 1500.0
  105157855   34.0  338.0 1214.0 1674.0 1080.0   58.0  299.0  300.0  300.0  300.0 1500.0
  105161875   34.0  338.0 1239.0 1699.0 1090.0   59.0  299.0  299.0  300.0  300.0 1500.0
  105165872   34.0  338.0 1225.0 1687.0 1080.0   58.0  300.0  300.0  300.0  300.0 1500.0
  105169879   34.0  338.0 1242.0 1676.0 1100.0   60.0  299.0  299.0  300.0  300.0 1490.0
  105173891   34.0  338.0 1230.0 1654.0 1100.0   60.0  299.0  300.0  300.0  300.0 1500.0
  105177894   34.0  338.0 1218.0 1681.0 1080.0   58.0  299.0  299.0  300.0  300.0 1500.0
  105181914   34.0  336.0 1226.0 1669.0 1090.0   59.0  299.0  299.0  300.0  300.0 1500.0
