# 
~VERSION INFORMATION
     VERS.                              2.0:Версия формата LAS
     WRAP.                               NO:Режим одной строчки на временной отчет
~WELL INFORMATION
     STRT.ms                       39169932:Время первой записи в файле
     STOP.ms                      115315297:Время последней записи в файле
     STEP.ms                              0:Шаг времени, 0 - переменный шаг
     NULL.                          -999.25:Метка, нет значения
     DATE.                       07.09.2023:Дата каротажа
      DRV.                                 :Наименование драйвера прибора
     NAME.                             ГГКП:Название прибора
     SNUM.                         18417002:Серийный номер прибора
     FRMW.                         0.19.7.3:Версия прошивки на контроллере прибора
~CURVE INFORMATION
     TIME.ms                       {0,11:0}:Время, количество миллисекунд от начало суток
       MT.°C                               :Температура
      TFG.°                                :Гравитационный поворот
      RSD.имп./сек                         :Счёт, ближний зонд ГГКП
      RLD.имп./сек                         :Счёт, дальний зонд ГГКП
     RHOB.кг/м3                            :Плотность
   HCRHOB.g/cm3                            :Плотность, у.е.
     ADCS.mV                               :Измеренное напряжение порога компараторапо ближнему зонду
     ADCL.mV                               :Измеренное напряжение порога компараторапо дальнему зонду
    THLDS.mV                               :Выставленный порог компараторапо ближнему зонду
    THLDL.mV                               :Выставленный порог компараторапо дальнему зонду
    GRUHV.В                                :Напряжение на высоковольтнике Гамма
~OTHER INFORMATION


~A     TIME     MT    TFG    RSD    RLD   RHOB HCRHOB   ADCS   ADCL  THLDS  THLDL  GRUHV
# ...
   49270670  103.0  340.0 1218.0 1599.0 1120.0   62.0  299.0  300.0  300.0  300.0 1510.0
   49274685  103.0  340.0 1222.0 1661.0 1090.0   59.0  299.0  300.0  300.0  300.0 1500.0
   49278704  103.0  340.0 1234.0 1680.0 1090.0   59.0  299.0  299.0  300.0  300.0 1490.0
   49282721  103.0  340.0 1244.0 1650.0 1110.0   61.0  299.0  300.0  300.0  300.0 1490.0
   49286711  103.0  340.0 1244.0 1657.0 1110.0   61.0  299.0  299.0  300.0  300.0 1500.0
   49290715  103.0  340.0 1251.0 1626.0 1130.0   63.0  299.0  300.0  300.0  300.0 1500.0
   49294725  103.0  340.0 1232.0 1656.0 1100.0   60.0  299.0  300.0  300.0  300.0 1500.0
   49298732  103.0  340.0 1224.0 1689.0 1080.0   58.0  299.0  300.0  300.0  300.0 1500.0
   49302739  103.0  340.0 1257.0 1623.0 1130.0   63.0  299.0  300.0  300.0  300.0 1500.0
   49306739  103.0  340.0 1238.0 1641.0 1110.0   61.0  299.0  300.0  300.0  300.0 1510.0
   49310750  104.0  340.0 1202.0 1653.0 1090.0   59.0  299.0  300.0  300.0  300.0 1500.0
   49314761  104.0  340.0 1236.0 1651.0 1110.0   61.0  299.0  300.0  300.0  300.0 1500.0
   49318776  104.0  340.0 1201.0 1654.0 1080.0   58.0  299.0  300.0  300.0  300.0 1500.0
   49322774  104.0  340.0 1194.0 1613.0 1100.0   60.0  299.0  300.0  300.0  300.0 1500.0
   49326776  104.0  340.0 1217.0 1681.0 1080.0   58.0  299.0  300.0  300.0  300.0 1490.0
   49330797  104.0  340.0 1260.0 1624.0 1130.0   63.0  299.0  300.0  300.0  300.0 1500.0
   49334798  104.0  340.0 1233.0 1668.0 1100.0   60.0  299.0  300.0  300.0  300.0 1500.0
   49338790  104.0  340.0 1237.0 1639.0 1110.0   61.0  299.0  300.0  300.0  300.0 1500.0
   49342816  104.0  340.0 1215.0 1670.0 1090.0   59.0  299.0  300.0  300.0  300.0 1510.0
   49346806  104.0  340.0 1233.0 1647.0 1110.0   61.0  299.0  300.0  300.0  300.0 1500.0
   49350814  104.0  340.0 1232.0 1632.0 1110.0   61.0  299.0  300.0  300.0  300.0 1500.0
   49354823  104.0  340.0 1215.0 1695.0 1070.0   57.0  299.0  300.0  300.0  300.0 1530.0
   49358830  104.0  340.0 1248.0 1670.0 1100.0   60.0  299.0  299.0  300.0  300.0 1500.0
   49362832  104.0  340.0 1228.0 1651.0 1100.0   60.0  299.0  300.0  300.0  300.0 1500.0
   49366858  104.0  340.0 1219.0 1684.0 1080.0   58.0  299.0  300.0  300.0  300.0 1500.0
   49370859  104.0  340.0 1217.0 1684.0 1080.0   58.0  299.0  300.0  300.0  300.0 1490.0
   49374872  104.0  340.0 1228.0 1663.0 1100.0   60.0  299.0  300.0  300.0  300.0 1500.0
   49378872  104.0  340.0 1248.0 1629.0 1120.0   62.0  299.0  300.0  300.0  300.0 1500.0
   49382887  104.0  340.0 1203.0 1687.0 1070.0   57.0  299.0  300.0  300.0  300.0 1510.0
   49386897  104.0  340.0 1204.0 1665.0 1080.0   58.0  299.0  300.0  300.0  300.0 1510.0
   49390902  104.0  340.0 1213.0 1663.0 1090.0   59.0  299.0  300.0  300.0  300.0 1500.0
   49394905  104.0  340.0 1236.0 1646.0 1110.0   61.0  299.0  299.0  300.0  300.0 1500.0
   49398930  104.0  340.0 1245.0 1657.0 1110.0   61.0  299.0  299.0  300.0  300.0 1500.0
   49402918  104.0  340.0 1249.0 1623.0 1130.0   63.0  299.0  299.0  300.0  300.0 1500.0
   49406926  104.0  340.0 1224.0 1648.0 1100.0   60.0  299.0  300.0  300.0  300.0 1520.0
   49410943  104.0  340.0 1222.0 1650.0 1100.0   60.0  299.0  300.0  300.0  300.0 1500.0
   49414959  104.0  340.0 1220.0 1632.0 1100.0   60.0  299.0  300.0  300.0  300.0 1490.0
   49418981  104.0  340.0 1236.0 1618.0 1120.0   62.0  299.0  300.0  300.0  300.0 1500.0
   49422992  104.0  340.0 1230.0 1659.0 1100.0   60.0  299.0  300.0  300.0  300.0 1500.0
   49426998  104.0  340.0 1214.0 1683.0 1080.0   58.0  299.0  299.0  300.0  300.0 1500.0
   49431002  104.0  340.0 1202.0 1653.0 1090.0   59.0  299.0  299.0  300.0  300.0 1510.0
   49435015  104.0  340.0 1245.0 1649.0 1110.0   61.0  299.0  300.0  300.0  300.0 1500.0
   49439029  104.0  340.0 1230.0 1642.0 1110.0   61.0  299.0  299.0  300.0  300.0 1490.0
   49443043  104.0  340.0 1243.0 1648.0 1110.0   61.0  299.0  300.0  300.0  300.0 1500.0
   49447057  104.0  340.0 1210.0 1652.0 1090.0   59.0  299.0  299.0  300.0  300.0 1490.0
   49451073  104.0  340.0 1228.0 1662.0 1100.0   60.0  299.0  300.0  300.0  300.0 1490.0
   49455079  104.0  340.0 1242.0 1643.0 1110.0   61.0  299.0  300.0  300.0  300.0 1500.0
   49459086  104.0  340.0 1211.0 1624.0 1100.0   60.0  299.0  300.0  300.0  300.0 1500.0
   49463099  104.0  340.0 1199.0 1676.0 1070.0   57.0  299.0  300.0  300.0  300.0 1500.0
   49467103  104.0  340.0 1196.0 1657.0 1080.0   58.0  299.0  299.0  300.0  300.0 1500.0
   49471116  104.0  340.0 1205.0 1621.0 1100.0   60.0  299.0  300.0  300.0  300.0 1500.0
   49475139  104.0  340.0 1218.0 1677.0 1080.0   58.0  299.0  300.0  300.0  300.0 1500.0
   49479127  104.0  340.0 1215.0 1675.0 1080.0   58.0  299.0  300.0  300.0  300.0 1500.0
   49483145  104.0  340.0 1252.0 1699.0 1090.0   59.0  299.0  300.0  300.0  300.0 1510.0
   49487158  104.0  340.0 1221.0 1648.0 1100.0   60.0  299.0  299.0  300.0  300.0 1500.0
   49491166  104.0  340.0 1208.0 1667.0 1080.0   58.0  299.0  299.0  300.0  300.0 1500.0
   49495178  104.0  340.0 1242.0 1687.0 1090.0   59.0  299.0  300.0  300.0  300.0 1500.0
   49499178  104.0  340.0 1234.0 1656.0 1100.0   60.0  299.0  300.0  300.0  300.0 1490.0
   49503179  105.0  340.0 1243.0 1637.0 1120.0   62.0  299.0  299.0  300.0  300.0 1500.0
   49507185  104.0  340.0 1202.0 1692.0 1070.0   57.0  299.0  300.0  300.0  300.0 1510.0
   49511193  104.0  340.0 1219.0 1681.0 1080.0   58.0  299.0  300.0  300.0  300.0 1500.0
   49515209  105.0  340.0 1249.0 1651.0 1110.0   61.0  299.0  300.0  300.0  300.0 1500.0
   49519211  105.0  340.0 1245.0 1654.0 1110.0   61.0  299.0  300.0  300.0  300.0 1500.0
   49523229  105.0  340.0 1238.0 1663.0 1100.0   60.0  299.0  300.0  300.0  300.0 1510.0
   49527228  105.0  340.0 1230.0 1682.0 1090.0   59.0  299.0  300.0  300.0  300.0 1490.0
   49531230  105.0  340.0 1216.0 1675.0 1080.0   58.0  299.0  300.0  300.0  300.0 1490.0
   49535241  104.0  340.0 1190.0 1666.0 1070.0   57.0  299.0  300.0  300.0  300.0 1500.0
   49539242  105.0  340.0 1207.0 1648.0 1090.0   59.0  299.0  299.0  300.0  300.0 1520.0
   49543250  105.0  340.0 1243.0 1676.0 1100.0   60.0  299.0  300.0  300.0  300.0 1500.0
   49547258  105.0  340.0 1226.0 1631.0 1110.0   61.0  299.0  299.0  300.0  300.0 1490.0
   49551255  105.0  340.0 1202.0 1616.0 1100.0   60.0  299.0  300.0  300.0  300.0 1500.0
   49555270  105.0  340.0 1273.0 1669.0 1120.0   62.0  299.0  300.0  300.0  300.0 1500.0
   49559280  105.0  340.0 1282.0 1628.0 1140.0   64.0  299.0  299.0  300.0  300.0 1500.0
   49563295  105.0  340.0 1250.0 1670.0 1110.0   61.0  299.0  299.0  300.0  300.0 1500.0
   49567307  105.0  340.0 1223.0 1679.0 1090.0   59.0  299.0  300.0  300.0  300.0 1500.0
   49571325  105.0  340.0 1246.0 1648.0 1110.0   61.0  299.0  300.0  300.0  300.0 1500.0
   49575322  105.0  340.0 1230.0 1698.0 1080.0   58.0  299.0  300.0  300.0  300.0 1500.0
   49579338  105.0  340.0 1213.0 1631.0 1100.0   60.0  299.0  300.0  300.0  300.0 1490.0
   49583352  105.0  340.0 1236.0 1653.0 1100.0   60.0  299.0  300.0  300.0  300.0 1510.0
   49587363  105.0  340.0 1243.0 1671.0 1100.0   60.0  299.0  300.0  300.0  300.0 1510.0
   49591375  105.0  340.0 1244.0 1655.0 1110.0   61.0  299.0  300.0  300.0  300.0 1500.0
   49595401  105.0  340.0 1222.0 1625.0 1110.0   61.0  299.0  299.0  300.0  300.0 1500.0
   49599394  105.0  340.0 1251.0 1643.0 1120.0   62.0  299.0  300.0  300.0  300.0 1490.0
   49603407  105.0  340.0 1238.0 1654.0 1110.0   61.0  299.0  300.0  300.0  300.0 1490.0
   49607414  105.0  340.0 1201.0 1656.0 1080.0   58.0  299.0  299.0  300.0  300.0 1500.0
   49611426  105.0  340.0 1223.0 1681.0 1080.0   58.0  299.0  300.0  300.0  300.0 1490.0
   49615441  105.0  340.0 1263.0 1661.0 1120.0   62.0  299.0  300.0  300.0  300.0 1500.0
   49619454  105.0  340.0 1238.0 1700.0 1090.0   59.0  299.0  300.0  300.0  300.0 1500.0
   49623466  105.0  340.0 1207.0 1637.0 1100.0   60.0  299.0  300.0  300.0  300.0 1490.0
   49627476  105.0  340.0 1235.0 1633.0 1110.0   61.0  299.0  299.0  300.0  300.0 1500.0
