# 
~VERSION INFORMATION
     VERS.                              2.0:Версия формата LAS
     WRAP.                               NO:Режим одной строчки на временной отчет
~WELL INFORMATION
     STRT.ms                       35211431:Время первой записи в файле
     STOP.ms                       51799721:Время последней записи в файле
     STEP.ms                              0:Шаг времени, 0 - переменный шаг
     NULL.                          -999.25:Метка, нет значения
     DATE.                       27.07.2023:Дата каротажа
      DRV.                                 :Наименование драйвера прибора
     NAME.                             ГГКП:Название прибора
     SNUM.                         19399001:Серийный номер прибора
     FRMW.                         0.19.7.3:Версия прошивки на контроллере прибора
~CURVE INFORMATION
     TIME.ms                       {0,11:0}:Время, количество миллисекунд от начало суток
       MT.°C                               :Температура
      TFG.°                                :Гравитационный поворот
      RSD.имп./сек                         :Счёт, ближний зонд ГГКП
      RLD.имп./сек                         :Счёт, дальний зонд ГГКП
     RHOB.кг/м3                            :Плотность
   HCRHOB.g/cm3                            :Плотность, у.е.
     ADCS.mV                               :Измеренное напряжение порога компараторапо ближнему зонду
     ADCL.mV                               :Измеренное напряжение порога компараторапо дальнему зонду
    THLDS.mV                               :Выставленный порог компараторапо ближнему зонду
    THLDL.mV                               :Выставленный порог компараторапо дальнему зонду
    GRUHV.В                                :Напряжение на высоковольтнике Гамма
~OTHER INFORMATION


~A     TIME     MT    TFG    RSD    RLD   RHOB HCRHOB   ADCS   ADCL  THLDS  THLDL  GRUHV
# ...
   51450782   67.0    0.0 1449.0 1807.0 1250.0   75.0  300.0  300.0  300.0  300.0 1500.0
   51454786   67.0    0.0 1437.0 1814.0 1240.0   74.0  300.0  300.0  300.0  300.0 1500.0
   51458792   67.0    0.0 1437.0 1821.0 1240.0   74.0  301.0  300.0  300.0  300.0 1500.0
   51462808   67.0    0.0 1449.0 1804.0 1250.0   75.0  301.0  300.0  300.0  300.0 1500.0
   51466814   67.0    0.0 1456.0 1814.0 1250.0   75.0  301.0  300.0  300.0  300.0 1510.0
   51470809   67.0    0.0 1436.0 1845.0 1230.0   73.0  300.0  300.0  300.0  300.0 1500.0
   51474835   67.0    0.0 1433.0 1763.0 1260.0   76.0  300.0  300.0  300.0  300.0 1500.0
   51478836   67.0    0.0 1415.0 1830.0 1230.0   73.0  301.0  300.0  300.0  300.0 1510.0
   51482846   67.0    0.0 1445.0 1824.0 1250.0   75.0  300.0  300.0  300.0  300.0 1510.0
   51486857   67.0    0.0 1481.0 1783.0 1280.0   78.0  300.0  300.0  300.0  300.0 1500.0
   51490876   66.0    0.0 1442.0 1810.0 1250.0   75.0  301.0  300.0  300.0  300.0 1500.0
   51494899   67.0    0.0 1477.0 1774.0 1280.0   78.0  301.0  300.0  300.0  300.0 1490.0
   51498906   66.0    0.0 1443.0 1827.0 1240.0   74.0  300.0  300.0  300.0  300.0 1490.0
   51502913   67.0    0.0 1432.0 1776.0 1260.0   76.0  300.0  300.0  300.0  300.0 1490.0
   51506924   67.0    0.0 1443.0 1823.0 1240.0   74.0  300.0  300.0  300.0  300.0 1490.0
   51510950   66.0    0.0 1418.0 1826.0 1230.0   73.0  300.0  300.0  300.0  300.0 1500.0
   51514962   67.0    0.0 1456.0 1832.0 1250.0   75.0  301.0  300.0  300.0  300.0 1500.0
   51518982   66.0    0.0 1422.0 1806.0 1240.0   74.0  300.0  300.0  300.0  300.0 1490.0
   51522989   66.0    0.0 1477.0 1786.0 1270.0   77.0  301.0  300.0  300.0  300.0 1500.0
   51526997   66.0    0.0 1422.0 1800.0 1240.0   74.0  301.0  301.0  300.0  300.0 1500.0
   51531011   66.0    0.0 1463.0 1791.0 1270.0   77.0  300.0  300.0  300.0  300.0 1500.0
   51535025   66.0    0.0 1433.0 1797.0 1250.0   75.0  301.0  300.0  300.0  300.0 1500.0
   51539038   66.0    0.0 1451.0 1804.0 1250.0   75.0  301.0  300.0  300.0  300.0 1510.0
   51543060   66.0    0.0 1456.0 1808.0 1260.0   76.0  300.0  300.0  300.0  300.0 1500.0
   51547055   66.0    0.0 1438.0 1792.0 1250.0   75.0  301.0  300.0  300.0  300.0 1500.0
   51551061   66.0    0.0 1475.0 1797.0 1270.0   77.0  301.0  300.0  300.0  300.0 1500.0
   51555090   66.0    0.0 1420.0 1814.0 1240.0   74.0  300.0  300.0  300.0  300.0 1500.0
   51559097   66.0    0.0 1453.0 1791.0 1260.0   76.0  301.0  300.0  300.0  300.0 1490.0
   51563094   66.0    0.0 1453.0 1810.0 1250.0   75.0  301.0  300.0  300.0  300.0 1500.0
   51567112   66.0    0.0 1457.0 1781.0 1270.0   77.0  300.0  300.0  300.0  300.0 1500.0
   51571126   66.0    0.0 1432.0 1881.0 1220.0   72.0  301.0  300.0  300.0  300.0 1490.0
   51575134   66.0    0.0 1403.0 1854.0 1220.0   72.0  301.0  300.0  300.0  300.0 1500.0
   51579142   66.0    0.0 1445.0 1877.0 1230.0   73.0  300.0  300.0  300.0  300.0 1500.0
   51583169   66.0    0.0 1446.0 1808.0 1250.0   75.0  301.0  300.0  300.0  300.0 1500.0
   51587174   66.0    0.0 1431.0 1825.0 1240.0   74.0  300.0  300.0  300.0  300.0 1500.0
   51591183   66.0    0.0 1411.0 1796.0 1240.0   74.0  300.0  300.0  300.0  300.0 1500.0
   51595196   66.0    0.0 1465.0 1784.0 1270.0   77.0  301.0  300.0  300.0  300.0 1490.0
   51599210   66.0    0.0 1458.0 1829.0 1250.0   75.0  301.0  300.0  300.0  300.0 1500.0
   51603215   66.0    0.0 1449.0 1850.0 1240.0   74.0  301.0  300.0  300.0  300.0 1500.0
   51607215   66.0    0.0 1480.0 1830.0 1260.0   76.0  300.0  300.0  300.0  300.0 1510.0
   51611219   66.0    0.0 1455.0 1775.0 1270.0   77.0  300.0  300.0  300.0  300.0 1500.0
   51615230   66.0    0.0 1445.0 1808.0 1250.0   75.0  300.0  300.0  300.0  300.0 1500.0
   51619231   66.0    0.0 1441.0 1822.0 1240.0   74.0  300.0  300.0  300.0  300.0 1500.0
   51623246   66.0    0.0 1426.0 1825.0 1240.0   74.0  301.0  300.0  300.0  300.0 1500.0
   51627260   66.0    0.0 1476.0 1796.0 1270.0   77.0  300.0  300.0  300.0  300.0 1500.0
   51631271   66.0    0.0 1438.0 1813.0 1250.0   75.0  301.0  300.0  300.0  300.0 1500.0
   51635297   66.0    0.0 1458.0 1864.0 1240.0   74.0  301.0  301.0  300.0  300.0 1500.0
   51639297   66.0    0.0 1440.0 1816.0 1250.0   75.0  300.0  300.0  300.0  300.0 1500.0
   51643313   66.0    0.0 1481.0 1792.0 1270.0   77.0  301.0  300.0  300.0  300.0 1500.0
   51647325   65.0    0.0 1404.0 1782.0 1240.0   74.0  301.0  300.0  300.0  300.0 1500.0
   51651363   65.0    0.0 1453.0 1819.0 1250.0   75.0  301.0  300.0  300.0  300.0 1500.0
   51655358   65.0    0.0 1465.0 1807.0 1260.0   76.0  301.0  301.0  300.0  300.0 1500.0
   51659379   65.0    0.0 1432.0 1790.0 1250.0   75.0  300.0  300.0  300.0  300.0 1500.0
   51663379   65.0    0.0 1456.0 1818.0 1250.0   75.0  301.0  300.0  300.0  300.0 1500.0
   51667382   65.0    0.0 1448.0 1790.0 1260.0   76.0  301.0  300.0  300.0  300.0 1500.0
   51671406   65.0    0.0 1454.0 1797.0 1260.0   76.0  300.0  300.0  300.0  300.0 1500.0
   51675416   65.0    0.0 1432.0 1789.0 1250.0   75.0  300.0  301.0  300.0  300.0 1500.0
   51679431   65.0    0.0 1450.0 1788.0 1260.0   76.0  300.0  300.0  300.0  300.0 1500.0
   51683437   65.0    0.0 1433.0 1781.0 1260.0   76.0  300.0  300.0  300.0  300.0 1500.0
   51687434   65.0    0.0 1435.0 1794.0 1250.0   75.0  300.0  300.0  300.0  300.0 1500.0
   51691455   65.0    0.0 1439.0 1804.0 1250.0   75.0  300.0  301.0  300.0  300.0 1490.0
   51695462   65.0    0.0 1421.0 1828.0 1230.0   73.0  300.0  300.0  300.0  300.0 1500.0
   51699471   65.0    0.0 1454.0 1784.0 1260.0   76.0  300.0  300.0  300.0  300.0 1490.0
   51703479   65.0    0.0 1434.0 1806.0 1250.0   75.0  301.0  300.0  300.0  300.0 1490.0
   51707499   65.0    0.0 1421.0 1811.0 1240.0   74.0  301.0  300.0  300.0  300.0 1500.0
   51711492   65.0    0.0 1464.0 1795.0 1260.0   76.0  300.0  301.0  300.0  300.0 1490.0
   51715491   65.0    0.0 1472.0 1818.0 1260.0   76.0  301.0  300.0  300.0  300.0 1500.0
   51719509   65.0    0.0 1485.0 1800.0 1270.0   77.0  300.0  300.0  300.0  300.0 1500.0
   51723516   65.0    0.0 1462.0 1812.0 1260.0   76.0  300.0  300.0  300.0  300.0 1500.0
   51727521   65.0    0.0 1426.0 1798.0 1250.0   75.0  300.0  300.0  300.0  300.0 1500.0
   51731542   65.0    0.0 1431.0 1807.0 1240.0   74.0  300.0  300.0  300.0  300.0 1490.0
   51735535   65.0    0.0 1438.0 1808.0 1250.0   75.0  300.0  300.0  300.0  300.0 1500.0
   51739562   65.0    0.0 1457.0 1804.0 1260.0   76.0  300.0  300.0  300.0  300.0 1500.0
   51743564   65.0    0.0 1448.0 1803.0 1250.0   75.0  300.0  300.0  300.0  300.0 1500.0
   51747580   65.0    0.0 1471.0 1806.0 1260.0   76.0  300.0  300.0  300.0  300.0 1500.0
   51751591   65.0    0.0 1462.0 1822.0 1250.0   75.0  301.0  300.0  300.0  300.0 1500.0
   51755610   65.0    0.0 1450.0 1820.0 1250.0   75.0  300.0  300.0  300.0  300.0 1500.0
   51759624   65.0    0.0 1415.0 1855.0 1220.0   72.0  301.0  301.0  300.0  300.0 1510.0
   51763630   65.0    0.0 1451.0 1813.0 1250.0   75.0  301.0  300.0  300.0  300.0 1500.0
   51767637   65.0    0.0 1443.0 1858.0 1230.0   73.0  300.0  300.0  300.0  300.0 1510.0
   51771641   64.0    0.0 1432.0 1799.0 1250.0   75.0  300.0  300.0  300.0  300.0 1500.0
   51775658   64.0    0.0 1430.0 1815.0 1240.0   74.0  301.0  300.0  300.0  300.0 1500.0
   51779667   64.0    0.0 1438.0 1792.0 1250.0   75.0  301.0  301.0  300.0  300.0 1500.0
   51783693   64.0    0.0 1415.0 1811.0 1240.0   74.0  300.0  300.0  300.0  300.0 1500.0
   51787692   64.0    0.0 1424.0 1797.0 1250.0   75.0  301.0  300.0  300.0  300.0 1500.0
   51791691   64.0    0.0 1452.0 1780.0 1260.0   76.0  300.0  300.0  300.0  300.0 1500.0
   51795703   64.0    0.0 1427.0 1823.0 1240.0   74.0  300.0  300.0  300.0  300.0 1500.0
   51799721   64.0    0.0 1446.0 1811.0 1250.0   75.0  300.0  300.0  300.0  300.0 1500.0
