# 
~VERSION INFORMATION
     VERS.                              2.0:Версия формата LAS
     WRAP.                               NO:Режим одной строчки на временной отчет
~WELL INFORMATION
     STRT.ms                       35211431:Время первой записи в файле
     STOP.ms                       51799721:Время последней записи в файле
     STEP.ms                              0:Шаг времени, 0 - переменный шаг
     NULL.                          -999.25:Метка, нет значения
     DATE.                       27.07.2023:Дата каротажа
      DRV.                                 :Наименование драйвера прибора
     NAME.                             ГГКП:Название прибора
     SNUM.                         19399001:Серийный номер прибора
     FRMW.                         0.19.7.3:Версия прошивки на контроллере прибора
~CURVE INFORMATION
     TIME.ms                       {0,11:0}:Время, количество миллисекунд от начало суток
       MT.°C                               :Температура
      TFG.°                                :Гравитационный поворот
      RSD.имп./сек                         :Счёт, ближний зонд ГГКП
      RLD.имп./сек                         :Счёт, дальний зонд ГГКП
     RHOB.кг/м3                            :Плотность
   HCRHOB.g/cm3                            :Плотность, у.е.
     ADCS.mV                               :Измеренное напряжение порога компараторапо ближнему зонду
     ADCL.mV                               :Измеренное напряжение порога компараторапо дальнему зонду
    THLDS.mV                               :Выставленный порог компараторапо ближнему зонду
    THLDL.mV                               :Выставленный порог компараторапо дальнему зонду
    GRUHV.В                                :Напряжение на высоковольтнике Гамма
~OTHER INFORMATION


~A     TIME     MT    TFG    RSD    RLD   RHOB HCRHOB   ADCS   ADCL  THLDS  THLDL  GRUHV
# ...
   38458831  109.0    0.0 1408.0 1776.0 1250.0   75.0  301.0  300.0  300.0  300.0 1500.0
   38462843  109.0    0.0 1415.0 1781.0 1250.0   75.0  301.0  300.0  300.0  300.0 1500.0
   38466859  109.0    0.0 1438.0 1791.0 1250.0   75.0  301.0  300.0  300.0  300.0 1500.0
   38470858  109.0    0.0 1413.0 1740.0 1260.0   76.0  300.0  300.0  300.0  300.0 1500.0
   38474867  109.0    0.0 1418.0 1814.0 1240.0   74.0  301.0  300.0  300.0  300.0 1500.0
   38478868  109.0    0.0 1428.0 1796.0 1250.0   75.0  300.0  300.0  300.0  300.0 1500.0
   38482895  109.0    0.0 1411.0 1800.0 1240.0   74.0  301.0  300.0  300.0  300.0 1500.0
   38486897  109.0    0.0 1426.0 1807.0 1240.0   74.0  301.0  300.0  300.0  300.0 1500.0
   38490903  109.0    0.0 1426.0 1818.0 1240.0   74.0  301.0  300.0  300.0  300.0 1480.0
   38494910  109.0    0.0 1411.0 1794.0 1240.0   74.0  300.0  300.0  300.0  300.0 1500.0
   38498933  109.0    0.0 1459.0 1783.0 1270.0   77.0  301.0  300.0  300.0  300.0 1500.0
   38502938  109.0    0.0 1447.0 1789.0 1260.0   76.0  300.0  300.0  300.0  300.0 1500.0
   38506940  109.0    0.0 1444.0 1837.0 1240.0   74.0  300.0  300.0  300.0  300.0 1490.0
   38510953  109.0    0.0 1423.0 1783.0 1250.0   75.0  300.0  300.0  300.0  300.0 1500.0
   38514967  109.0    0.0 1389.0 1743.0 1250.0   75.0  301.0  300.0  300.0  300.0 1500.0
   38518971  109.0    0.0 1417.0 1766.0 1250.0   75.0  301.0  300.0  300.0  300.0 1500.0
   38522972  109.0    0.0 1411.0 1766.0 1250.0   75.0  301.0  300.0  300.0  300.0 1490.0
   38526986  109.0    0.0 1449.0 1761.0 1270.0   77.0  300.0  300.0  300.0  300.0 1500.0
   38531007  109.0    0.0 1416.0 1773.0 1250.0   75.0  301.0  300.0  300.0  300.0 1500.0
   38535030  109.0    0.0 1404.0 1768.0 1250.0   75.0  300.0  300.0  300.0  300.0 1500.0
   38539033  109.0    0.0 1399.0 1755.0 1250.0   75.0  300.0  300.0  300.0  300.0 1500.0
   38543044  109.0    0.0 1470.0 1800.0 1260.0   76.0  300.0  300.0  300.0  300.0 1490.0
   38547052  109.0    0.0 1411.0 1808.0 1230.0   73.0  300.0  300.0  300.0  300.0 1490.0
   38551075  109.0    0.0 1408.0 1785.0 1240.0   74.0  301.0  300.0  300.0  300.0 1500.0
   38555068  109.0    0.0 1438.0 1762.0 1260.0   76.0  301.0  300.0  300.0  300.0 1480.0
   38559073  109.0    0.0 1403.0 1788.0 1240.0   74.0  301.0  300.0  300.0  300.0 1500.0
   38563074  109.0    0.0 1459.0 1745.0 1280.0   78.0  301.0  300.0  300.0  300.0 1500.0
   38567082  109.0    0.0 1455.0 1765.0 1270.0   77.0  301.0  300.0  300.0  300.0 1500.0
   38571102  109.0    0.0 1419.0 1810.0 1240.0   74.0  301.0  300.0  300.0  300.0 1490.0
   38575098  109.0    0.0 1412.0 1783.0 1240.0   74.0  301.0  300.0  300.0  300.0 1500.0
   38579120  109.0    0.0 1445.0 1761.0 1270.0   77.0  301.0  300.0  300.0  300.0 1500.0
   38583140  109.0    0.0 1433.0 1758.0 1260.0   76.0  300.0  300.0  300.0  300.0 1500.0
   38587140  109.0    0.0 1422.0 1790.0 1250.0   75.0  301.0  300.0  300.0  300.0 1500.0
   38591146  109.0    0.0 1418.0 1765.0 1250.0   75.0  301.0  300.0  300.0  300.0 1500.0
   38595153  109.0    0.0 1399.0 1776.0 1240.0   74.0  301.0  300.0  300.0  300.0 1490.0
   38599164  109.0    0.0 1402.0 1766.0 1250.0   75.0  301.0  300.0  300.0  300.0 1500.0
   38603165  109.0    0.0 1438.0 1813.0 1250.0   75.0  300.0  300.0  300.0  300.0 1500.0
   38607161  109.0    0.0 1411.0 1742.0 1260.0   76.0  300.0  300.0  300.0  300.0 1510.0
   38611177  109.0    0.0 1409.0 1794.0 1240.0   74.0  301.0  300.0  300.0  300.0 1500.0
   38615182  109.0    0.0 1411.0 1753.0 1260.0   76.0  301.0  300.0  300.0  300.0 1500.0
   38619190  109.0    0.0 1452.0 1775.0 1270.0   77.0  300.0  300.0  300.0  300.0 1500.0
   38623196  109.0    0.0 1458.0 1787.0 1260.0   76.0  301.0  300.0  300.0  300.0 1500.0
   38627209  110.0    0.0 1394.0 1789.0 1230.0   73.0  300.0  300.0  300.0  300.0 1500.0
   38631211  109.0    0.0 1446.0 1733.0 1280.0   78.0  301.0  300.0  300.0  300.0 1500.0
   38635227  110.0    0.0 1439.0 1806.0 1250.0   75.0  301.0  300.0  300.0  300.0 1500.0
   38639229  109.0    0.0 1429.0 1756.0 1260.0   76.0  301.0  300.0  300.0  300.0 1500.0
   38643236  110.0    0.0 1426.0 1786.0 1250.0   75.0  299.0  300.0  300.0  300.0 1500.0
   38647240  110.0    0.0 1458.0 1789.0 1260.0   76.0  301.0  300.0  300.0  300.0 1500.0
   38651246  110.0    0.0 1443.0 1754.0 1270.0   77.0  301.0  300.0  300.0  300.0 1500.0
   38655250  110.0    0.0 1451.0 1812.0 1250.0   75.0  300.0  300.0  300.0  300.0 1500.0
   38659261  110.0    0.0 1415.0 1769.0 1250.0   75.0  301.0  300.0  300.0  300.0 1510.0
   38663270  110.0    0.0 1442.0 1786.0 1260.0   76.0  300.0  300.0  300.0  300.0 1500.0
   38667268  110.0    0.0 1411.0 1777.0 1250.0   75.0  300.0  300.0  300.0  300.0 1490.0
   38671284  110.0    0.0 1428.0 1747.0 1270.0   77.0  300.0  300.0  300.0  300.0 1500.0
   38675288  110.0    0.0 1429.0 1821.0 1240.0   74.0  300.0  300.0  300.0  300.0 1490.0
   38679304  110.0    0.0 1422.0 1762.0 1260.0   76.0  300.0  300.0  300.0  300.0 1500.0
   38683299  110.0    0.0 1461.0 1759.0 1280.0   78.0  301.0  300.0  300.0  300.0 1500.0
   38687305  110.0    0.0 1401.0 1778.0 1240.0   74.0  301.0  300.0  300.0  300.0 1490.0
   38691319  110.0    0.0 1416.0 1792.0 1240.0   74.0  301.0  300.0  300.0  300.0 1500.0
   38695321  110.0    0.0 1438.0 1791.0 1250.0   75.0  301.0  300.0  300.0  300.0 1500.0
   38699340  110.0    0.0 1435.0 1793.0 1250.0   75.0  300.0  300.0  300.0  300.0 1500.0
   38703340  110.0    0.0 1397.0 1773.0 1240.0   74.0  301.0  300.0  300.0  300.0 1480.0
   38707346  110.0    0.0 1427.0 1765.0 1260.0   76.0  301.0  300.0  300.0  300.0 1500.0
   38711352  110.0    0.0 1429.0 1770.0 1260.0   76.0  301.0  300.0  300.0  300.0 1500.0
   38715360  110.0    0.0 1392.0 1795.0 1230.0   73.0  301.0  300.0  300.0  300.0 1500.0
   38719376  110.0    0.0 1423.0 1794.0 1250.0   75.0  301.0  300.0  300.0  300.0 1500.0
   38723383  110.0    0.0 1434.0 1748.0 1270.0   77.0  301.0  300.0  300.0  300.0 1500.0
   38727393  110.0    0.0 1432.0 1759.0 1260.0   76.0  300.0  300.0  300.0  300.0 1500.0
   38731404  110.0    0.0 1414.0 1812.0 1230.0   73.0  300.0  300.0  300.0  300.0 1500.0
   38735414  110.0    0.0 1403.0 1830.0 1220.0   72.0  301.0  300.0  300.0  300.0 1500.0
   38739444  110.0    0.0 1428.0 1793.0 1250.0   75.0  300.0  300.0  300.0  300.0 1490.0
   38743431  110.0    0.0 1416.0 1739.0 1260.0   76.0  300.0  300.0  300.0  300.0 1490.0
   38747442  110.0    0.0 1443.0 1788.0 1260.0   76.0  301.0  300.0  300.0  300.0 1500.0
   38751450  110.0    0.0 1409.0 1770.0 1250.0   75.0  300.0  300.0  300.0  300.0 1500.0
   38755456  110.0    0.0 1398.0 1796.0 1230.0   73.0  301.0  300.0  300.0  300.0 1500.0
   38759469  110.0    0.0 1444.0 1809.0 1250.0   75.0  301.0  300.0  300.0  300.0 1500.0
   38763472  110.0    0.0 1447.0 1797.0 1260.0   76.0  301.0  300.0  300.0  300.0 1500.0
   38767474  110.0    0.0 1420.0 1791.0 1250.0   75.0  301.0  300.0  300.0  300.0 1490.0
   38771485  110.0    0.0 1435.0 1782.0 1260.0   76.0  300.0  300.0  300.0  300.0 1490.0
   38775492  110.0    0.0 1430.0 1810.0 1240.0   74.0  300.0  300.0  300.0  300.0 1500.0
   38779502  110.0    0.0 1469.0 1783.0 1270.0   77.0  300.0  300.0  300.0  300.0 1500.0
   38783510  110.0    0.0 1391.0 1779.0 1240.0   74.0  300.0  300.0  300.0  300.0 1500.0
   38787515  110.0    0.0 1384.0 1785.0 1230.0   73.0  300.0  300.0  300.0  300.0 1500.0
   38791526  110.0    0.0 1400.0 1782.0 1240.0   74.0  300.0  300.0  300.0  300.0 1500.0
   38795541  110.0    0.0 1421.0 1750.0 1260.0   76.0  300.0  300.0  300.0  300.0 1500.0
   38799548  110.0    0.0 1375.0 1812.0 1220.0   72.0  301.0  300.0  300.0  300.0 1500.0
   38803550  110.0    0.0 1393.0 1756.0 1250.0   75.0  300.0  301.0  300.0  300.0 1520.0
   38807561  110.0    0.0 1429.0 1763.0 1260.0   76.0  300.0  300.0  300.0  300.0 1500.0
   38811585  110.0    0.0 1453.0 1755.0 1270.0   77.0  300.0  300.0  300.0  300.0 1500.0
   38815605  110.0    0.0 1426.0 1796.0 1250.0   75.0  301.0  300.0  300.0  300.0 1500.0
