# 
~VERSION INFORMATION
     VERS.                              2.0:Версия формата LAS
     WRAP.                               NO:Режим одной строчки на временной отчет
~WELL INFORMATION
     STRT.ms                       35211431:Время первой записи в файле
     STOP.ms                       51799721:Время последней записи в файле
     STEP.ms                              0:Шаг времени, 0 - переменный шаг
     NULL.                          -999.25:Метка, нет значения
     DATE.                       27.07.2023:Дата каротажа
      DRV.                                 :Наименование драйвера прибора
     NAME.                             ГГКП:Название прибора
     SNUM.                         19399001:Серийный номер прибора
     FRMW.                         0.19.7.3:Версия прошивки на контроллере прибора
~CURVE INFORMATION
     TIME.ms                       {0,11:0}:Время, количество миллисекунд от начало суток
       MT.°C                               :Температура
      TFG.°                                :Гравитационный поворот
      RSD.имп./сек                         :Счёт, ближний зонд ГГКП
      RLD.имп./сек                         :Счёт, дальний зонд ГГКП
     RHOB.кг/м3                            :Плотность
   HCRHOB.g/cm3                            :Плотность, у.е.
     ADCS.mV                               :Измеренное напряжение порога компараторапо ближнему зонду
     ADCL.mV                               :Измеренное напряжение порога компараторапо дальнему зонду
    THLDS.mV                               :Выставленный порог компараторапо ближнему зонду
    THLDL.mV                               :Выставленный порог компараторапо дальнему зонду
    GRUHV.В                                :Напряжение на высоковольтнике Гамма
~OTHER INFORMATION


~A     TIME     MT    TFG    RSD    RLD   RHOB HCRHOB   ADCS   ADCL  THLDS  THLDL  GRUHV
# ...
   47120462  105.0    0.0 1441.0 1821.0 1240.0   74.0  301.0  300.0  300.0  300.0 1500.0
   47124468  105.0    0.0 1398.0 1810.0 1230.0   73.0  301.0  300.0  300.0  300.0 1490.0
   47128473  105.0    0.0 1413.0 1813.0 1230.0   73.0  300.0  300.0  300.0  300.0 1490.0
   47132476  105.0    0.0 1423.0 1800.0 1240.0   74.0  301.0  300.0  300.0  300.0 1500.0
   47136493  105.0    0.0 1427.0 1814.0 1240.0   74.0  301.0  300.0  300.0  300.0 1500.0
   47140486  104.0    0.0 1421.0 1825.0 1230.0   73.0  300.0  300.0  300.0  300.0 1500.0
   47144507  104.0    0.0 1441.0 1845.0 1240.0   74.0  301.0  300.0  300.0  300.0 1490.0
   47148524  104.0    0.0 1447.0 1803.0 1250.0   75.0  300.0  300.0  300.0  300.0 1510.0
   47152527  104.0    0.0 1399.0 1805.0 1230.0   73.0  301.0  300.0  300.0  300.0 1500.0
   47156536  104.0    0.0 1421.0 1815.0 1240.0   74.0  301.0  300.0  300.0  300.0 1500.0
   47160554  104.0    0.0 1437.0 1823.0 1240.0   74.0  301.0  300.0  300.0  300.0 1520.0
   47164572  104.0    0.0 1471.0 1849.0 1250.0   75.0  301.0  300.0  300.0  300.0 1500.0
   47168570  104.0    0.0 1416.0 1804.0 1240.0   74.0  301.0  300.0  300.0  300.0 1500.0
   47172573  104.0    0.0 1430.0 1798.0 1250.0   75.0  301.0  300.0  300.0  300.0 1500.0
   47176582  104.0    0.0 1404.0 1824.0 1230.0   73.0  300.0  300.0  300.0  300.0 1500.0
   47180600  104.0    0.0 1421.0 1811.0 1240.0   74.0  301.0  300.0  300.0  300.0 1500.0
   47184615  104.0    0.0 1454.0 1802.0 1260.0   76.0  301.0  300.0  300.0  300.0 1500.0
   47188614  104.0    0.0 1429.0 1862.0 1220.0   72.0  301.0  300.0  300.0  300.0 1500.0
   47192653  104.0    0.0 1416.0 1831.0 1230.0   73.0  301.0  301.0  300.0  300.0 1500.0
   47196644  104.0    0.0 1428.0 1834.0 1230.0   73.0  301.0  300.0  300.0  300.0 1500.0
   47200643  104.0    0.0 1435.0 1804.0 1250.0   75.0  300.0  300.0  300.0  300.0 1500.0
   47204651  104.0    0.0 1453.0 1806.0 1250.0   75.0  300.0  300.0  300.0  300.0 1500.0
   47208669  104.0    0.0 1405.0 1812.0 1230.0   73.0  301.0  300.0  300.0  300.0 1490.0
   47212671  104.0    0.0 1444.0 1803.0 1250.0   75.0  300.0  300.0  300.0  300.0 1500.0
   47216674  104.0    0.0 1439.0 1796.0 1250.0   75.0  301.0  300.0  300.0  300.0 1500.0
   47220688  104.0    0.0 1408.0 1799.0 1240.0   74.0  300.0  300.0  300.0  300.0 1500.0
   47224686  104.0    0.0 1398.0 1857.0 1210.0   71.0  301.0  300.0  300.0  300.0 1500.0
   47228698  104.0    0.0 1422.0 1782.0 1250.0   75.0  301.0  300.0  300.0  300.0 1500.0
   47232714  104.0    0.0 1451.0 1793.0 1260.0   76.0  301.0  300.0  300.0  300.0 1500.0
   47236712  104.0    0.0 1475.0 1842.0 1250.0   75.0  301.0  300.0  300.0  300.0 1500.0
   47240733  104.0    0.0 1435.0 1809.0 1250.0   75.0  301.0  300.0  300.0  300.0 1500.0
   47244740  104.0    0.0 1395.0 1805.0 1230.0   73.0  300.0  300.0  300.0  300.0 1500.0
   47248754  104.0    0.0 1387.0 1785.0 1230.0   73.0  300.0  300.0  300.0  300.0 1500.0
   47252766  103.0    0.0 1475.0 1798.0 1270.0   77.0  301.0  300.0  300.0  300.0 1500.0
   47256777  104.0    0.0 1461.0 1781.0 1270.0   77.0  301.0  300.0  300.0  300.0 1500.0
   47260770  104.0    0.0 1431.0 1795.0 1250.0   75.0  301.0  300.0  300.0  300.0 1500.0
   47264776  103.0    0.0 1470.0 1790.0 1270.0   77.0  301.0  300.0  300.0  300.0 1500.0
   47268792  104.0    0.0 1444.0 1774.0 1260.0   76.0  301.0  300.0  300.0  300.0 1500.0
   47272800  103.0    0.0 1448.0 1828.0 1240.0   74.0  301.0  300.0  300.0  300.0 1500.0
   47276809  103.0    0.0 1386.0 1795.0 1230.0   73.0  300.0  300.0  300.0  300.0 1500.0
   47280819  103.0    0.0 1388.0 1801.0 1230.0   73.0  301.0  300.0  300.0  300.0 1490.0
   47284831  103.0    0.0 1431.0 1806.0 1250.0   75.0  301.0  300.0  300.0  300.0 1500.0
   47288834  103.0    0.0 1434.0 1798.0 1250.0   75.0  300.0  300.0  300.0  300.0 1500.0
   47292841  103.0    0.0 1431.0 1778.0 1260.0   76.0  301.0  300.0  300.0  300.0 1500.0
   47296860  103.0    0.0 1402.0 1818.0 1230.0   73.0  301.0  300.0  300.0  300.0 1500.0
   47300866  103.0    0.0 1440.0 1822.0 1240.0   74.0  301.0  300.0  300.0  300.0 1490.0
   47304871  103.0    0.0 1423.0 1828.0 1230.0   73.0  301.0  300.0  300.0  300.0 1490.0
   47308877  103.0    0.0 1436.0 1805.0 1250.0   75.0  300.0  300.0  300.0  300.0 1500.0
   47312890  103.0    0.0 1428.0 1778.0 1250.0   75.0  301.0  300.0  300.0  300.0 1480.0
   47316898  103.0    0.0 1421.0 1786.0 1250.0   75.0  300.0  300.0  300.0  300.0 1500.0
   47320905  103.0    0.0 1407.0 1773.0 1250.0   75.0  301.0  300.0  300.0  300.0 1500.0
   47324907  103.0    0.0 1421.0 1788.0 1250.0   75.0  300.0  300.0  300.0  300.0 1510.0
   47328910  103.0    0.0 1424.0 1820.0 1240.0   74.0  301.0  301.0  300.0  300.0 1500.0
   47332933  103.0    0.0 1446.0 1811.0 1250.0   75.0  300.0  300.0  300.0  300.0 1490.0
   47336933  103.0    0.0 1425.0 1790.0 1250.0   75.0  301.0  300.0  300.0  300.0 1500.0
   47340938  103.0    0.0 1402.0 1818.0 1230.0   73.0  301.0  300.0  300.0  300.0 1500.0
   47344946  103.0    0.0 1419.0 1823.0 1230.0   73.0  300.0  300.0  300.0  300.0 1500.0
   47348946  103.0    0.0 1449.0 1806.0 1250.0   75.0  301.0  300.0  300.0  300.0 1500.0
   47352961  103.0    0.0 1443.0 1833.0 1240.0   74.0  300.0  300.0  300.0  300.0 1490.0
   47356977  103.0    0.0 1428.0 1810.0 1240.0   74.0  301.0  300.0  300.0  300.0 1500.0
   47360983  103.0    0.0 1450.0 1833.0 1240.0   74.0  300.0  300.0  300.0  300.0 1500.0
   47364991  103.0    0.0 1430.0 1853.0 1230.0   73.0  301.0  300.0  300.0  300.0 1500.0
   47368993  103.0    0.0 1443.0 1830.0 1240.0   74.0  301.0  300.0  300.0  300.0 1500.0
   47373006  103.0    0.0 1417.0 1826.0 1230.0   73.0  300.0  300.0  300.0  300.0 1500.0
   47377010  103.0    0.0 1426.0 1830.0 1230.0   73.0  301.0  300.0  300.0  300.0 1500.0
   47381018  103.0    0.0 1385.0 1820.0 1220.0   72.0  301.0  300.0  300.0  300.0 1500.0
   47385016  103.0    0.0 1428.0 1802.0 1240.0   74.0  300.0  300.0  300.0  300.0 1490.0
   47389020  103.0    0.0 1446.0 1843.0 1240.0   74.0  301.0  300.0  300.0  300.0 1490.0
   47393042  102.0    0.0 1454.0 1859.0 1240.0   74.0  300.0  300.0  300.0  300.0 1500.0
   47397039  102.0    0.0 1416.0 1801.0 1240.0   74.0  301.0  300.0  300.0  300.0 1500.0
   47401046  102.0    0.0 1439.0 1773.0 1260.0   76.0  301.0  300.0  300.0  300.0 1500.0
   47405068  102.0    0.0 1454.0 1827.0 1250.0   75.0  301.0  300.0  300.0  300.0 1500.0
   47409075  102.0    0.0 1423.0 1827.0 1230.0   73.0  301.0  300.0  300.0  300.0 1500.0
   47413084  102.0    0.0 1421.0 1873.0 1220.0   72.0  301.0  300.0  300.0  300.0 1500.0
   47417092  102.0    0.0 1399.0 1830.0 1220.0   72.0  301.0  300.0  300.0  300.0 1490.0
   47421112  102.0    0.0 1444.0 1793.0 1260.0   76.0  301.0  300.0  300.0  300.0 1500.0
   47425112  102.0    0.0 1429.0 1806.0 1240.0   74.0  301.0  300.0  300.0  300.0 1490.0
   47429125  102.0    0.0 1435.0 1798.0 1250.0   75.0  301.0  300.0  300.0  300.0 1500.0
   47433137  102.0    0.0 1423.0 1807.0 1240.0   74.0  301.0  300.0  300.0  300.0 1500.0
   47437153  102.0    0.0 1410.0 1829.0 1230.0   73.0  301.0  300.0  300.0  300.0 1500.0
   47441157  102.0    0.0 1413.0 1818.0 1230.0   73.0  301.0  300.0  300.0  300.0 1500.0
   47445176  102.0    0.0 1430.0 1827.0 1240.0   74.0  301.0  300.0  300.0  300.0 1500.0
   47449201  102.0    0.0 1431.0 1805.0 1250.0   75.0  301.0  300.0  300.0  300.0 1500.0
   47453189  102.0    0.0 1442.0 1788.0 1260.0   76.0  301.0  300.0  300.0  300.0 1500.0
   47457192  102.0    0.0 1429.0 1821.0 1240.0   74.0  301.0  300.0  300.0  300.0 1490.0
   47461198  102.0    0.0 1459.0 1816.0 1250.0   75.0  301.0  300.0  300.0  300.0 1510.0
   47465205  102.0    0.0 1436.0 1825.0 1240.0   74.0  300.0  300.0  300.0  300.0 1500.0
   47469219  102.0    0.0 1469.0 1828.0 1250.0   75.0  301.0  300.0  300.0  300.0 1490.0
   47473228  102.0    0.0 1451.0 1790.0 1260.0   76.0  301.0  300.0  300.0  300.0 1500.0
   47477225  102.0    0.0 1420.0 1804.0 1240.0   74.0  301.0  300.0  300.0  300.0 1500.0
