# 
~VERSION INFORMATION
     VERS.                              2.0:Версия формата LAS
     WRAP.                               NO:Режим одной строчки на временной отчет
~WELL INFORMATION
     STRT.ms                       35211431:Время первой записи в файле
     STOP.ms                       51799721:Время последней записи в файле
     STEP.ms                              0:Шаг времени, 0 - переменный шаг
     NULL.                          -999.25:Метка, нет значения
     DATE.                       27.07.2023:Дата каротажа
      DRV.                                 :Наименование драйвера прибора
     NAME.                             ГГКП:Название прибора
     SNUM.                         19399001:Серийный номер прибора
     FRMW.                         0.19.7.3:Версия прошивки на контроллере прибора
~CURVE INFORMATION
     TIME.ms                       {0,11:0}:Время, количество миллисекунд от начало суток
       MT.°C                               :Температура
      TFG.°                                :Гравитационный поворот
      RSD.имп./сек                         :Счёт, ближний зонд ГГКП
      RLD.имп./сек                         :Счёт, дальний зонд ГГКП
     RHOB.кг/м3                            :Плотность
   HCRHOB.g/cm3                            :Плотность, у.е.
     ADCS.mV                               :Измеренное напряжение порога компараторапо ближнему зонду
     ADCL.mV                               :Измеренное напряжение порога компараторапо дальнему зонду
    THLDS.mV                               :Выставленный порог компараторапо ближнему зонду
    THLDL.mV                               :Выставленный порог компараторапо дальнему зонду
    GRUHV.В                                :Напряжение на высоковольтнике Гамма
~OTHER INFORMATION


~A     TIME     MT    TFG    RSD    RLD   RHOB HCRHOB   ADCS   ADCL  THLDS  THLDL  GRUHV
   35211431  103.0    0.0 1418.0 1784.0 1250.0   75.0  300.0  300.0  300.0  300.0 1500.0
   35215477  103.0    0.0 1420.0 1795.0 1240.0   74.0  300.0  300.0  300.0  300.0 1500.0
   35219478  103.0    0.0 1425.0 1807.0 1240.0   74.0  300.0  300.0  300.0  300.0 1500.0
   35223475  103.0    0.0 1429.0 1777.0 1250.0   75.0  301.0  300.0  300.0  300.0 1500.0
   35227471  103.0    0.0 1405.0 1843.0 1220.0   72.0  300.0  300.0  300.0  300.0 1500.0
   35231506  103.0    0.0 1411.0 1793.0 1240.0   74.0  301.0  300.0  300.0  300.0 1490.0
   35235479  103.0    0.0 1414.0 1769.0 1250.0   75.0  300.0  300.0  300.0  300.0 1490.0
   35239534  103.0    0.0 1387.0 1795.0 1230.0   73.0  301.0  300.0  300.0  300.0 1510.0
   35243516  103.0    0.0 1412.0 1827.0 1230.0   73.0  301.0  300.0  300.0  300.0 1500.0
   35247542  103.0    0.0 1434.0 1811.0 1240.0   74.0  300.0  300.0  300.0  300.0 1500.0
   35251557  103.0    0.0 1403.0 1840.0 1220.0   72.0  301.0  300.0  300.0  300.0 1490.0
   35255564  103.0    0.0 1446.0 1821.0 1250.0   75.0  300.0  300.0  300.0  300.0 1500.0
   35259567  103.0    0.0 1413.0 1809.0 1240.0   74.0  300.0  300.0  300.0  300.0 1490.0
   35263574  103.0    0.0 1385.0 1753.0 1240.0   74.0  301.0  300.0  300.0  300.0 1500.0
   35267582  103.0    0.0 1447.0 1837.0 1240.0   74.0  300.0  300.0  300.0  300.0 1500.0
   35271591  103.0    0.0 1429.0 1799.0 1250.0   75.0  300.0  300.0  300.0  300.0 1500.0
   35275597  103.0    0.0 1402.0 1781.0 1240.0   74.0  301.0  300.0  300.0  300.0 1500.0
   35279604  103.0    0.0 1394.0 1797.0 1230.0   73.0  301.0  300.0  300.0  300.0 1510.0
   35283603  103.0    0.0 1412.0 1811.0 1230.0   73.0  300.0  300.0  300.0  300.0 1500.0
   35287612  103.0    0.0 1412.0 1819.0 1230.0   73.0  301.0  300.0  300.0  300.0 1500.0
   35291622  103.0    0.0 1386.0 1807.0 1220.0   72.0  300.0  300.0  300.0  300.0 1500.0
   35295646  103.0    0.0 1416.0 1774.0 1250.0   75.0  300.0  300.0  300.0  300.0 1520.0
   35299653  103.0    0.0 1445.0 1837.0 1240.0   74.0  301.0  300.0  300.0  300.0 1500.0
   35303661  103.0    0.0 1427.0 1779.0 1250.0   75.0  300.0  300.0  300.0  300.0 1510.0
   35307685  103.0    0.0 1406.0 1822.0 1230.0   73.0  300.0  300.0  300.0  300.0 1500.0
   35311693  103.0    0.0 1413.0 1838.0 1230.0   73.0  301.0  300.0  300.0  300.0 1490.0
   35315694  103.0    0.0 1423.0 1824.0 1240.0   74.0  301.0  300.0  300.0  300.0 1500.0
   35319701  103.0    0.0 1394.0 1766.0 1240.0   74.0  301.0  300.0  300.0  300.0 1500.0
   35323708  103.0    0.0 1412.0 1788.0 1240.0   74.0  301.0  300.0  300.0  300.0 1500.0
   35327716  103.0    0.0 1449.0 1823.0 1250.0   75.0  301.0  300.0  300.0  300.0 1500.0
   35331726  103.0    0.0 1422.0 1816.0 1240.0   74.0  301.0  300.0  300.0  300.0 1490.0
   35335764  103.0    0.0 1415.0 1778.0 1250.0   75.0  301.0  300.0  300.0  300.0 1490.0
   35339755  103.0    0.0 1418.0 1768.0 1250.0   75.0  301.0  300.0  300.0  300.0 1500.0
   35343794  103.0    0.0 1458.0 1803.0 1260.0   76.0  301.0  300.0  300.0  300.0 1500.0
   35347802  103.0    0.0 1437.0 1796.0 1250.0   75.0  300.0  300.0  300.0  300.0 1490.0
   35351804  103.0    0.0 1418.0 1809.0 1240.0   74.0  300.0  300.0  300.0  300.0 1500.0
   35355811  103.0    0.0 1421.0 1810.0 1240.0   74.0  301.0  300.0  300.0  300.0 1490.0
   35359811  103.0    0.0 1440.0 1782.0 1260.0   76.0  301.0  300.0  300.0  300.0 1490.0
   35363826  103.0    0.0 1431.0 1817.0 1240.0   74.0  301.0  301.0  300.0  300.0 1500.0
   35367835  103.0    0.0 1414.0 1785.0 1250.0   75.0  301.0  300.0  300.0  300.0 1500.0
   35371835  103.0    0.0 1394.0 1787.0 1230.0   73.0  301.0  300.0  300.0  300.0 1490.0
   35375849  103.0    0.0 1433.0 1783.0 1250.0   75.0  300.0  300.0  300.0  300.0 1500.0
   35379855  103.0    0.0 1449.0 1764.0 1270.0   77.0  300.0  300.0  300.0  300.0 1500.0
   35383864  103.0    0.0 1427.0 1795.0 1250.0   75.0  300.0  300.0  300.0  300.0 1500.0
   35387872  103.0    0.0 1427.0 1818.0 1240.0   74.0  301.0  300.0  300.0  300.0 1490.0
   35391882  103.0    0.0 1408.0 1850.0 1220.0   72.0  301.0  300.0  300.0  300.0 1490.0
   35395904  103.0    0.0 1410.0 1807.0 1230.0   73.0  301.0  300.0  300.0  300.0 1500.0
   35399888  103.0    0.0 1406.0 1822.0 1230.0   73.0  301.0  300.0  300.0  300.0 1500.0
   35403896  103.0    0.0 1422.0 1780.0 1250.0   75.0  301.0  300.0  300.0  300.0 1500.0
   35407903  103.0    0.0 1410.0 1801.0 1240.0   74.0  300.0  300.0  300.0  300.0 1500.0
   35411912  103.0    0.0 1408.0 1771.0 1250.0   75.0  301.0  300.0  300.0  300.0 1490.0
   35415919  103.0    0.0 1421.0 1828.0 1230.0   73.0  301.0  300.0  300.0  300.0 1500.0
   35419921  103.0    0.0 1425.0 1797.0 1250.0   75.0  301.0  300.0  300.0  300.0 1490.0
   35423925  103.0    0.0 1415.0 1788.0 1240.0   74.0  301.0  300.0  300.0  300.0 1500.0
   35427938  103.0    0.0 1400.0 1813.0 1230.0   73.0  301.0  300.0  300.0  300.0 1490.0
   35431945  103.0    0.0 1433.0 1804.0 1250.0   75.0  300.0  300.0  300.0  300.0 1490.0
   35435954  103.0    0.0 1409.0 1806.0 1240.0   74.0  300.0  300.0  300.0  300.0 1500.0
   35439968  103.0    0.0 1438.0 1763.0 1260.0   76.0  301.0  300.0  300.0  300.0 1500.0
   35443980  103.0    0.0 1398.0 1812.0 1230.0   73.0  301.0  300.0  300.0  300.0 1500.0
   35447988  103.0    0.0 1421.0 1828.0 1230.0   73.0  301.0  300.0  300.0  300.0 1500.0
   35451988  103.0    0.0 1414.0 1825.0 1230.0   73.0  301.0  300.0  300.0  300.0 1500.0
   35455996  103.0    0.0 1409.0 1766.0 1250.0   75.0  301.0  300.0  300.0  300.0 1500.0
   35460004  103.0    0.0 1438.0 1760.0 1270.0   77.0  301.0  300.0  300.0  300.0 1500.0
   35464009  103.0    0.0 1408.0 1806.0 1230.0   73.0  301.0  300.0  300.0  300.0 1500.0
   35468019  103.0    0.0 1440.0 1802.0 1250.0   75.0  301.0  300.0  300.0  300.0 1500.0
   35472028  103.0    0.0 1423.0 1790.0 1250.0   75.0  301.0  300.0  300.0  300.0 1500.0
   35476029  103.0    0.0 1448.0 1847.0 1240.0   74.0  301.0  300.0  300.0  300.0 1500.0
   35480036  103.0    0.0 1424.0 1804.0 1240.0   74.0  300.0  300.0  300.0  300.0 1500.0
   35484044  103.0    0.0 1421.0 1796.0 1240.0   74.0  301.0  300.0  300.0  300.0 1500.0
   35488052  103.0    0.0 1402.0 1797.0 1230.0   73.0  300.0  300.0  300.0  300.0 1500.0
   35492057  103.0    0.0 1430.0 1789.0 1250.0   75.0  301.0  300.0  300.0  300.0 1500.0
   35496079  103.0    0.0 1436.0 1786.0 1250.0   75.0  300.0  300.0  300.0  300.0 1500.0
   35500087  103.0    0.0 1431.0 1778.0 1260.0   76.0  301.0  300.0  300.0  300.0 1500.0
   35504088  103.0    0.0 1451.0 1807.0 1250.0   75.0  301.0  300.0  300.0  300.0 1500.0
   35508095  103.0    0.0 1402.0 1800.0 1230.0   73.0  301.0  300.0  300.0  300.0 1500.0
   35512103  103.0    0.0 1438.0 1819.0 1240.0   74.0  300.0  300.0  300.0  300.0 1490.0
   35516108  103.0    0.0 1428.0 1790.0 1250.0   75.0  300.0  300.0  300.0  300.0 1500.0
   35520115  102.0    0.0 1418.0 1775.0 1250.0   75.0  301.0  300.0  300.0  300.0 1500.0
   35524123  103.0    0.0 1408.0 1835.0 1220.0   72.0  301.0  300.0  300.0  300.0 1500.0
   35528124  103.0    0.0 1421.0 1818.0 1240.0   74.0  301.0  300.0  300.0  300.0 1490.0
   35532131  103.0    0.0 1437.0 1811.0 1250.0   75.0  301.0  300.0  300.0  300.0 1500.0
   35536134  103.0    0.0 1419.0 1827.0 1230.0   73.0  301.0  300.0  300.0  300.0 1500.0
   35540156  103.0    0.0 1432.0 1768.0 1260.0   76.0  301.0  300.0  300.0  300.0 1500.0
   35544164  103.0    0.0 1384.0 1820.0 1220.0   72.0  301.0  300.0  300.0  300.0 1510.0
   35548162  103.0    0.0 1450.0 1809.0 1250.0   75.0  300.0  300.0  300.0  300.0 1500.0
   35552179  103.0    0.0 1432.0 1823.0 1240.0   74.0  301.0  300.0  300.0  300.0 1500.0
   35556186  102.0    0.0 1404.0 1785.0 1240.0   74.0  300.0  300.0  300.0  300.0 1490.0
   35560194  103.0    0.0 1389.0 1789.0 1230.0   73.0  301.0  300.0  300.0  300.0 1500.0
   35564200  103.0    0.0 1369.0 1785.0 1220.0   72.0  301.0  300.0  300.0  300.0 1500.0
   35568210  103.0    0.0 1424.0 1782.0 1250.0   75.0  300.0  300.0  300.0  300.0 1500.0
