# 
~VERSION INFORMATION
     VERS.                              2.0:Версия формата LAS
     WRAP.                               NO:Режим одной строчки на временной отчет
~WELL INFORMATION
     STRT.ms                       35211431:Время первой записи в файле
     STOP.ms                       51799721:Время последней записи в файле
     STEP.ms                              0:Шаг времени, 0 - переменный шаг
     NULL.                          -999.25:Метка, нет значения
     DATE.                       27.07.2023:Дата каротажа
      DRV.                                 :Наименование драйвера прибора
     NAME.                             ГГКП:Название прибора
     SNUM.                         19399001:Серийный номер прибора
     FRMW.                         0.19.7.3:Версия прошивки на контроллере прибора
~CURVE INFORMATION
     TIME.ms                       {0,11:0}:Время, количество миллисекунд от начало суток
       MT.°C                               :Температура
      TFG.°                                :Гравитационный поворот
      RSD.имп./сек                         :Счёт, ближний зонд ГГКП
      RLD.имп./сек                         :Счёт, дальний зонд ГГКП
     RHOB.кг/м3                            :Плотность
   HCRHOB.g/cm3                            :Плотность, у.е.
     ADCS.mV                               :Измеренное напряжение порога компараторапо ближнему зонду
     ADCL.mV                               :Измеренное напряжение порога компараторапо дальнему зонду
    THLDS.mV                               :Выставленный порог компараторапо ближнему зонду
    THLDL.mV                               :Выставленный порог компараторапо дальнему зонду
    GRUHV.В                                :Напряжение на высоковольтнике Гамма
~OTHER INFORMATION


~A     TIME     MT    TFG    RSD    RLD   RHOB HCRHOB   ADCS   ADCL  THLDS  THLDL  GRUHV
# ...
   48202968   96.0    0.0 1428.0 1849.0 1230.0   73.0  301.0  300.0  300.0  300.0 1500.0
   48206962   96.0    0.0 1443.0 1797.0 1250.0   75.0  301.0  300.0  300.0  300.0 1500.0
   48210976   96.0    0.0 1455.0 1809.0 1250.0   75.0  301.0  300.0  300.0  300.0 1500.0
   48214983   96.0    0.0 1441.0 1819.0 1250.0   75.0  301.0  300.0  300.0  300.0 1500.0
   48218991   96.0    0.0 1451.0 1834.0 1240.0   74.0  301.0  301.0  300.0  300.0 1500.0
   48222993   96.0    0.0 1436.0 1832.0 1240.0   74.0  301.0  300.0  300.0  300.0 1500.0
   48226994   96.0    0.0 1398.0 1819.0 1220.0   72.0  301.0  300.0  300.0  300.0 1500.0
   48231011   96.0    0.0 1436.0 1805.0 1250.0   75.0  301.0  300.0  300.0  300.0 1500.0
   48235026   96.0    0.0 1469.0 1800.0 1260.0   76.0  300.0  300.0  300.0  300.0 1500.0
   48239021   95.0    0.0 1401.0 1834.0 1220.0   72.0  301.0  300.0  300.0  300.0 1500.0
   48243032   95.0    0.0 1441.0 1816.0 1250.0   75.0  301.0  300.0  300.0  300.0 1500.0
   48247052   96.0    0.0 1425.0 1789.0 1250.0   75.0  301.0  300.0  300.0  300.0 1490.0
   48251053   95.0    0.0 1413.0 1801.0 1240.0   74.0  301.0  300.0  300.0  300.0 1500.0
   48255058   96.0    0.0 1380.0 1838.0 1210.0   71.0  301.0  300.0  300.0  300.0 1500.0
   48259067   95.0    0.0 1440.0 1852.0 1230.0   73.0  301.0  300.0  300.0  300.0 1500.0
   48263082   95.0    0.0 1430.0 1830.0 1240.0   74.0  301.0  300.0  300.0  300.0 1500.0
   48267091   95.0    0.0 1427.0 1812.0 1240.0   74.0  301.0  300.0  300.0  300.0 1500.0
   48271095   95.0    0.0 1432.0 1831.0 1240.0   74.0  301.0  300.0  300.0  300.0 1490.0
   48275111   95.0    0.0 1441.0 1833.0 1240.0   74.0  301.0  300.0  300.0  300.0 1500.0
   48279124   95.0    0.0 1413.0 1817.0 1230.0   73.0  301.0  300.0  300.0  300.0 1500.0
   48283126   95.0    0.0 1446.0 1841.0 1240.0   74.0  301.0  300.0  300.0  300.0 1500.0
   48287142   95.0    0.0 1420.0 1854.0 1220.0   72.0  301.0  300.0  300.0  300.0 1500.0
   48291156   95.0    0.0 1461.0 1823.0 1250.0   75.0  301.0  300.0  300.0  300.0 1500.0
   48295166   95.0    0.0 1425.0 1816.0 1240.0   74.0  301.0  300.0  300.0  300.0 1490.0
   48299178   95.0    0.0 1427.0 1835.0 1230.0   73.0  300.0  300.0  300.0  300.0 1490.0
   48303182   95.0    0.0 1433.0 1835.0 1240.0   74.0  301.0  300.0  300.0  300.0 1500.0
   48307187   95.0    0.0 1435.0 1834.0 1240.0   74.0  300.0  300.0  300.0  300.0 1500.0
   48311204   95.0    0.0 1429.0 1819.0 1240.0   74.0  300.0  300.0  300.0  300.0 1500.0
   48315215   95.0    0.0 1427.0 1793.0 1250.0   75.0  301.0  300.0  300.0  300.0 1500.0
   48319223   95.0    0.0 1422.0 1816.0 1240.0   74.0  301.0  300.0  300.0  300.0 1500.0
   48323238   95.0    0.0 1408.0 1801.0 1240.0   74.0  301.0  300.0  300.0  300.0 1500.0
   48327243   95.0    0.0 1455.0 1803.0 1260.0   76.0  301.0  300.0  300.0  300.0 1500.0
   48331246   95.0    0.0 1429.0 1831.0 1240.0   74.0  300.0  300.0  300.0  300.0 1500.0
   48335249   95.0    0.0 1439.0 1826.0 1240.0   74.0  301.0  300.0  300.0  300.0 1500.0
   48339256   95.0    0.0 1484.0 1814.0 1270.0   77.0  301.0  300.0  300.0  300.0 1490.0
   48343257   95.0    0.0 1452.0 1791.0 1260.0   76.0  301.0  299.0  300.0  300.0 1500.0
   48347290   95.0    0.0 1451.0 1808.0 1250.0   75.0  300.0  300.0  300.0  300.0 1500.0
   48351294   95.0    0.0 1428.0 1832.0 1230.0   73.0  301.0  300.0  300.0  300.0 1500.0
   48355310   95.0    0.0 1444.0 1807.0 1250.0   75.0  301.0  300.0  300.0  300.0 1500.0
   48359313   94.0    0.0 1450.0 1828.0 1250.0   75.0  301.0  300.0  300.0  300.0 1500.0
   48363322   94.0    0.0 1457.0 1815.0 1250.0   75.0  301.0  300.0  300.0  300.0 1500.0
   48367324   95.0    0.0 1440.0 1832.0 1240.0   74.0  301.0  300.0  300.0  300.0 1490.0
   48371326   94.0    0.0 1444.0 1785.0 1260.0   76.0  301.0  300.0  300.0  300.0 1500.0
   48375357   95.0    0.0 1429.0 1804.0 1250.0   75.0  301.0  300.0  300.0  300.0 1500.0
   48379379   94.0    0.0 1438.0 1822.0 1240.0   74.0  301.0  300.0  300.0  300.0 1500.0
   48383396   94.0    0.0 1443.0 1819.0 1250.0   75.0  301.0  300.0  300.0  300.0 1500.0
   48387410   94.0    0.0 1415.0 1794.0 1240.0   74.0  301.0  300.0  300.0  300.0 1500.0
   48391424   94.0    0.0 1438.0 1842.0 1230.0   73.0  300.0  300.0  300.0  300.0 1500.0
   48395427   94.0    0.0 1427.0 1827.0 1240.0   74.0  300.0  300.0  300.0  300.0 1500.0
   48399439   94.0    0.0 1454.0 1832.0 1250.0   75.0  301.0  300.0  300.0  300.0 1520.0
   48403446   94.0    0.0 1448.0 1805.0 1250.0   75.0  300.0  300.0  300.0  300.0 1500.0
   48407449   94.0    0.0 1438.0 1821.0 1240.0   74.0  301.0  300.0  300.0  300.0 1500.0
   48411452   94.0    0.0 1465.0 1825.0 1250.0   75.0  301.0  300.0  300.0  300.0 1500.0
   48415460   94.0    0.0 1443.0 1815.0 1250.0   75.0  301.0  300.0  300.0  300.0 1500.0
   48419476   94.0    0.0 1412.0 1819.0 1230.0   73.0  301.0  300.0  300.0  300.0 1500.0
   48423479   94.0    0.0 1435.0 1798.0 1250.0   75.0  301.0  300.0  300.0  300.0 1500.0
   48427500   94.0    0.0 1462.0 1848.0 1240.0   74.0  301.0  300.0  300.0  300.0 1500.0
   48431505   94.0    0.0 1425.0 1858.0 1220.0   72.0  301.0  300.0  300.0  300.0 1500.0
   48435511   94.0    0.0 1477.0 1797.0 1270.0   77.0  301.0  300.0  300.0  300.0 1500.0
   48439524   94.0    0.0 1411.0 1841.0 1220.0   72.0  301.0  300.0  300.0  300.0 1500.0
   48443533   94.0    0.0 1387.0 1790.0 1230.0   73.0  301.0  300.0  300.0  300.0 1500.0
   48447544   94.0    0.0 1435.0 1795.0 1250.0   75.0  301.0  300.0  300.0  300.0 1500.0
   48451547   94.0    0.0 1449.0 1806.0 1250.0   75.0  301.0  300.0  300.0  300.0 1500.0
   48455576   94.0    0.0 1407.0 1850.0 1220.0   72.0  301.0  300.0  300.0  300.0 1500.0
   48459584   94.0    0.0 1383.0 1815.0 1220.0   72.0  301.0  300.0  300.0  300.0 1500.0
   48463601   94.0    0.0 1447.0 1865.0 1230.0   73.0  301.0  300.0  300.0  300.0 1500.0
   48467603   94.0    0.0 1465.0 1827.0 1250.0   75.0  301.0  300.0  300.0  300.0 1500.0
   48471615   94.0    0.0 1409.0 1830.0 1230.0   73.0  301.0  300.0  300.0  300.0 1500.0
   48475629   94.0    0.0 1476.0 1821.0 1260.0   76.0  301.0  300.0  300.0  300.0 1490.0
   48479646   94.0    0.0 1399.0 1832.0 1220.0   72.0  301.0  300.0  300.0  300.0 1500.0
   48483640   94.0    0.0 1425.0 1842.0 1230.0   73.0  301.0  300.0  300.0  300.0 1500.0
   48487655   93.0    0.0 1437.0 1819.0 1240.0   74.0  301.0  300.0  300.0  300.0 1500.0
   48491674   93.0    0.0 1444.0 1870.0 1230.0   73.0  301.0  300.0  300.0  300.0 1500.0
   48495677   93.0    0.0 1436.0 1860.0 1230.0   73.0  301.0  300.0  300.0  300.0 1500.0
   48499695   93.0    0.0 1423.0 1813.0 1240.0   74.0  301.0  300.0  300.0  300.0 1500.0
   48503690   94.0    0.0 1461.0 1850.0 1240.0   74.0  301.0  300.0  300.0  300.0 1500.0
   48507704   93.0    0.0 1421.0 1854.0 1220.0   72.0  300.0  300.0  300.0  300.0 1490.0
   48511721   93.0    0.0 1428.0 1824.0 1240.0   74.0  301.0  300.0  300.0  300.0 1500.0
   48515732   93.0    0.0 1440.0 1805.0 1250.0   75.0  301.0  300.0  300.0  300.0 1500.0
   48519721   93.0    0.0 1404.0 1802.0 1230.0   73.0  301.0  300.0  300.0  300.0 1500.0
   48523734   93.0    0.0 1446.0 1823.0 1250.0   75.0  301.0  300.0  300.0  300.0 1510.0
   48527739   93.0    0.0 1439.0 1832.0 1240.0   74.0  301.0  300.0  300.0  300.0 1500.0
   48531755   93.0    0.0 1393.0 1809.0 1230.0   73.0  301.0  300.0  300.0  300.0 1500.0
   48535769   93.0    0.0 1415.0 1806.0 1240.0   74.0  301.0  300.0  300.0  300.0 1490.0
   48539782   93.0    0.0 1418.0 1813.0 1240.0   74.0  301.0  300.0  300.0  300.0 1500.0
   48543790   93.0    0.0 1410.0 1794.0 1240.0   74.0  301.0  300.0  300.0  300.0 1500.0
   48547786   93.0    0.0 1439.0 1846.0 1230.0   73.0  301.0  300.0  300.0  300.0 1500.0
   48551811   93.0    0.0 1450.0 1814.0 1250.0   75.0  301.0  300.0  300.0  300.0 1500.0
   48555819   93.0    0.0 1454.0 1844.0 1240.0   74.0  301.0  300.0  300.0  300.0 1500.0
   48559842   93.0    0.0 1460.0 1845.0 1240.0   74.0  301.0  300.0  300.0  300.0 1490.0
