# 
~VERSION INFORMATION
     VERS.                              2.0:Версия формата LAS
     WRAP.                               NO:Режим одной строчки на временной отчет
~WELL INFORMATION
     STRT.ms                       35211431:Время первой записи в файле
     STOP.ms                       51799721:Время последней записи в файле
     STEP.ms                              0:Шаг времени, 0 - переменный шаг
     NULL.                          -999.25:Метка, нет значения
     DATE.                       27.07.2023:Дата каротажа
      DRV.                                 :Наименование драйвера прибора
     NAME.                             ГГКП:Название прибора
     SNUM.                         19399001:Серийный номер прибора
     FRMW.                         0.19.7.3:Версия прошивки на контроллере прибора
~CURVE INFORMATION
     TIME.ms                       {0,11:0}:Время, количество миллисекунд от начало суток
       MT.°C                               :Температура
      TFG.°                                :Гравитационный поворот
      RSD.имп./сек                         :Счёт, ближний зонд ГГКП
      RLD.имп./сек                         :Счёт, дальний зонд ГГКП
     RHOB.кг/м3                            :Плотность
   HCRHOB.g/cm3                            :Плотность, у.е.
     ADCS.mV                               :Измеренное напряжение порога компараторапо ближнему зонду
     ADCL.mV                               :Измеренное напряжение порога компараторапо дальнему зонду
    THLDS.mV                               :Выставленный порог компараторапо ближнему зонду
    THLDL.mV                               :Выставленный порог компараторапо дальнему зонду
    GRUHV.В                                :Напряжение на высоковольтнике Гамма
~OTHER INFORMATION


~A     TIME     MT    TFG    RSD    RLD   RHOB HCRHOB   ADCS   ADCL  THLDS  THLDL  GRUHV
# ...
   49285553   87.0    0.0 1452.0 1852.0 1240.0   74.0  301.0  300.0  300.0  300.0 1500.0
   49289556   87.0    0.0 1442.0 1839.0 1240.0   74.0  301.0  300.0  300.0  300.0 1500.0
   49293570   87.0    0.0 1446.0 1846.0 1240.0   74.0  301.0  300.0  300.0  300.0 1500.0
   49297585   87.0    0.0 1449.0 1806.0 1250.0   75.0  301.0  300.0  300.0  300.0 1490.0
   49301602   87.0    0.0 1442.0 1835.0 1240.0   74.0  301.0  300.0  300.0  300.0 1500.0
   49305589   87.0    0.0 1417.0 1784.0 1250.0   75.0  301.0  300.0  300.0  300.0 1500.0
   49309590   86.0    0.0 1437.0 1828.0 1240.0   74.0  301.0  300.0  300.0  300.0 1500.0
   49313592   87.0    0.0 1439.0 1815.0 1250.0   75.0  300.0  300.0  300.0  300.0 1500.0
   49317600   87.0    0.0 1458.0 1788.0 1260.0   76.0  300.0  300.0  300.0  300.0 1500.0
   49321622   86.0    0.0 1419.0 1855.0 1220.0   72.0  301.0  300.0  300.0  300.0 1490.0
   49325640   86.0    0.0 1424.0 1822.0 1240.0   74.0  301.0  300.0  300.0  300.0 1500.0
   49329622   86.0    0.0 1451.0 1801.0 1260.0   76.0  301.0  300.0  300.0  300.0 1490.0
   49333625   86.0    0.0 1439.0 1779.0 1260.0   76.0  301.0  300.0  300.0  300.0 1500.0
   49337631   86.0    0.0 1437.0 1811.0 1250.0   75.0  300.0  300.0  300.0  300.0 1500.0
   49341642   86.0    0.0 1442.0 1812.0 1250.0   75.0  301.0  300.0  300.0  300.0 1500.0
   49345645   86.0    0.0 1425.0 1823.0 1240.0   74.0  301.0  300.0  300.0  300.0 1500.0
   49349647   86.0    0.0 1436.0 1830.0 1240.0   74.0  301.0  300.0  300.0  300.0 1500.0
   49353647   86.0    0.0 1457.0 1839.0 1240.0   74.0  301.0  300.0  300.0  300.0 1500.0
   49357663   86.0    0.0 1433.0 1816.0 1240.0   74.0  301.0  300.0  300.0  300.0 1500.0
   49361679   86.0    0.0 1424.0 1808.0 1240.0   74.0  301.0  300.0  300.0  300.0 1500.0
   49365676   86.0    0.0 1450.0 1865.0 1230.0   73.0  301.0  300.0  300.0  300.0 1500.0
   49369692   86.0    0.0 1440.0 1844.0 1240.0   74.0  300.0  300.0  300.0  300.0 1490.0
   49373697   86.0    0.0 1407.0 1795.0 1240.0   74.0  301.0  300.0  300.0  300.0 1500.0
   49377702   86.0    0.0 1431.0 1817.0 1240.0   74.0  301.0  300.0  300.0  300.0 1500.0
   49381713   86.0    0.0 1464.0 1824.0 1250.0   75.0  301.0  300.0  300.0  300.0 1500.0
   49385722   86.0    0.0 1424.0 1863.0 1220.0   72.0  301.0  300.0  300.0  300.0 1500.0
   49389740   86.0    0.0 1435.0 1826.0 1240.0   74.0  301.0  300.0  300.0  300.0 1500.0
   49393741   86.0    0.0 1417.0 1849.0 1220.0   72.0  301.0  300.0  300.0  300.0 1500.0
   49397736   86.0    0.0 1433.0 1834.0 1240.0   74.0  301.0  300.0  300.0  300.0 1500.0
   49401753   86.0    0.0 1445.0 1818.0 1250.0   75.0  301.0  300.0  300.0  300.0 1500.0
   49405754   86.0    0.0 1434.0 1829.0 1240.0   74.0  301.0  300.0  300.0  300.0 1500.0
   49409773   86.0    0.0 1450.0 1861.0 1230.0   73.0  301.0  300.0  300.0  300.0 1500.0
   49413773   86.0    0.0 1460.0 1814.0 1260.0   76.0  301.0  300.0  300.0  300.0 1500.0
   49417774   86.0    0.0 1422.0 1854.0 1220.0   72.0  301.0  300.0  300.0  300.0 1510.0
   49421775   85.0    0.0 1452.0 1814.0 1250.0   75.0  301.0  300.0  300.0  300.0 1500.0
   49425784   85.0    0.0 1451.0 1802.0 1260.0   76.0  301.0  300.0  300.0  300.0 1500.0
   49429796   85.0    0.0 1431.0 1759.0 1260.0   76.0  301.0  300.0  300.0  300.0 1500.0
   49433803   85.0    0.0 1437.0 1827.0 1240.0   74.0  301.0  300.0  300.0  300.0 1500.0
   49437817   85.0    0.0 1424.0 1824.0 1240.0   74.0  301.0  300.0  300.0  300.0 1500.0
   49441805   85.0    0.0 1438.0 1824.0 1240.0   74.0  301.0  300.0  300.0  300.0 1500.0
   49445820   86.0    0.0 1448.0 1806.0 1250.0   75.0  301.0  300.0  300.0  300.0 1500.0
   49449839   85.0    0.0 1436.0 1792.0 1250.0   75.0  301.0  300.0  300.0  300.0 1500.0
   49453841   85.0    0.0 1412.0 1823.0 1230.0   73.0  301.0  300.0  300.0  300.0 1500.0
   49457827   85.0    0.0 1435.0 1858.0 1230.0   73.0  301.0  300.0  300.0  300.0 1500.0
   49461856   85.0    0.0 1449.0 1826.0 1250.0   75.0  301.0  300.0  300.0  300.0 1500.0
   49465864   85.0    0.0 1416.0 1814.0 1240.0   74.0  301.0  300.0  300.0  300.0 1500.0
   49469867   85.0    0.0 1483.0 1850.0 1250.0   75.0  301.0  300.0  300.0  300.0 1500.0
   49473871   85.0    0.0 1442.0 1823.0 1240.0   74.0  301.0  300.0  300.0  300.0 1500.0
   49477887   85.0    0.0 1459.0 1853.0 1240.0   74.0  301.0  300.0  300.0  300.0 1500.0
   49481899   85.0    0.0 1403.0 1775.0 1240.0   74.0  301.0  300.0  300.0  300.0 1500.0
   49485900   85.0    0.0 1428.0 1855.0 1230.0   73.0  301.0  300.0  300.0  300.0 1500.0
   49489921   85.0    0.0 1417.0 1820.0 1230.0   73.0  301.0  300.0  300.0  300.0 1500.0
   49493927   85.0    0.0 1435.0 1829.0 1240.0   74.0  301.0  300.0  300.0  300.0 1500.0
   49497930   85.0    0.0 1414.0 1781.0 1250.0   75.0  301.0  300.0  300.0  300.0 1500.0
   49501936   85.0    0.0 1450.0 1861.0 1230.0   73.0  301.0  300.0  300.0  300.0 1500.0
   49505968   85.0    0.0 1448.0 1836.0 1240.0   74.0  301.0  300.0  300.0  300.0 1500.0
   49509955   85.0    0.0 1458.0 1819.0 1250.0   75.0  301.0  300.0  300.0  300.0 1490.0
   49513982   85.0    0.0 1435.0 1803.0 1250.0   75.0  301.0  300.0  300.0  300.0 1500.0
   49517977   85.0    0.0 1444.0 1841.0 1240.0   74.0  301.0  300.0  300.0  300.0 1500.0
   49521990   85.0    0.0 1447.0 1780.0 1260.0   76.0  301.0  300.0  300.0  300.0 1500.0
   49526002   85.0    0.0 1415.0 1849.0 1220.0   72.0  301.0  300.0  300.0  300.0 1500.0
   49530025   85.0    0.0 1433.0 1811.0 1240.0   74.0  301.0  300.0  300.0  300.0 1500.0
   49534031   85.0    0.0 1422.0 1829.0 1230.0   73.0  301.0  300.0  300.0  300.0 1500.0
   49538035   85.0    0.0 1451.0 1837.0 1240.0   74.0  301.0  300.0  300.0  300.0 1500.0
   49542061   84.0    0.0 1420.0 1867.0 1220.0   72.0  300.0  300.0  300.0  300.0 1500.0
   49546075   85.0    0.0 1442.0 1823.0 1240.0   74.0  301.0  300.0  300.0  300.0 1510.0
   49550095   84.0    0.0 1462.0 1844.0 1250.0   75.0  301.0  300.0  300.0  300.0 1500.0
   49554075   84.0    0.0 1437.0 1834.0 1240.0   74.0  301.0  300.0  300.0  300.0 1500.0
   49558094   84.0    0.0 1471.0 1831.0 1250.0   75.0  301.0  300.0  300.0  300.0 1480.0
   49562109   84.0    0.0 1450.0 1836.0 1240.0   74.0  301.0  300.0  300.0  300.0 1470.0
   49566116   84.0    0.0 1401.0 1848.0 1220.0   72.0  301.0  300.0  300.0  300.0 1500.0
   49570133   84.0    0.0 1418.0 1843.0 1230.0   73.0  301.0  300.0  300.0  300.0 1500.0
   49574149   84.0    0.0 1468.0 1855.0 1240.0   74.0  301.0  300.0  300.0  300.0 1500.0
   49578167   84.0    0.0 1449.0 1842.0 1240.0   74.0  301.0  300.0  300.0  300.0 1500.0
   49582187   84.0    0.0 1459.0 1821.0 1250.0   75.0  301.0  300.0  300.0  300.0 1500.0
   49586182   84.0    0.0 1408.0 1815.0 1230.0   73.0  301.0  300.0  300.0  300.0 1510.0
   49590192   84.0    0.0 1439.0 1878.0 1220.0   72.0  301.0  300.0  300.0  300.0 1500.0
   49594207   84.0    0.0 1395.0 1801.0 1230.0   73.0  301.0  300.0  300.0  300.0 1510.0
   49598211   84.0    0.0 1454.0 1893.0 1220.0   72.0  301.0  300.0  300.0  300.0 1500.0
   49602212   84.0    0.0 1418.0 1828.0 1230.0   73.0  301.0  300.0  300.0  300.0 1500.0
   49606226   84.0    0.0 1428.0 1818.0 1240.0   74.0  301.0  300.0  300.0  300.0 1500.0
   49610258   84.0    0.0 1463.0 1821.0 1250.0   75.0  301.0  300.0  300.0  300.0 1500.0
   49614262   84.0    0.0 1432.0 1802.0 1250.0   75.0  301.0  300.0  300.0  300.0 1500.0
   49618266   84.0    0.0 1455.0 1843.0 1240.0   74.0  301.0  300.0  300.0  300.0 1500.0
   49622290   84.0    0.0 1431.0 1840.0 1230.0   73.0  301.0  300.0  300.0  300.0 1490.0
   49626280   84.0    0.0 1459.0 1811.0 1260.0   76.0  301.0  300.0  300.0  300.0 1500.0
   49630273   84.0    0.0 1425.0 1862.0 1220.0   72.0  301.0  300.0  300.0  300.0 1500.0
   49634298   84.0    0.0 1430.0 1842.0 1230.0   73.0  301.0  300.0  300.0  300.0 1500.0
   49638312   83.0    0.0 1454.0 1837.0 1240.0   74.0  301.0  300.0  300.0  300.0 1500.0
   49642321   83.0    0.0 1447.0 1823.0 1250.0   75.0  301.0  300.0  300.0  300.0 1500.0
