# 
~VERSION INFORMATION
     VERS.                              2.0:Версия формата LAS
     WRAP.                               NO:Режим одной строчки на временной отчет
~WELL INFORMATION
     STRT.ms                       35211431:Время первой записи в файле
     STOP.ms                       51799721:Время последней записи в файле
     STEP.ms                              0:Шаг времени, 0 - переменный шаг
     NULL.                          -999.25:Метка, нет значения
     DATE.                       27.07.2023:Дата каротажа
      DRV.                                 :Наименование драйвера прибора
     NAME.                             ГГКП:Название прибора
     SNUM.                         19399001:Серийный номер прибора
     FRMW.                         0.19.7.3:Версия прошивки на контроллере прибора
~CURVE INFORMATION
     TIME.ms                       {0,11:0}:Время, количество миллисекунд от начало суток
       MT.°C                               :Температура
      TFG.°                                :Гравитационный поворот
      RSD.имп./сек                         :Счёт, ближний зонд ГГКП
      RLD.имп./сек                         :Счёт, дальний зонд ГГКП
     RHOB.кг/м3                            :Плотность
   HCRHOB.g/cm3                            :Плотность, у.е.
     ADCS.mV                               :Измеренное напряжение порога компараторапо ближнему зонду
     ADCL.mV                               :Измеренное напряжение порога компараторапо дальнему зонду
    THLDS.mV                               :Выставленный порог компараторапо ближнему зонду
    THLDL.mV                               :Выставленный порог компараторапо дальнему зонду
    GRUHV.В                                :Напряжение на высоковольтнике Гамма
~OTHER INFORMATION


~A     TIME     MT    TFG    RSD    RLD   RHOB HCRHOB   ADCS   ADCL  THLDS  THLDL  GRUHV
# ...
   37376282  105.0    0.0 1434.0 1810.0 1250.0   75.0  301.0  300.0  300.0  300.0 1500.0
   37380281  105.0    0.0 1436.0 1766.0 1260.0   76.0  301.0  300.0  300.0  300.0 1500.0
   37384291  105.0    0.0 1436.0 1833.0 1240.0   74.0  301.0  300.0  300.0  300.0 1500.0
   37388302  105.0    0.0 1415.0 1803.0 1240.0   74.0  301.0  300.0  300.0  300.0 1510.0
   37392297  105.0    0.0 1433.0 1818.0 1240.0   74.0  301.0  300.0  300.0  300.0 1500.0
   37396326  105.0    0.0 1437.0 1750.0 1270.0   77.0  300.0  300.0  300.0  300.0 1500.0
   37400351  105.0    0.0 1480.0 1763.0 1280.0   78.0  301.0  300.0  300.0  300.0 1500.0
   37404365  105.0    0.0 1412.0 1784.0 1240.0   74.0  300.0  300.0  300.0  300.0 1500.0
   37408387  105.0    0.0 1440.0 1750.0 1270.0   77.0  301.0  300.0  300.0  300.0 1500.0
   37412398  105.0    0.0 1437.0 1808.0 1250.0   75.0  300.0  300.0  300.0  300.0 1500.0
   37416406  105.0    0.0 1451.0 1765.0 1270.0   77.0  301.0  300.0  300.0  300.0 1490.0
   37420425  105.0    0.0 1388.0 1768.0 1240.0   74.0  301.0  300.0  300.0  300.0 1510.0
   37424433  105.0    0.0 1439.0 1787.0 1260.0   76.0  300.0  300.0  300.0  300.0 1500.0
   37428450  105.0    0.0 1401.0 1776.0 1240.0   74.0  300.0  300.0  300.0  300.0 1510.0
   37432447  105.0    0.0 1434.0 1741.0 1270.0   77.0  301.0  300.0  300.0  300.0 1490.0
   37436470  105.0    0.0 1442.0 1835.0 1240.0   74.0  300.0  300.0  300.0  300.0 1500.0
   37440473  105.0    0.0 1459.0 1786.0 1270.0   77.0  301.0  300.0  300.0  300.0 1490.0
   37444487  105.0    0.0 1422.0 1804.0 1240.0   74.0  301.0  300.0  300.0  300.0 1500.0
   37448482  105.0    0.0 1450.0 1776.0 1260.0   76.0  300.0  300.0  300.0  300.0 1500.0
   37452517  105.0    0.0 1421.0 1768.0 1250.0   75.0  301.0  300.0  300.0  300.0 1500.0
   37456540  105.0    0.0 1423.0 1798.0 1240.0   74.0  300.0  300.0  300.0  300.0 1500.0
   37460515  105.0    0.0 1419.0 1768.0 1250.0   75.0  301.0  300.0  300.0  300.0 1490.0
   37464550  105.0    0.0 1420.0 1798.0 1240.0   74.0  300.0  300.0  300.0  300.0 1500.0
   37468573  105.0    0.0 1426.0 1787.0 1250.0   75.0  301.0  300.0  300.0  300.0 1500.0
   37472582  105.0    0.0 1401.0 1809.0 1230.0   73.0  301.0  300.0  300.0  300.0 1490.0
   37476582  105.0    0.0 1395.0 1787.0 1240.0   74.0  301.0  300.0  300.0  300.0 1490.0
   37480582  105.0    0.0 1445.0 1775.0 1260.0   76.0  301.0  300.0  300.0  300.0 1510.0
   37484600  105.0    0.0 1448.0 1775.0 1260.0   76.0  301.0  300.0  300.0  300.0 1500.0
   37488601  105.0    0.0 1432.0 1778.0 1260.0   76.0  301.0  300.0  300.0  300.0 1500.0
   37492602  105.0    0.0 1431.0 1805.0 1250.0   75.0  300.0  300.0  300.0  300.0 1490.0
   37496612  105.0    0.0 1415.0 1809.0 1240.0   74.0  301.0  300.0  300.0  300.0 1500.0
   37500619  105.0    0.0 1448.0 1791.0 1260.0   76.0  301.0  300.0  300.0  300.0 1500.0
   37504617  105.0    0.0 1443.0 1759.0 1270.0   77.0  301.0  300.0  300.0  300.0 1500.0
   37508641  105.0    0.0 1440.0 1776.0 1260.0   76.0  301.0  300.0  300.0  300.0 1500.0
   37512649  105.0    0.0 1438.0 1820.0 1240.0   74.0  301.0  300.0  300.0  300.0 1500.0
   37516655  105.0    0.0 1441.0 1753.0 1270.0   77.0  301.0  300.0  300.0  300.0 1510.0
   37520661  105.0    0.0 1434.0 1810.0 1240.0   74.0  301.0  300.0  300.0  300.0 1500.0
   37524668  105.0    0.0 1432.0 1750.0 1270.0   77.0  301.0  300.0  300.0  300.0 1510.0
   37528673  105.0    0.0 1442.0 1767.0 1260.0   76.0  301.0  300.0  300.0  300.0 1500.0
   37532704  105.0    0.0 1440.0 1802.0 1250.0   75.0  300.0  300.0  300.0  300.0 1490.0
   37536710  105.0    0.0 1406.0 1807.0 1230.0   73.0  301.0  300.0  300.0  300.0 1490.0
   37540732  105.0    0.0 1442.0 1757.0 1270.0   77.0  301.0  300.0  300.0  300.0 1490.0
   37544741  105.0    0.0 1449.0 1815.0 1250.0   75.0  301.0  300.0  300.0  300.0 1490.0
   37548735  105.0    0.0 1430.0 1808.0 1240.0   74.0  301.0  300.0  300.0  300.0 1490.0
   37552754  105.0    0.0 1430.0 1788.0 1250.0   75.0  301.0  300.0  300.0  300.0 1500.0
   37556756  105.0    0.0 1438.0 1771.0 1260.0   76.0  301.0  300.0  300.0  300.0 1500.0
   37560767  105.0    0.0 1443.0 1776.0 1260.0   76.0  300.0  300.0  300.0  300.0 1500.0
   37564769  105.0    0.0 1417.0 1761.0 1260.0   76.0  301.0  300.0  300.0  300.0 1500.0
   37568784  105.0    0.0 1442.0 1805.0 1250.0   75.0  301.0  300.0  300.0  300.0 1500.0
   37572786  105.0    0.0 1415.0 1770.0 1250.0   75.0  301.0  300.0  300.0  300.0 1500.0
   37576795  105.0    0.0 1406.0 1776.0 1240.0   74.0  301.0  300.0  300.0  300.0 1520.0
   37580803  105.0    0.0 1433.0 1793.0 1250.0   75.0  301.0  300.0  300.0  300.0 1490.0
   37584812  105.0    0.0 1437.0 1808.0 1250.0   75.0  301.0  300.0  300.0  300.0 1490.0
   37588834  105.0    0.0 1425.0 1821.0 1240.0   74.0  301.0  300.0  300.0  300.0 1500.0
   37592837  105.0    0.0 1470.0 1780.0 1270.0   77.0  301.0  300.0  300.0  300.0 1500.0
   37596838  105.0    0.0 1443.0 1750.0 1270.0   77.0  301.0  300.0  300.0  300.0 1500.0
   37600847  105.0    0.0 1413.0 1793.0 1240.0   74.0  300.0  300.0  300.0  300.0 1500.0
   37604856  105.0    0.0 1415.0 1818.0 1230.0   73.0  301.0  300.0  300.0  300.0 1500.0
   37608864  105.0    0.0 1431.0 1802.0 1250.0   75.0  301.0  300.0  300.0  300.0 1500.0
   37612873  105.0    0.0 1446.0 1775.0 1260.0   76.0  301.0  300.0  300.0  300.0 1500.0
   37616876  105.0    0.0 1440.0 1774.0 1260.0   76.0  300.0  300.0  300.0  300.0 1500.0
   37620892  105.0    0.0 1425.0 1791.0 1250.0   75.0  301.0  300.0  300.0  300.0 1500.0
   37624894  105.0    0.0 1456.0 1741.0 1280.0   78.0  301.0  300.0  300.0  300.0 1490.0
   37628915  105.0    0.0 1422.0 1784.0 1250.0   75.0  301.0  300.0  300.0  300.0 1500.0
   37632917  105.0    0.0 1393.0 1784.0 1240.0   74.0  301.0  300.0  300.0  300.0 1490.0
   37636929  105.0    0.0 1394.0 1810.0 1230.0   73.0  301.0  300.0  300.0  300.0 1500.0
   37640948  105.0    0.0 1463.0 1791.0 1270.0   77.0  301.0  300.0  300.0  300.0 1500.0
   37644945  105.0    0.0 1396.0 1802.0 1230.0   73.0  301.0  300.0  300.0  300.0 1500.0
   37648953  106.0    0.0 1418.0 1759.0 1260.0   76.0  300.0  300.0  300.0  300.0 1500.0
   37652954  106.0    0.0 1426.0 1747.0 1260.0   76.0  300.0  300.0  300.0  300.0 1500.0
   37656969  106.0    0.0 1410.0 1799.0 1240.0   74.0  301.0  300.0  300.0  300.0 1500.0
   37660956  106.0    0.0 1411.0 1778.0 1250.0   75.0  301.0  300.0  300.0  300.0 1500.0
   37664982  106.0    0.0 1434.0 1740.0 1270.0   77.0  301.0  300.0  300.0  300.0 1500.0
   37668974  106.0    0.0 1419.0 1758.0 1260.0   76.0  301.0  300.0  300.0  300.0 1500.0
   37672987  106.0    0.0 1420.0 1790.0 1250.0   75.0  300.0  300.0  300.0  300.0 1500.0
   37676990  106.0    0.0 1432.0 1765.0 1260.0   76.0  301.0  300.0  300.0  300.0 1490.0
   37681007  106.0    0.0 1417.0 1762.0 1260.0   76.0  301.0  299.0  300.0  300.0 1500.0
   37685015  106.0    0.0 1426.0 1796.0 1250.0   75.0  301.0  300.0  300.0  300.0 1500.0
   37689022  106.0    0.0 1432.0 1828.0 1240.0   74.0  300.0  300.0  300.0  300.0 1500.0
   37693022  106.0    0.0 1418.0 1794.0 1240.0   74.0  301.0  300.0  300.0  300.0 1500.0
   37697044  106.0    0.0 1439.0 1739.0 1270.0   77.0  301.0  300.0  300.0  300.0 1500.0
   37701049  106.0    0.0 1455.0 1778.0 1270.0   77.0  301.0  300.0  300.0  300.0 1500.0
   37705059  106.0    0.0 1404.0 1777.0 1240.0   74.0  301.0  300.0  300.0  300.0 1490.0
   37709066  106.0    0.0 1425.0 1774.0 1250.0   75.0  301.0  300.0  300.0  300.0 1490.0
   37713078  106.0    0.0 1455.0 1790.0 1260.0   76.0  301.0  300.0  300.0  300.0 1500.0
   37717094  106.0    0.0 1437.0 1783.0 1260.0   76.0  301.0  300.0  300.0  300.0 1500.0
   37721096  106.0    0.0 1436.0 1756.0 1270.0   77.0  301.0  300.0  300.0  300.0 1500.0
   37725112  106.0    0.0 1443.0 1804.0 1250.0   75.0  301.0  300.0  300.0  300.0 1500.0
   37729122  106.0    0.0 1421.0 1768.0 1250.0   75.0  301.0  300.0  300.0  300.0 1500.0
   37733122  106.0    0.0 1422.0 1773.0 1250.0   75.0  301.0  300.0  300.0  300.0 1500.0
