# 
~VERSION INFORMATION
     VERS.                              2.0:Версия формата LAS
     WRAP.                               NO:Режим одной строчки на временной отчет
~WELL INFORMATION
     STRT.ms                       35211431:Время первой записи в файле
     STOP.ms                       51799721:Время последней записи в файле
     STEP.ms                              0:Шаг времени, 0 - переменный шаг
     NULL.                          -999.25:Метка, нет значения
     DATE.                       27.07.2023:Дата каротажа
      DRV.                                 :Наименование драйвера прибора
     NAME.                             ГГКП:Название прибора
     SNUM.                         19399001:Серийный номер прибора
     FRMW.                         0.19.7.3:Версия прошивки на контроллере прибора
~CURVE INFORMATION
     TIME.ms                       {0,11:0}:Время, количество миллисекунд от начало суток
       MT.°C                               :Температура
      TFG.°                                :Гравитационный поворот
      RSD.имп./сек                         :Счёт, ближний зонд ГГКП
      RLD.имп./сек                         :Счёт, дальний зонд ГГКП
     RHOB.кг/м3                            :Плотность
   HCRHOB.g/cm3                            :Плотность, у.е.
     ADCS.mV                               :Измеренное напряжение порога компараторапо ближнему зонду
     ADCL.mV                               :Измеренное напряжение порога компараторапо дальнему зонду
    THLDS.mV                               :Выставленный порог компараторапо ближнему зонду
    THLDL.mV                               :Выставленный порог компараторапо дальнему зонду
    GRUHV.В                                :Напряжение на высоковольтнике Гамма
~OTHER INFORMATION


~A     TIME     MT    TFG    RSD    RLD   RHOB HCRHOB   ADCS   ADCL  THLDS  THLDL  GRUHV
# ...
   44955184  126.0    0.0 1419.0 1780.0 1250.0   75.0  300.0  300.0  300.0  300.0 1500.0
   44959199  126.0    0.0 1428.0 1785.0 1250.0   75.0  300.0  300.0  300.0  300.0 1500.0
   44963204  126.0    0.0 1426.0 1770.0 1260.0   76.0  300.0  300.0  300.0  300.0 1490.0
   44967210  126.0    0.0 1401.0 1754.0 1250.0   75.0  300.0  300.0  300.0  300.0 1490.0
   44971214  126.0    0.0 1434.0 1821.0 1240.0   74.0  300.0  300.0  300.0  300.0 1490.0
   44975229  126.0    0.0 1430.0 1759.0 1260.0   76.0  300.0  300.0  300.0  300.0 1500.0
   44979242  126.0    0.0 1424.0 1735.0 1270.0   77.0  300.0  300.0  300.0  300.0 1500.0
   44983245  126.0    0.0 1405.0 1736.0 1260.0   76.0  300.0  300.0  300.0  300.0 1500.0
   44987258  126.0    0.0 1417.0 1750.0 1260.0   76.0  300.0  300.0  300.0  300.0 1500.0
   44991263  126.0    0.0 1420.0 1781.0 1250.0   75.0  300.0  300.0  300.0  300.0 1500.0
   44995271  125.0    0.0 1389.0 1750.0 1250.0   75.0  300.0  300.0  300.0  300.0 1500.0
   44999285  125.0    0.0 1419.0 1782.0 1250.0   75.0  300.0  300.0  300.0  300.0 1500.0
   45003298  125.0    0.0 1431.0 1783.0 1250.0   75.0  301.0  300.0  300.0  300.0 1490.0
   45007302  125.0    0.0 1397.0 1793.0 1230.0   73.0  300.0  300.0  300.0  300.0 1500.0
   45011309  125.0    0.0 1418.0 1744.0 1260.0   76.0  300.0  300.0  300.0  300.0 1500.0
   45015315  125.0    0.0 1368.0 1764.0 1230.0   73.0  300.0  300.0  300.0  300.0 1490.0
   45019322  125.0    0.0 1376.0 1805.0 1220.0   72.0  300.0  300.0  300.0  300.0 1500.0
   45023327  125.0    0.0 1398.0 1775.0 1240.0   74.0  300.0  300.0  300.0  300.0 1500.0
   45027339  125.0    0.0 1414.0 1809.0 1240.0   74.0  300.0  300.0  300.0  300.0 1500.0
   45031355  125.0    0.0 1420.0 1779.0 1250.0   75.0  300.0  300.0  300.0  300.0 1500.0
   45035370  125.0    0.0 1403.0 1792.0 1240.0   74.0  300.0  300.0  300.0  300.0 1500.0
   45039380  125.0    0.0 1410.0 1746.0 1260.0   76.0  300.0  300.0  300.0  300.0 1500.0
   45043385  125.0    0.0 1406.0 1764.0 1250.0   75.0  300.0  300.0  300.0  300.0 1500.0
   45047392  125.0    0.0 1413.0 1762.0 1250.0   75.0  300.0  300.0  300.0  300.0 1500.0
   45051403  125.0    0.0 1403.0 1774.0 1240.0   74.0  300.0  301.0  300.0  300.0 1500.0
   45055413  125.0    0.0 1396.0 1773.0 1240.0   74.0  300.0  300.0  300.0  300.0 1500.0
   45059421  125.0    0.0 1396.0 1755.0 1250.0   75.0  300.0  300.0  300.0  300.0 1500.0
   45063434  125.0    0.0 1411.0 1759.0 1250.0   75.0  301.0  300.0  300.0  300.0 1500.0
   45067433  125.0    0.0 1394.0 1821.0 1220.0   72.0  300.0  300.0  300.0  300.0 1500.0
   45071447  125.0    0.0 1432.0 1786.0 1250.0   75.0  300.0  300.0  300.0  300.0 1500.0
   45075473  125.0    0.0 1443.0 1759.0 1270.0   77.0  300.0  300.0  300.0  300.0 1490.0
   45079445  125.0    0.0 1433.0 1747.0 1270.0   77.0  301.0  300.0  300.0  300.0 1500.0
   45083470  125.0    0.0 1424.0 1784.0 1250.0   75.0  300.0  300.0  300.0  300.0 1500.0
   45087466  124.0    0.0 1413.0 1784.0 1240.0   74.0  300.0  300.0  300.0  300.0 1500.0
   45091471  124.0    0.0 1422.0 1785.0 1250.0   75.0  300.0  300.0  300.0  300.0 1500.0
   45095484  124.0    0.0 1395.0 1797.0 1230.0   73.0  300.0  300.0  300.0  300.0 1490.0
   45099503  124.0    0.0 1419.0 1758.0 1260.0   76.0  300.0  300.0  300.0  300.0 1500.0
   45103515  124.0    0.0 1423.0 1801.0 1240.0   74.0  301.0  300.0  300.0  300.0 1490.0
   45107517  124.0    0.0 1406.0 1797.0 1240.0   74.0  300.0  300.0  300.0  300.0 1500.0
   45111529  124.0    0.0 1443.0 1761.0 1270.0   77.0  300.0  300.0  300.0  300.0 1500.0
   45115533  124.0    0.0 1423.0 1768.0 1260.0   76.0  300.0  300.0  300.0  300.0 1500.0
   45119545  124.0    0.0 1412.0 1769.0 1250.0   75.0  300.0  300.0  300.0  300.0 1490.0
   45123541  124.0    0.0 1422.0 1758.0 1260.0   76.0  300.0  300.0  300.0  300.0 1500.0
   45127565  124.0    0.0 1385.0 1726.0 1250.0   75.0  300.0  300.0  300.0  300.0 1490.0
   45131569  124.0    0.0 1406.0 1776.0 1240.0   74.0  300.0  301.0  300.0  300.0 1500.0
   45135558  124.0    0.0 1383.0 1771.0 1240.0   74.0  300.0  300.0  300.0  300.0 1500.0
   45139580  124.0    0.0 1429.0 1793.0 1250.0   75.0  301.0  300.0  300.0  300.0 1500.0
   45143592  124.0    0.0 1410.0 1775.0 1250.0   75.0  300.0  300.0  300.0  300.0 1490.0
   45147597  124.0    0.0 1399.0 1775.0 1240.0   74.0  300.0  300.0  300.0  300.0 1500.0
   45151612  124.0    0.0 1438.0 1749.0 1270.0   77.0  300.0  300.0  300.0  300.0 1490.0
   45155617  124.0    0.0 1390.0 1744.0 1250.0   75.0  300.0  300.0  300.0  300.0 1500.0
   45159632  124.0    0.0 1434.0 1799.0 1250.0   75.0  300.0  300.0  300.0  300.0 1500.0
   45163635  124.0    0.0 1431.0 1778.0 1260.0   76.0  300.0  300.0  300.0  300.0 1500.0
   45167653  124.0    0.0 1452.0 1801.0 1260.0   76.0  300.0  300.0  300.0  300.0 1500.0
   45171635  124.0    0.0 1413.0 1773.0 1250.0   75.0  300.0  300.0  300.0  300.0 1490.0
   45175675  123.0    0.0 1424.0 1758.0 1260.0   76.0  300.0  300.0  300.0  300.0 1500.0
   45179669  123.0    0.0 1428.0 1799.0 1250.0   75.0  300.0  300.0  300.0  300.0 1500.0
   45183675  123.0    0.0 1420.0 1801.0 1240.0   74.0  300.0  300.0  300.0  300.0 1500.0
   45187686  123.0    0.0 1425.0 1788.0 1250.0   75.0  300.0  300.0  300.0  300.0 1500.0
   45191694  123.0    0.0 1428.0 1767.0 1260.0   76.0  300.0  300.0  300.0  300.0 1500.0
   45195708  123.0    0.0 1401.0 1798.0 1230.0   73.0  300.0  300.0  300.0  300.0 1490.0
   45199709  123.0    0.0 1408.0 1782.0 1240.0   74.0  300.0  301.0  300.0  300.0 1500.0
   45203714  123.0    0.0 1429.0 1809.0 1240.0   74.0  301.0  300.0  300.0  300.0 1490.0
   45207730  123.0    0.0 1428.0 1767.0 1260.0   76.0  300.0  300.0  300.0  300.0 1500.0
   45211737  123.0    0.0 1445.0 1802.0 1250.0   75.0  300.0  300.0  300.0  300.0 1530.0
   45215750  123.0    0.0 1413.0 1766.0 1250.0   75.0  300.0  300.0  300.0  300.0 1500.0
   45219766  123.0    0.0 1394.0 1789.0 1230.0   73.0  300.0  300.0  300.0  300.0 1500.0
   45223773  123.0    0.0 1392.0 1764.0 1240.0   74.0  300.0  300.0  300.0  300.0 1500.0
   45227781  123.0    0.0 1404.0 1776.0 1240.0   74.0  301.0  300.0  300.0  300.0 1510.0
   45231788  123.0    0.0 1418.0 1788.0 1250.0   75.0  300.0  300.0  300.0  300.0 1500.0
   45235789  123.0    0.0 1424.0 1745.0 1260.0   76.0  300.0  300.0  300.0  300.0 1500.0
   45239794  123.0    0.0 1411.0 1791.0 1240.0   74.0  300.0  300.0  300.0  300.0 1500.0
   45243798  123.0    0.0 1413.0 1752.0 1260.0   76.0  301.0  300.0  300.0  300.0 1500.0
   45247805  123.0    0.0 1394.0 1745.0 1250.0   75.0  300.0  301.0  300.0  300.0 1520.0
   45251821  123.0    0.0 1429.0 1754.0 1260.0   76.0  300.0  300.0  300.0  300.0 1500.0
   45255858  123.0    0.0 1401.0 1782.0 1240.0   74.0  300.0  300.0  300.0  300.0 1500.0
   45259865  123.0    0.0 1436.0 1788.0 1250.0   75.0  301.0  300.0  300.0  300.0 1500.0
   45263876  123.0    0.0 1424.0 1781.0 1250.0   75.0  300.0  300.0  300.0  300.0 1500.0
   45267880  123.0    0.0 1427.0 1762.0 1260.0   76.0  300.0  300.0  300.0  300.0 1490.0
   45271900  122.0    0.0 1373.0 1803.0 1220.0   72.0  300.0  300.0  300.0  300.0 1490.0
   45275919  122.0    0.0 1412.0 1724.0 1270.0   77.0  300.0  300.0  300.0  300.0 1490.0
   45279923  122.0    0.0 1406.0 1754.0 1250.0   75.0  300.0  300.0  300.0  300.0 1500.0
   45283934  122.0    0.0 1418.0 1788.0 1250.0   75.0  300.0  300.0  300.0  300.0 1500.0
   45287948  122.0    0.0 1398.0 1782.0 1240.0   74.0  300.0  300.0  300.0  300.0 1500.0
   45291953  122.0    0.0 1403.0 1754.0 1250.0   75.0  300.0  300.0  300.0  300.0 1490.0
   45295966  122.0    0.0 1417.0 1811.0 1240.0   74.0  301.0  300.0  300.0  300.0 1500.0
   45299974  122.0    0.0 1420.0 1770.0 1250.0   75.0  300.0  300.0  300.0  300.0 1500.0
   45303992  122.0    0.0 1418.0 1796.0 1240.0   74.0  300.0  300.0  300.0  300.0 1490.0
   45308007  122.0    0.0 1393.0 1795.0 1230.0   73.0  301.0  300.0  300.0  300.0 1500.0
   45312017  122.0    0.0 1443.0 1780.0 1260.0   76.0  300.0  300.0  300.0  300.0 1500.0
