# 
~VERSION INFORMATION
     VERS.                              2.0:Версия формата LAS
     WRAP.                               NO:Режим одной строчки на временной отчет
~WELL INFORMATION
     STRT.ms                       35211431:Время первой записи в файле
     STOP.ms                       51799721:Время последней записи в файле
     STEP.ms                              0:Шаг времени, 0 - переменный шаг
     NULL.                          -999.25:Метка, нет значения
     DATE.                       27.07.2023:Дата каротажа
      DRV.                                 :Наименование драйвера прибора
     NAME.                             ГГКП:Название прибора
     SNUM.                         19399001:Серийный номер прибора
     FRMW.                         0.19.7.3:Версия прошивки на контроллере прибора
~CURVE INFORMATION
     TIME.ms                       {0,11:0}:Время, количество миллисекунд от начало суток
       MT.°C                               :Температура
      TFG.°                                :Гравитационный поворот
      RSD.имп./сек                         :Счёт, ближний зонд ГГКП
      RLD.имп./сек                         :Счёт, дальний зонд ГГКП
     RHOB.кг/м3                            :Плотность
   HCRHOB.g/cm3                            :Плотность, у.е.
     ADCS.mV                               :Измеренное напряжение порога компараторапо ближнему зонду
     ADCL.mV                               :Измеренное напряжение порога компараторапо дальнему зонду
    THLDS.mV                               :Выставленный порог компараторапо ближнему зонду
    THLDL.mV                               :Выставленный порог компараторапо дальнему зонду
    GRUHV.В                                :Напряжение на высоковольтнике Гамма
~OTHER INFORMATION


~A     TIME     MT    TFG    RSD    RLD   RHOB HCRHOB   ADCS   ADCL  THLDS  THLDL  GRUHV
# ...
   42789930  126.0    0.0 1417.0 1744.0 1260.0   76.0  300.0  300.0  300.0  300.0 1500.0
   42793938  125.0    0.0 1379.0 1751.0 1240.0   74.0  300.0  300.0  300.0  300.0 1500.0
   42797947  126.0    0.0 1396.0 1771.0 1240.0   74.0  301.0  300.0  300.0  300.0 1500.0
   42801955  126.0    0.0 1381.0 1743.0 1240.0   74.0  300.0  300.0  300.0  300.0 1500.0
   42805968  126.0    0.0 1421.0 1769.0 1250.0   75.0  300.0  300.0  300.0  300.0 1500.0
   42809969  125.0    0.0 1405.0 1723.0 1260.0   76.0  300.0  300.0  300.0  300.0 1500.0
   42813972  126.0    0.0 1403.0 1782.0 1240.0   74.0  300.0  300.0  300.0  300.0 1500.0
   42817984  126.0    0.0 1407.0 1757.0 1250.0   75.0  300.0  300.0  300.0  300.0 1500.0
   42821982  126.0    0.0 1422.0 1763.0 1260.0   76.0  300.0  300.0  300.0  300.0 1500.0
   42825991  126.0    0.0 1412.0 1732.0 1260.0   76.0  300.0  300.0  300.0  300.0 1500.0
   42830007  126.0    0.0 1386.0 1749.0 1250.0   75.0  301.0  300.0  300.0  300.0 1500.0
   42834014  126.0    0.0 1427.0 1763.0 1260.0   76.0  300.0  300.0  300.0  300.0 1500.0
   42838019  126.0    0.0 1356.0 1718.0 1240.0   74.0  300.0  300.0  300.0  300.0 1500.0
   42842038  126.0    0.0 1392.0 1726.0 1260.0   76.0  300.0  300.0  300.0  300.0 1490.0
   42846043  126.0    0.0 1415.0 1793.0 1240.0   74.0  300.0  301.0  300.0  300.0 1500.0
   42850045  126.0    0.0 1386.0 1756.0 1240.0   74.0  301.0  300.0  300.0  300.0 1500.0
   42854056  126.0    0.0 1396.0 1753.0 1250.0   75.0  300.0  300.0  300.0  300.0 1500.0
   42858075  126.0    0.0 1387.0 1729.0 1250.0   75.0  300.0  300.0  300.0  300.0 1500.0
   42862083  126.0    0.0 1383.0 1748.0 1240.0   74.0  300.0  300.0  300.0  300.0 1500.0
   42866082  126.0    0.0 1434.0 1742.0 1270.0   77.0  301.0  300.0  300.0  300.0 1490.0
   42870088  126.0    0.0 1383.0 1740.0 1250.0   75.0  300.0  300.0  300.0  300.0 1500.0
   42874099  126.0    0.0 1415.0 1781.0 1250.0   75.0  300.0  300.0  300.0  300.0 1490.0
   42878107  126.0    0.0 1425.0 1746.0 1260.0   76.0  300.0  300.0  300.0  300.0 1500.0
   42882113  126.0    0.0 1430.0 1777.0 1260.0   76.0  300.0  300.0  300.0  300.0 1490.0
   42886115  126.0    0.0 1415.0 1741.0 1260.0   76.0  300.0  300.0  300.0  300.0 1500.0
   42890120  126.0    0.0 1393.0 1722.0 1260.0   76.0  300.0  300.0  300.0  300.0 1500.0
   42894109  126.0    0.0 1401.0 1761.0 1250.0   75.0  300.0  300.0  300.0  300.0 1500.0
   42898130  126.0    0.0 1421.0 1750.0 1260.0   76.0  300.0  300.0  300.0  300.0 1500.0
   42902139  126.0    0.0 1411.0 1782.0 1240.0   74.0  300.0  300.0  300.0  300.0 1500.0
   42906149  126.0    0.0 1386.0 1733.0 1250.0   75.0  300.0  300.0  300.0  300.0 1500.0
   42910144  126.0    0.0 1390.0 1756.0 1240.0   74.0  301.0  300.0  300.0  300.0 1490.0
   42914171  126.0    0.0 1423.0 1763.0 1260.0   76.0  300.0  300.0  300.0  300.0 1500.0
   42918170  126.0    0.0 1377.0 1750.0 1240.0   74.0  300.0  300.0  300.0  300.0 1490.0
   42922198  126.0    0.0 1410.0 1738.0 1260.0   76.0  300.0  300.0  300.0  300.0 1510.0
   42926200  126.0    0.0 1413.0 1736.0 1260.0   76.0  300.0  300.0  300.0  300.0 1510.0
   42930187  126.0    0.0 1379.0 1774.0 1230.0   73.0  300.0  300.0  300.0  300.0 1500.0
   42934210  126.0    0.0 1400.0 1764.0 1250.0   75.0  300.0  300.0  300.0  300.0 1500.0
   42938228  126.0    0.0 1392.0 1750.0 1250.0   75.0  300.0  301.0  300.0  300.0 1490.0
   42942231  126.0    0.0 1414.0 1767.0 1250.0   75.0  300.0  300.0  300.0  300.0 1500.0
   42946239  126.0    0.0 1391.0 1812.0 1220.0   72.0  300.0  300.0  300.0  300.0 1500.0
   42950262  126.0    0.0 1392.0 1738.0 1250.0   75.0  300.0  300.0  300.0  300.0 1500.0
   42954273  126.0    0.0 1391.0 1742.0 1250.0   75.0  300.0  300.0  300.0  300.0 1500.0
   42958286  126.0    0.0 1395.0 1753.0 1250.0   75.0  300.0  300.0  300.0  300.0 1500.0
   42962291  126.0    0.0 1420.0 1765.0 1260.0   76.0  300.0  300.0  300.0  300.0 1520.0
   42966282  126.0    0.0 1410.0 1760.0 1250.0   75.0  300.0  300.0  300.0  300.0 1500.0
   42970297  126.0    0.0 1401.0 1717.0 1260.0   76.0  300.0  300.0  300.0  300.0 1500.0
   42974313  126.0    0.0 1434.0 1782.0 1260.0   76.0  300.0  300.0  300.0  300.0 1490.0
   42978314  126.0    0.0 1374.0 1762.0 1230.0   73.0  300.0  300.0  300.0  300.0 1490.0
   42982337  126.0    0.0 1407.0 1769.0 1250.0   75.0  300.0  300.0  300.0  300.0 1500.0
   42986343  126.0    0.0 1402.0 1808.0 1230.0   73.0  300.0  300.0  300.0  300.0 1510.0
   42990362  126.0    0.0 1388.0 1754.0 1240.0   74.0  300.0  300.0  300.0  300.0 1510.0
   42994382  126.0    0.0 1408.0 1734.0 1260.0   76.0  301.0  300.0  300.0  300.0 1500.0
   42998391  126.0    0.0 1418.0 1792.0 1240.0   74.0  300.0  300.0  300.0  300.0 1490.0
   43002390  126.0    0.0 1388.0 1772.0 1240.0   74.0  300.0  300.0  300.0  300.0 1500.0
   43006395  126.0    0.0 1393.0 1736.0 1250.0   75.0  301.0  300.0  300.0  300.0 1490.0
   43010402  126.0    0.0 1394.0 1745.0 1250.0   75.0  301.0  301.0  300.0  300.0 1500.0
   43014415  126.0    0.0 1386.0 1761.0 1240.0   74.0  301.0  300.0  300.0  300.0 1500.0
   43018406  126.0    0.0 1374.0 1767.0 1230.0   73.0  300.0  300.0  300.0  300.0 1500.0
   43022431  126.0    0.0 1394.0 1753.0 1250.0   75.0  300.0  300.0  300.0  300.0 1500.0
   43026442  126.0    0.0 1393.0 1739.0 1250.0   75.0  300.0  300.0  300.0  300.0 1500.0
   43030445  126.0    0.0 1404.0 1767.0 1250.0   75.0  300.0  300.0  300.0  300.0 1500.0
   43034454  126.0    0.0 1373.0 1786.0 1230.0   73.0  300.0  300.0  300.0  300.0 1500.0
   43038439  126.0    0.0 1410.0 1760.0 1250.0   75.0  301.0  300.0  300.0  300.0 1500.0
   43042462  126.0    0.0 1402.0 1764.0 1250.0   75.0  300.0  301.0  300.0  300.0 1490.0
   43046469  126.0    0.0 1430.0 1789.0 1250.0   75.0  300.0  300.0  300.0  300.0 1500.0
   43050487  126.0    0.0 1404.0 1789.0 1240.0   74.0  301.0  300.0  300.0  300.0 1500.0
   43054496  126.0    0.0 1376.0 1741.0 1240.0   74.0  300.0  301.0  300.0  300.0 1500.0
   43058510  126.0    0.0 1399.0 1733.0 1260.0   76.0  300.0  300.0  300.0  300.0 1500.0
   43062515  126.0    0.0 1434.0 1726.0 1280.0   78.0  300.0  300.0  300.0  300.0 1500.0
   43066524  127.0    0.0 1433.0 1713.0 1280.0   78.0  300.0  300.0  300.0  300.0 1500.0
   43070528  126.0    0.0 1398.0 1786.0 1240.0   74.0  300.0  301.0  300.0  300.0 1500.0
   43074537  126.0    0.0 1408.0 1750.0 1260.0   76.0  300.0  300.0  300.0  300.0 1490.0
   43078559  126.0    0.0 1390.0 1753.0 1250.0   75.0  300.0  300.0  300.0  300.0 1500.0
   43082567  127.0    0.0 1373.0 1751.0 1240.0   74.0  300.0  300.0  300.0  300.0 1500.0
   43086586  127.0    0.0 1382.0 1770.0 1240.0   74.0  300.0  300.0  300.0  300.0 1500.0
   43090596  126.0    0.0 1392.0 1767.0 1240.0   74.0  300.0  300.0  300.0  300.0 1490.0
   43094608  127.0    0.0 1416.0 1785.0 1250.0   75.0  300.0  300.0  300.0  300.0 1490.0
   43098618  127.0    0.0 1398.0 1769.0 1240.0   74.0  300.0  300.0  300.0  300.0 1490.0
   43102630  126.0    0.0 1413.0 1750.0 1260.0   76.0  300.0  300.0  300.0  300.0 1500.0
   43106645  127.0    0.0 1408.0 1745.0 1260.0   76.0  300.0  300.0  300.0  300.0 1500.0
   43110659  126.0    0.0 1405.0 1750.0 1250.0   75.0  300.0  300.0  300.0  300.0 1500.0
   43114659  127.0    0.0 1389.0 1784.0 1230.0   73.0  300.0  300.0  300.0  300.0 1500.0
   43118681  127.0    0.0 1394.0 1736.0 1250.0   75.0  300.0  300.0  300.0  300.0 1500.0
   43122689  127.0    0.0 1392.0 1769.0 1240.0   74.0  300.0  300.0  300.0  300.0 1500.0
   43126688  127.0    0.0 1393.0 1783.0 1240.0   74.0  301.0  300.0  300.0  300.0 1500.0
   43130696  127.0    0.0 1398.0 1743.0 1250.0   75.0  300.0  300.0  300.0  300.0 1500.0
   43134706  126.0    0.0 1415.0 1797.0 1240.0   74.0  300.0  300.0  300.0  300.0 1500.0
   43138706  127.0    0.0 1360.0 1752.0 1230.0   73.0  300.0  300.0  300.0  300.0 1500.0
   43142736  127.0    0.0 1378.0 1779.0 1230.0   73.0  300.0  300.0  300.0  300.0 1500.0
   43146738  127.0    0.0 1419.0 1757.0 1260.0   76.0  301.0  300.0  300.0  300.0 1490.0
