# 
~VERSION INFORMATION
     VERS.                              2.0:Версия формата LAS
     WRAP.                               NO:Режим одной строчки на временной отчет
~WELL INFORMATION
     STRT.ms                       35211431:Время первой записи в файле
     STOP.ms                       51799721:Время последней записи в файле
     STEP.ms                              0:Шаг времени, 0 - переменный шаг
     NULL.                          -999.25:Метка, нет значения
     DATE.                       27.07.2023:Дата каротажа
      DRV.                                 :Наименование драйвера прибора
     NAME.                             ГГКП:Название прибора
     SNUM.                         19399001:Серийный номер прибора
     FRMW.                         0.19.7.3:Версия прошивки на контроллере прибора
~CURVE INFORMATION
     TIME.ms                       {0,11:0}:Время, количество миллисекунд от начало суток
       MT.°C                               :Температура
      TFG.°                                :Гравитационный поворот
      RSD.имп./сек                         :Счёт, ближний зонд ГГКП
      RLD.имп./сек                         :Счёт, дальний зонд ГГКП
     RHOB.кг/м3                            :Плотность
   HCRHOB.g/cm3                            :Плотность, у.е.
     ADCS.mV                               :Измеренное напряжение порога компараторапо ближнему зонду
     ADCL.mV                               :Измеренное напряжение порога компараторапо дальнему зонду
    THLDS.mV                               :Выставленный порог компараторапо ближнему зонду
    THLDL.mV                               :Выставленный порог компараторапо дальнему зонду
    GRUHV.В                                :Напряжение на высоковольтнике Гамма
~OTHER INFORMATION


~A     TIME     MT    TFG    RSD    RLD   RHOB HCRHOB   ADCS   ADCL  THLDS  THLDL  GRUHV
# ...
   41707243  122.0    0.0 1369.0 1730.0 1240.0   74.0  300.0  300.0  300.0  300.0 1500.0
   41711260  122.0    0.0 1394.0 1725.0 1260.0   76.0  300.0  300.0  300.0  300.0 1490.0
   41715274  122.0    0.0 1405.0 1788.0 1240.0   74.0  300.0  300.0  300.0  300.0 1500.0
   41719279  122.0    0.0 1398.0 1783.0 1240.0   74.0  301.0  300.0  300.0  300.0 1500.0
   41723288  122.0    0.0 1418.0 1772.0 1250.0   75.0  300.0  300.0  300.0  300.0 1500.0
   41727298  122.0    0.0 1405.0 1748.0 1250.0   75.0  300.0  300.0  300.0  300.0 1490.0
   41731306  122.0    0.0 1431.0 1751.0 1270.0   77.0  301.0  300.0  300.0  300.0 1510.0
   41735313  122.0    0.0 1406.0 1786.0 1240.0   74.0  300.0  300.0  300.0  300.0 1490.0
   41739333  122.0    0.0 1400.0 1789.0 1240.0   74.0  300.0  300.0  300.0  300.0 1500.0
   41743331  122.0    0.0 1428.0 1796.0 1250.0   75.0  300.0  300.0  300.0  300.0 1500.0
   41747351  122.0    0.0 1407.0 1762.0 1250.0   75.0  301.0  300.0  300.0  300.0 1500.0
   41751359  122.0    0.0 1414.0 1725.0 1270.0   77.0  300.0  300.0  300.0  300.0 1500.0
   41755387  122.0    0.0 1443.0 1782.0 1260.0   76.0  301.0  300.0  300.0  300.0 1500.0
   41759381  122.0    0.0 1435.0 1788.0 1250.0   75.0  300.0  300.0  300.0  300.0 1500.0
   41763386  122.0    0.0 1387.0 1762.0 1240.0   74.0  300.0  300.0  300.0  300.0 1500.0
   41767410  122.0    0.0 1418.0 1749.0 1260.0   76.0  300.0  300.0  300.0  300.0 1500.0
   41771418  122.0    0.0 1452.0 1743.0 1280.0   78.0  300.0  300.0  300.0  300.0 1500.0
   41775418  122.0    0.0 1420.0 1768.0 1250.0   75.0  300.0  300.0  300.0  300.0 1500.0
   41779431  122.0    0.0 1415.0 1789.0 1240.0   74.0  300.0  300.0  300.0  300.0 1490.0
   41783442  122.0    0.0 1446.0 1775.0 1260.0   76.0  300.0  301.0  300.0  300.0 1500.0
   41787458  122.0    0.0 1421.0 1777.0 1250.0   75.0  300.0  300.0  300.0  300.0 1490.0
   41791465  122.0    0.0 1387.0 1716.0 1260.0   76.0  300.0  300.0  300.0  300.0 1500.0
   41795475  122.0    0.0 1397.0 1786.0 1240.0   74.0  300.0  300.0  300.0  300.0 1500.0
   41799472  122.0    0.0 1414.0 1752.0 1260.0   76.0  300.0  301.0  300.0  300.0 1500.0
   41803466  122.0    0.0 1428.0 1820.0 1240.0   74.0  300.0  300.0  300.0  300.0 1500.0
   41807497  122.0    0.0 1375.0 1754.0 1240.0   74.0  301.0  300.0  300.0  300.0 1500.0
   41811499  122.0    0.0 1400.0 1803.0 1230.0   73.0  301.0  300.0  300.0  300.0 1490.0
   41815506  122.0    0.0 1413.0 1773.0 1250.0   75.0  300.0  300.0  300.0  300.0 1500.0
   41819513  122.0    0.0 1469.0 1790.0 1270.0   77.0  300.0  300.0  300.0  300.0 1510.0
   41823525  122.0    0.0 1452.0 1762.0 1270.0   77.0  300.0  300.0  300.0  300.0 1500.0
   41827542  122.0    0.0 1431.0 1782.0 1250.0   75.0  301.0  300.0  300.0  300.0 1500.0
   41831542  122.0    0.0 1395.0 1765.0 1240.0   74.0  300.0  301.0  300.0  300.0 1500.0
   41835556  122.0    0.0 1391.0 1798.0 1230.0   73.0  300.0  300.0  300.0  300.0 1500.0
   41839584  122.0    0.0 1425.0 1759.0 1260.0   76.0  300.0  300.0  300.0  300.0 1500.0
   41843588  122.0    0.0 1400.0 1787.0 1240.0   74.0  300.0  300.0  300.0  300.0 1490.0
   41847601  122.0    0.0 1424.0 1781.0 1250.0   75.0  300.0  300.0  300.0  300.0 1500.0
   41851614  122.0    0.0 1408.0 1802.0 1240.0   74.0  301.0  300.0  300.0  300.0 1490.0
   41855615  122.0    0.0 1387.0 1714.0 1260.0   76.0  300.0  300.0  300.0  300.0 1500.0
   41859625  123.0    0.0 1405.0 1778.0 1240.0   74.0  301.0  300.0  300.0  300.0 1500.0
   41863628  122.0    0.0 1428.0 1774.0 1260.0   76.0  300.0  300.0  300.0  300.0 1500.0
   41867640  122.0    0.0 1385.0 1767.0 1240.0   74.0  300.0  300.0  300.0  300.0 1500.0
   41871648  122.0    0.0 1411.0 1749.0 1260.0   76.0  300.0  300.0  300.0  300.0 1500.0
   41875661  123.0    0.0 1417.0 1777.0 1250.0   75.0  300.0  300.0  300.0  300.0 1490.0
   41879671  123.0    0.0 1377.0 1743.0 1240.0   74.0  300.0  300.0  300.0  300.0 1510.0
   41883680  122.0    0.0 1393.0 1758.0 1250.0   75.0  300.0  301.0  300.0  300.0 1500.0
   41887684  122.0    0.0 1426.0 1757.0 1260.0   76.0  300.0  300.0  300.0  300.0 1500.0
   41891690  122.0    0.0 1396.0 1782.0 1240.0   74.0  300.0  300.0  300.0  300.0 1490.0
   41895696  122.0    0.0 1398.0 1734.0 1260.0   76.0  301.0  300.0  300.0  300.0 1490.0
   41899704  123.0    0.0 1399.0 1771.0 1240.0   74.0  300.0  300.0  300.0  300.0 1500.0
   41903712  123.0    0.0 1416.0 1778.0 1250.0   75.0  301.0  300.0  300.0  300.0 1500.0
   41907725  123.0    0.0 1408.0 1752.0 1250.0   75.0  300.0  300.0  300.0  300.0 1500.0
   41911734  123.0    0.0 1425.0 1758.0 1260.0   76.0  301.0  300.0  300.0  300.0 1500.0
   41915742  123.0    0.0 1411.0 1763.0 1250.0   75.0  300.0  300.0  300.0  300.0 1500.0
   41919750  122.0    0.0 1407.0 1766.0 1250.0   75.0  300.0  300.0  300.0  300.0 1510.0
   41923765  123.0    0.0 1434.0 1766.0 1260.0   76.0  301.0  300.0  300.0  300.0 1500.0
   41927770  123.0    0.0 1402.0 1810.0 1230.0   73.0  300.0  300.0  300.0  300.0 1500.0
   41931788  123.0    0.0 1402.0 1768.0 1250.0   75.0  300.0  300.0  300.0  300.0 1490.0
   41935793  123.0    0.0 1432.0 1772.0 1260.0   76.0  301.0  300.0  300.0  300.0 1500.0
   41939808  123.0    0.0 1429.0 1741.0 1270.0   77.0  300.0  300.0  300.0  300.0 1480.0
   41943814  123.0    0.0 1419.0 1765.0 1250.0   75.0  301.0  300.0  300.0  300.0 1500.0
   41947817  123.0    0.0 1439.0 1776.0 1260.0   76.0  300.0  300.0  300.0  300.0 1500.0
   41951826  123.0    0.0 1439.0 1757.0 1270.0   77.0  300.0  300.0  300.0  300.0 1500.0
   41955816  123.0    0.0 1418.0 1772.0 1250.0   75.0  301.0  300.0  300.0  300.0 1500.0
   41959830  123.0    0.0 1419.0 1777.0 1250.0   75.0  300.0  300.0  300.0  300.0 1500.0
   41963837  123.0    0.0 1403.0 1795.0 1240.0   74.0  300.0  300.0  300.0  300.0 1500.0
   41967842  123.0    0.0 1435.0 1781.0 1260.0   76.0  300.0  300.0  300.0  300.0 1500.0
   41971848  123.0    0.0 1408.0 1797.0 1240.0   74.0  301.0  300.0  300.0  300.0 1490.0
   41975864  123.0    0.0 1398.0 1735.0 1260.0   76.0  300.0  300.0  300.0  300.0 1490.0
   41979878  123.0    0.0 1401.0 1757.0 1250.0   75.0  300.0  300.0  300.0  300.0 1490.0
   41983891  123.0    0.0 1383.0 1770.0 1240.0   74.0  301.0  300.0  300.0  300.0 1490.0
   41987904  123.0    0.0 1400.0 1756.0 1250.0   75.0  301.0  300.0  300.0  300.0 1490.0
   41991916  123.0    0.0 1432.0 1742.0 1270.0   77.0  300.0  300.0  300.0  300.0 1500.0
   41995920  123.0    0.0 1395.0 1795.0 1230.0   73.0  301.0  300.0  300.0  300.0 1500.0
   41999926  123.0    0.0 1402.0 1786.0 1240.0   74.0  301.0  301.0  300.0  300.0 1500.0
   42003933  123.0    0.0 1415.0 1740.0 1260.0   76.0  301.0  300.0  300.0  300.0 1490.0
   42007943  123.0    0.0 1436.0 1790.0 1250.0   75.0  300.0  300.0  300.0  300.0 1500.0
   42011952  123.0    0.0 1414.0 1796.0 1240.0   74.0  300.0  300.0  300.0  300.0 1500.0
   42015958  123.0    0.0 1409.0 1804.0 1240.0   74.0  300.0  300.0  300.0  300.0 1500.0
   42019967  123.0    0.0 1448.0 1788.0 1260.0   76.0  300.0  300.0  300.0  300.0 1500.0
   42023991  123.0    0.0 1393.0 1746.0 1250.0   75.0  301.0  300.0  300.0  300.0 1500.0
   42028012  123.0    0.0 1411.0 1742.0 1260.0   76.0  300.0  300.0  300.0  300.0 1500.0
   42032023  123.0    0.0 1406.0 1762.0 1250.0   75.0  300.0  300.0  300.0  300.0 1500.0
   42036046  123.0    0.0 1413.0 1763.0 1250.0   75.0  300.0  300.0  300.0  300.0 1500.0
   42040062  123.0    0.0 1419.0 1770.0 1250.0   75.0  300.0  300.0  300.0  300.0 1490.0
   42044081  123.0    0.0 1431.0 1734.0 1270.0   77.0  301.0  300.0  300.0  300.0 1500.0
   42048081  123.0    0.0 1421.0 1775.0 1250.0   75.0  300.0  300.0  300.0  300.0 1500.0
   42052095  123.0    0.0 1405.0 1805.0 1230.0   73.0  300.0  300.0  300.0  300.0 1490.0
   42056109  123.0    0.0 1418.0 1769.0 1250.0   75.0  300.0  300.0  300.0  300.0 1500.0
   42060116  123.0    0.0 1390.0 1745.0 1250.0   75.0  301.0  301.0  300.0  300.0 1500.0
   42064131  123.0    0.0 1416.0 1757.0 1260.0   76.0  300.0  300.0  300.0  300.0 1500.0
