# 
~VERSION INFORMATION
     VERS.                              2.0:Версия формата LAS
     WRAP.                               NO:Режим одной строчки на временной отчет
~WELL INFORMATION
     STRT.ms                       35211431:Время первой записи в файле
     STOP.ms                       51799721:Время последней записи в файле
     STEP.ms                              0:Шаг времени, 0 - переменный шаг
     NULL.                          -999.25:Метка, нет значения
     DATE.                       27.07.2023:Дата каротажа
      DRV.                                 :Наименование драйвера прибора
     NAME.                             ГГКП:Название прибора
     SNUM.                         19399001:Серийный номер прибора
     FRMW.                         0.19.7.3:Версия прошивки на контроллере прибора
~CURVE INFORMATION
     TIME.ms                       {0,11:0}:Время, количество миллисекунд от начало суток
       MT.°C                               :Температура
      TFG.°                                :Гравитационный поворот
      RSD.имп./сек                         :Счёт, ближний зонд ГГКП
      RLD.имп./сек                         :Счёт, дальний зонд ГГКП
     RHOB.кг/м3                            :Плотность
   HCRHOB.g/cm3                            :Плотность, у.е.
     ADCS.mV                               :Измеренное напряжение порога компараторапо ближнему зонду
     ADCL.mV                               :Измеренное напряжение порога компараторапо дальнему зонду
    THLDS.mV                               :Выставленный порог компараторапо ближнему зонду
    THLDL.mV                               :Выставленный порог компараторапо дальнему зонду
    GRUHV.В                                :Напряжение на высоковольтнике Гамма
~OTHER INFORMATION


~A     TIME     MT    TFG    RSD    RLD   RHOB HCRHOB   ADCS   ADCL  THLDS  THLDL  GRUHV
# ...
   43872564  129.0    0.0 1389.0 1771.0 1240.0   74.0  300.0  300.0  300.0  300.0 1500.0
   43876565  129.0    0.0 1364.0 1782.0 1220.0   72.0  301.0  300.0  300.0  300.0 1490.0
   43880575  129.0    0.0 1383.0 1775.0 1230.0   73.0  300.0  300.0  300.0  300.0 1490.0
   43884586  129.0    0.0 1411.0 1731.0 1260.0   76.0  300.0  300.0  300.0  300.0 1500.0
   43888594  129.0    0.0 1362.0 1748.0 1230.0   73.0  300.0  300.0  300.0  300.0 1500.0
   43892607  129.0    0.0 1368.0 1735.0 1240.0   74.0  300.0  300.0  300.0  300.0 1500.0
   43896616  129.0    0.0 1379.0 1785.0 1230.0   73.0  301.0  300.0  300.0  300.0 1500.0
   43900629  129.0    0.0 1406.0 1742.0 1260.0   76.0  301.0  301.0  300.0  300.0 1510.0
   43904642  129.0    0.0 1404.0 1747.0 1250.0   75.0  300.0  300.0  300.0  300.0 1500.0
   43908659  129.0    0.0 1412.0 1746.0 1260.0   76.0  300.0  300.0  300.0  300.0 1490.0
   43912666  129.0    0.0 1402.0 1737.0 1260.0   76.0  300.0  300.0  300.0  300.0 1500.0
   43916687  129.0    0.0 1403.0 1770.0 1250.0   75.0  300.0  300.0  300.0  300.0 1500.0
   43920688  129.0    0.0 1401.0 1730.0 1260.0   76.0  301.0  300.0  300.0  300.0 1500.0
   43924705  129.0    0.0 1380.0 1752.0 1240.0   74.0  300.0  301.0  300.0  300.0 1500.0
   43928711  129.0    0.0 1380.0 1746.0 1240.0   74.0  300.0  300.0  300.0  300.0 1500.0
   43932714  129.0    0.0 1393.0 1784.0 1240.0   74.0  300.0  300.0  300.0  300.0 1520.0
   43936722  129.0    0.0 1408.0 1731.0 1260.0   76.0  300.0  300.0  300.0  300.0 1500.0
   43940735  129.0    0.0 1396.0 1782.0 1240.0   74.0  301.0  300.0  300.0  300.0 1500.0
   43944731  129.0    0.0 1379.0 1728.0 1250.0   75.0  300.0  300.0  300.0  300.0 1500.0
   43948738  129.0    0.0 1403.0 1747.0 1250.0   75.0  300.0  300.0  300.0  300.0 1500.0
   43952741  129.0    0.0 1383.0 1760.0 1240.0   74.0  301.0  300.0  300.0  300.0 1500.0
   43956732  129.0    0.0 1398.0 1773.0 1240.0   74.0  300.0  300.0  300.0  300.0 1500.0
   43960761  129.0    0.0 1406.0 1754.0 1250.0   75.0  301.0  300.0  300.0  300.0 1490.0
   43964783  129.0    0.0 1398.0 1793.0 1230.0   73.0  300.0  300.0  300.0  300.0 1520.0
   43968779  129.0    0.0 1404.0 1755.0 1250.0   75.0  300.0  300.0  300.0  300.0 1500.0
   43972797  129.0    0.0 1391.0 1772.0 1240.0   74.0  300.0  300.0  300.0  300.0 1500.0
   43976803  129.0    0.0 1403.0 1788.0 1240.0   74.0  300.0  300.0  300.0  300.0 1500.0
   43980817  129.0    0.0 1382.0 1759.0 1240.0   74.0  300.0  300.0  300.0  300.0 1500.0
   43984828  129.0    0.0 1374.0 1732.0 1250.0   75.0  300.0  300.0  300.0  300.0 1500.0
   43988833  129.0    0.0 1407.0 1723.0 1270.0   77.0  300.0  301.0  300.0  300.0 1500.0
   43992836  129.0    0.0 1430.0 1734.0 1270.0   77.0  300.0  300.0  300.0  300.0 1490.0
   43996859  129.0    0.0 1409.0 1791.0 1240.0   74.0  300.0  300.0  300.0  300.0 1530.0
   44000869  129.0    0.0 1418.0 1758.0 1260.0   76.0  300.0  300.0  300.0  300.0 1490.0
   44004872  129.0    0.0 1398.0 1746.0 1250.0   75.0  300.0  300.0  300.0  300.0 1490.0
   44008878  129.0    0.0 1373.0 1756.0 1240.0   74.0  300.0  300.0  300.0  300.0 1500.0
   44012881  129.0    0.0 1383.0 1727.0 1250.0   75.0  300.0  301.0  300.0  300.0 1490.0
   44016880  129.0    0.0 1422.0 1761.0 1260.0   76.0  300.0  300.0  300.0  300.0 1490.0
   44020875  129.0    0.0 1395.0 1779.0 1240.0   74.0  300.0  300.0  300.0  300.0 1510.0
   44024901  129.0    0.0 1432.0 1754.0 1270.0   77.0  301.0  301.0  300.0  300.0 1500.0
   44028897  129.0    0.0 1375.0 1749.0 1240.0   74.0  301.0  300.0  300.0  300.0 1500.0
   44032920  129.0    0.0 1396.0 1767.0 1240.0   74.0  300.0  300.0  300.0  300.0 1500.0
   44036926  129.0    0.0 1397.0 1731.0 1260.0   76.0  300.0  300.0  300.0  300.0 1500.0
   44040931  129.0    0.0 1353.0 1766.0 1220.0   72.0  300.0  300.0  300.0  300.0 1500.0
   44044936  129.0    0.0 1369.0 1753.0 1240.0   74.0  300.0  300.0  300.0  300.0 1500.0
   44048958  129.0    0.0 1397.0 1760.0 1250.0   75.0  300.0  300.0  300.0  300.0 1490.0
   44052968  129.0    0.0 1395.0 1728.0 1260.0   76.0  300.0  300.0  300.0  300.0 1490.0
   44056959  129.0    0.0 1371.0 1746.0 1240.0   74.0  301.0  300.0  300.0  300.0 1490.0
   44060983  129.0    0.0 1388.0 1758.0 1240.0   74.0  300.0  300.0  300.0  300.0 1500.0
   44064970  129.0    0.0 1416.0 1734.0 1260.0   76.0  301.0  300.0  300.0  300.0 1500.0
   44068979  129.0    0.0 1388.0 1771.0 1240.0   74.0  300.0  300.0  300.0  300.0 1500.0
   44072992  129.0    0.0 1364.0 1777.0 1220.0   72.0  301.0  300.0  300.0  300.0 1500.0
   44077008  129.0    0.0 1398.0 1758.0 1250.0   75.0  300.0  300.0  300.0  300.0 1500.0
   44081022  129.0    0.0 1403.0 1782.0 1240.0   74.0  300.0  300.0  300.0  300.0 1500.0
   44085027  129.0    0.0 1405.0 1785.0 1240.0   74.0  300.0  300.0  300.0  300.0 1490.0
   44089038  130.0    0.0 1354.0 1738.0 1230.0   73.0  300.0  301.0  300.0  300.0 1480.0
   44093050  129.0    0.0 1378.0 1723.0 1250.0   75.0  300.0  300.0  300.0  300.0 1490.0
   44097060  130.0    0.0 1410.0 1721.0 1270.0   77.0  300.0  300.0  300.0  300.0 1500.0
   44101063  129.0    0.0 1395.0 1759.0 1250.0   75.0  301.0  300.0  300.0  300.0 1500.0
   44105073  130.0    0.0 1356.0 1763.0 1230.0   73.0  300.0  300.0  300.0  300.0 1490.0
   44109086  130.0    0.0 1384.0 1752.0 1240.0   74.0  300.0  300.0  300.0  300.0 1500.0
   44113094  130.0    0.0 1387.0 1711.0 1260.0   76.0  301.0  300.0  300.0  300.0 1490.0
   44117101  130.0    0.0 1409.0 1766.0 1250.0   75.0  301.0  300.0  300.0  300.0 1500.0
   44121117  130.0    0.0 1375.0 1753.0 1240.0   74.0  301.0  300.0  300.0  300.0 1500.0
   44125129  130.0    0.0 1380.0 1732.0 1250.0   75.0  301.0  300.0  300.0  300.0 1490.0
   44129135  130.0    0.0 1409.0 1766.0 1250.0   75.0  300.0  300.0  300.0  300.0 1510.0
   44133140  130.0    0.0 1370.0 1737.0 1240.0   74.0  300.0  300.0  300.0  300.0 1500.0
   44137148  130.0    0.0 1384.0 1735.0 1250.0   75.0  301.0  300.0  300.0  300.0 1500.0
   44141153  130.0    0.0 1410.0 1777.0 1250.0   75.0  300.0  300.0  300.0  300.0 1500.0
   44145166  130.0    0.0 1398.0 1763.0 1250.0   75.0  300.0  300.0  300.0  300.0 1500.0
   44149188  130.0    0.0 1422.0 1745.0 1260.0   76.0  300.0  300.0  300.0  300.0 1500.0
   44153196  130.0    0.0 1373.0 1726.0 1250.0   75.0  300.0  300.0  300.0  300.0 1500.0
   44157206  130.0    0.0 1420.0 1764.0 1260.0   76.0  300.0  300.0  300.0  300.0 1500.0
   44161215  130.0    0.0 1372.0 1775.0 1230.0   73.0  300.0  300.0  300.0  300.0 1500.0
   44165236  130.0    0.0 1397.0 1770.0 1240.0   74.0  300.0  300.0  300.0  300.0 1500.0
   44169249  130.0    0.0 1404.0 1763.0 1250.0   75.0  300.0  300.0  300.0  300.0 1500.0
   44173277  130.0    0.0 1352.0 1739.0 1230.0   73.0  300.0  300.0  300.0  300.0 1500.0
   44177269  130.0    0.0 1377.0 1771.0 1230.0   73.0  300.0  300.0  300.0  300.0 1500.0
   44181289  130.0    0.0 1409.0 1752.0 1260.0   76.0  300.0  300.0  300.0  300.0 1500.0
   44185304  130.0    0.0 1384.0 1722.0 1250.0   75.0  301.0  300.0  300.0  300.0 1500.0
   44189313  130.0    0.0 1378.0 1739.0 1240.0   74.0  300.0  300.0  300.0  300.0 1490.0
   44193335  130.0    0.0 1403.0 1751.0 1250.0   75.0  300.0  300.0  300.0  300.0 1500.0
   44197340  130.0    0.0 1401.0 1791.0 1240.0   74.0  300.0  300.0  300.0  300.0 1500.0
   44201352  130.0    0.0 1361.0 1751.0 1230.0   73.0  300.0  300.0  300.0  300.0 1500.0
   44205353  130.0    0.0 1394.0 1730.0 1260.0   76.0  300.0  300.0  300.0  300.0 1500.0
   44209375  130.0    0.0 1418.0 1752.0 1260.0   76.0  300.0  300.0  300.0  300.0 1500.0
   44213384  130.0    0.0 1408.0 1813.0 1230.0   73.0  300.0  300.0  300.0  300.0 1500.0
   44217396  130.0    0.0 1385.0 1762.0 1240.0   74.0  300.0  300.0  300.0  300.0 1500.0
   44221401  130.0    0.0 1393.0 1758.0 1250.0   75.0  300.0  300.0  300.0  300.0 1490.0
   44225407  130.0    0.0 1397.0 1751.0 1250.0   75.0  300.0  300.0  300.0  300.0 1500.0
   44229400  130.0    0.0 1415.0 1748.0 1260.0   76.0  300.0  300.0  300.0  300.0 1500.0
