# 
~VERSION INFORMATION
     VERS.                              2.0:Версия формата LAS
     WRAP.                               NO:Режим одной строчки на временной отчет
~WELL INFORMATION
     STRT.ms                       35211431:Время первой записи в файле
     STOP.ms                       51799721:Время последней записи в файле
     STEP.ms                              0:Шаг времени, 0 - переменный шаг
     NULL.                          -999.25:Метка, нет значения
     DATE.                       27.07.2023:Дата каротажа
      DRV.                                 :Наименование драйвера прибора
     NAME.                             ГГКП:Название прибора
     SNUM.                         19399001:Серийный номер прибора
     FRMW.                         0.19.7.3:Версия прошивки на контроллере прибора
~CURVE INFORMATION
     TIME.ms                       {0,11:0}:Время, количество миллисекунд от начало суток
       MT.°C                               :Температура
      TFG.°                                :Гравитационный поворот
      RSD.имп./сек                         :Счёт, ближний зонд ГГКП
      RLD.имп./сек                         :Счёт, дальний зонд ГГКП
     RHOB.кг/м3                            :Плотность
   HCRHOB.g/cm3                            :Плотность, у.е.
     ADCS.mV                               :Измеренное напряжение порога компараторапо ближнему зонду
     ADCL.mV                               :Измеренное напряжение порога компараторапо дальнему зонду
    THLDS.mV                               :Выставленный порог компараторапо ближнему зонду
    THLDL.mV                               :Выставленный порог компараторапо дальнему зонду
    GRUHV.В                                :Напряжение на высоковольтнике Гамма
~OTHER INFORMATION


~A     TIME     MT    TFG    RSD    RLD   RHOB HCRHOB   ADCS   ADCL  THLDS  THLDL  GRUHV
# ...
   46037714  115.0    0.0 1444.0 1803.0 1250.0   75.0  300.0  300.0  300.0  300.0 1490.0
   46041718  115.0    0.0 1410.0 1792.0 1240.0   74.0  300.0  300.0  300.0  300.0 1500.0
   46045732  115.0    0.0 1435.0 1819.0 1240.0   74.0  300.0  300.0  300.0  300.0 1500.0
   46049738  115.0    0.0 1398.0 1787.0 1240.0   74.0  300.0  300.0  300.0  300.0 1500.0
   46053747  115.0    0.0 1402.0 1845.0 1220.0   72.0  300.0  300.0  300.0  300.0 1490.0
   46057752  115.0    0.0 1433.0 1771.0 1260.0   76.0  300.0  300.0  300.0  300.0 1500.0
   46061775  115.0    0.0 1409.0 1808.0 1230.0   73.0  300.0  300.0  300.0  300.0 1500.0
   46065763  114.0    0.0 1405.0 1795.0 1240.0   74.0  300.0  300.0  300.0  300.0 1490.0
   46069764  114.0    0.0 1402.0 1829.0 1220.0   72.0  300.0  300.0  300.0  300.0 1500.0
   46073782  115.0    0.0 1416.0 1771.0 1250.0   75.0  300.0  300.0  300.0  300.0 1490.0
   46077800  114.0    0.0 1382.0 1816.0 1220.0   72.0  300.0  300.0  300.0  300.0 1500.0
   46081809  114.0    0.0 1394.0 1767.0 1240.0   74.0  300.0  301.0  300.0  300.0 1500.0
   46085815  114.0    0.0 1441.0 1781.0 1260.0   76.0  300.0  300.0  300.0  300.0 1490.0
   46089814  114.0    0.0 1384.0 1800.0 1230.0   73.0  301.0  300.0  300.0  300.0 1500.0
   46093851  114.0    0.0 1441.0 1795.0 1250.0   75.0  300.0  300.0  300.0  300.0 1500.0
   46097851  114.0    0.0 1414.0 1791.0 1240.0   74.0  300.0  300.0  300.0  300.0 1500.0
   46101860  114.0    0.0 1426.0 1774.0 1250.0   75.0  301.0  300.0  300.0  300.0 1500.0
   46105876  114.0    0.0 1456.0 1776.0 1270.0   77.0  300.0  300.0  300.0  300.0 1500.0
   46109870  114.0    0.0 1409.0 1785.0 1240.0   74.0  300.0  300.0  300.0  300.0 1500.0
   46113876  114.0    0.0 1454.0 1832.0 1250.0   75.0  300.0  300.0  300.0  300.0 1500.0
   46117887  114.0    0.0 1399.0 1793.0 1240.0   74.0  301.0  300.0  300.0  300.0 1490.0
   46121910  114.0    0.0 1414.0 1793.0 1240.0   74.0  300.0  300.0  300.0  300.0 1480.0
   46125905  114.0    0.0 1414.0 1814.0 1230.0   73.0  300.0  300.0  300.0  300.0 1500.0
   46129920  114.0    0.0 1403.0 1796.0 1240.0   74.0  300.0  300.0  300.0  300.0 1490.0
   46133930  114.0    0.0 1408.0 1816.0 1230.0   73.0  301.0  300.0  300.0  300.0 1500.0
   46137955  114.0    0.0 1397.0 1788.0 1240.0   74.0  301.0  300.0  300.0  300.0 1500.0
   46141943  114.0    0.0 1415.0 1818.0 1230.0   73.0  301.0  300.0  300.0  300.0 1500.0
   46145955  114.0    0.0 1418.0 1822.0 1230.0   73.0  300.0  300.0  300.0  300.0 1500.0
   46149969  114.0    0.0 1449.0 1808.0 1250.0   75.0  301.0  300.0  300.0  300.0 1500.0
   46153995  114.0    0.0 1404.0 1779.0 1240.0   74.0  300.0  300.0  300.0  300.0 1490.0
   46158010  114.0    0.0 1428.0 1777.0 1250.0   75.0  301.0  300.0  300.0  300.0 1490.0
   46162017  114.0    0.0 1451.0 1777.0 1270.0   77.0  300.0  300.0  300.0  300.0 1500.0
   46166029  113.0    0.0 1438.0 1816.0 1240.0   74.0  301.0  300.0  300.0  300.0 1500.0
   46170044  113.0    0.0 1384.0 1789.0 1230.0   73.0  300.0  300.0  300.0  300.0 1500.0
   46174055  114.0    0.0 1436.0 1814.0 1240.0   74.0  301.0  300.0  300.0  300.0 1500.0
   46178075  114.0    0.0 1421.0 1782.0 1250.0   75.0  301.0  301.0  300.0  300.0 1490.0
   46182074  113.0    0.0 1429.0 1821.0 1240.0   74.0  301.0  300.0  300.0  300.0 1490.0
   46186083  114.0    0.0 1390.0 1841.0 1210.0   71.0  301.0  300.0  300.0  300.0 1510.0
   46190092  113.0    0.0 1420.0 1785.0 1250.0   75.0  300.0  300.0  300.0  300.0 1500.0
   46194093  113.0    0.0 1402.0 1775.0 1240.0   74.0  301.0  300.0  300.0  300.0 1490.0
   46198096  113.0    0.0 1415.0 1780.0 1250.0   75.0  300.0  300.0  300.0  300.0 1500.0
   46202126  113.0    0.0 1410.0 1780.0 1250.0   75.0  301.0  300.0  300.0  300.0 1500.0
   46206112  113.0    0.0 1426.0 1822.0 1240.0   74.0  300.0  300.0  300.0  300.0 1500.0
   46210131  113.0    0.0 1408.0 1768.0 1250.0   75.0  301.0  301.0  300.0  300.0 1490.0
   46214146  113.0    0.0 1438.0 1805.0 1250.0   75.0  300.0  300.0  300.0  300.0 1500.0
   46218151  113.0    0.0 1414.0 1775.0 1250.0   75.0  300.0  301.0  300.0  300.0 1500.0
   46222166  113.0    0.0 1422.0 1828.0 1230.0   73.0  300.0  300.0  300.0  300.0 1500.0
   46226173  113.0    0.0 1410.0 1778.0 1250.0   75.0  301.0  301.0  300.0  300.0 1500.0
   46230192  113.0    0.0 1415.0 1827.0 1230.0   73.0  301.0  300.0  300.0  300.0 1490.0
   46234200  113.0    0.0 1418.0 1784.0 1250.0   75.0  301.0  300.0  300.0  300.0 1500.0
   46238215  113.0    0.0 1430.0 1805.0 1250.0   75.0  301.0  300.0  300.0  300.0 1500.0
   46242218  113.0    0.0 1394.0 1780.0 1240.0   74.0  301.0  300.0  300.0  300.0 1490.0
   46246226  113.0    0.0 1398.0 1815.0 1230.0   73.0  300.0  300.0  300.0  300.0 1500.0
   46250243  113.0    0.0 1410.0 1800.0 1240.0   74.0  301.0  300.0  300.0  300.0 1500.0
   46254244  113.0    0.0 1443.0 1799.0 1250.0   75.0  300.0  300.0  300.0  300.0 1500.0
   46258250  113.0    0.0 1393.0 1800.0 1230.0   73.0  300.0  300.0  300.0  300.0 1500.0
   46262264  112.0    0.0 1397.0 1806.0 1230.0   73.0  300.0  300.0  300.0  300.0 1500.0
   46266273  112.0    0.0 1427.0 1797.0 1250.0   75.0  300.0  300.0  300.0  300.0 1500.0
   46270287  112.0    0.0 1428.0 1797.0 1250.0   75.0  300.0  300.0  300.0  300.0 1500.0
   46274294  112.0    0.0 1426.0 1769.0 1260.0   76.0  301.0  300.0  300.0  300.0 1500.0
   46278302  113.0    0.0 1409.0 1789.0 1240.0   74.0  301.0  300.0  300.0  300.0 1490.0
   46282314  113.0    0.0 1449.0 1823.0 1250.0   75.0  301.0  300.0  300.0  300.0 1500.0
   46286323  112.0    0.0 1415.0 1751.0 1260.0   76.0  301.0  300.0  300.0  300.0 1500.0
   46290342  112.0    0.0 1418.0 1789.0 1250.0   75.0  301.0  300.0  300.0  300.0 1500.0
   46294357  112.0    0.0 1428.0 1804.0 1240.0   74.0  300.0  300.0  300.0  300.0 1520.0
   46298368  112.0    0.0 1412.0 1780.0 1250.0   75.0  300.0  300.0  300.0  300.0 1500.0
   46302374  112.0    0.0 1401.0 1795.0 1240.0   74.0  301.0  300.0  300.0  300.0 1500.0
   46306392  112.0    0.0 1405.0 1734.0 1260.0   76.0  301.0  300.0  300.0  300.0 1500.0
   46310395  112.0    0.0 1393.0 1792.0 1230.0   73.0  300.0  300.0  300.0  300.0 1500.0
   46314409  112.0    0.0 1413.0 1796.0 1240.0   74.0  300.0  300.0  300.0  300.0 1490.0
   46318418  112.0    0.0 1388.0 1803.0 1230.0   73.0  300.0  300.0  300.0  300.0 1500.0
   46322442  112.0    0.0 1429.0 1827.0 1240.0   74.0  301.0  300.0  300.0  300.0 1500.0
   46326449  112.0    0.0 1416.0 1794.0 1240.0   74.0  301.0  300.0  300.0  300.0 1500.0
   46330452  112.0    0.0 1411.0 1797.0 1240.0   74.0  300.0  300.0  300.0  300.0 1500.0
   46334469  112.0    0.0 1406.0 1775.0 1240.0   74.0  300.0  300.0  300.0  300.0 1500.0
   46338475  112.0    0.0 1438.0 1814.0 1250.0   75.0  300.0  300.0  300.0  300.0 1500.0
   46342480  112.0    0.0 1409.0 1808.0 1230.0   73.0  300.0  300.0  300.0  300.0 1500.0
   46346485  112.0    0.0 1460.0 1805.0 1260.0   76.0  300.0  300.0  300.0  300.0 1490.0
   46350493  112.0    0.0 1390.0 1742.0 1250.0   75.0  301.0  300.0  300.0  300.0 1500.0
   46354504  112.0    0.0 1422.0 1826.0 1230.0   73.0  301.0  300.0  300.0  300.0 1500.0
   46358531  112.0    0.0 1388.0 1794.0 1230.0   73.0  301.0  300.0  300.0  300.0 1500.0
   46362530  112.0    0.0 1432.0 1777.0 1260.0   76.0  301.0  300.0  300.0  300.0 1500.0
   46366517  112.0    0.0 1431.0 1815.0 1240.0   74.0  301.0  300.0  300.0  300.0 1490.0
   46370540  112.0    0.0 1444.0 1777.0 1260.0   76.0  300.0  300.0  300.0  300.0 1500.0
   46374547  112.0    0.0 1403.0 1826.0 1220.0   72.0  300.0  300.0  300.0  300.0 1500.0
   46378555  112.0    0.0 1406.0 1776.0 1240.0   74.0  300.0  300.0  300.0  300.0 1500.0
   46382559  111.0    0.0 1434.0 1805.0 1250.0   75.0  301.0  300.0  300.0  300.0 1500.0
   46386575  111.0    0.0 1436.0 1815.0 1240.0   74.0  300.0  300.0  300.0  300.0 1500.0
   46390578  111.0    0.0 1434.0 1792.0 1250.0   75.0  301.0  300.0  300.0  300.0 1500.0
   46394594  111.0    0.0 1418.0 1818.0 1230.0   73.0  300.0  300.0  300.0  300.0 1500.0
