# 
~VERSION INFORMATION
     VERS.                              2.0:Версия формата LAS
     WRAP.                               NO:Режим одной строчки на временной отчет
~WELL INFORMATION
     STRT.ms                       35211431:Время первой записи в файле
     STOP.ms                       51799721:Время последней записи в файле
     STEP.ms                              0:Шаг времени, 0 - переменный шаг
     NULL.                          -999.25:Метка, нет значения
     DATE.                       27.07.2023:Дата каротажа
      DRV.                                 :Наименование драйвера прибора
     NAME.                             ГГКП:Название прибора
     SNUM.                         19399001:Серийный номер прибора
     FRMW.                         0.19.7.3:Версия прошивки на контроллере прибора
~CURVE INFORMATION
     TIME.ms                       {0,11:0}:Время, количество миллисекунд от начало суток
       MT.°C                               :Температура
      TFG.°                                :Гравитационный поворот
      RSD.имп./сек                         :Счёт, ближний зонд ГГКП
      RLD.имп./сек                         :Счёт, дальний зонд ГГКП
     RHOB.кг/м3                            :Плотность
   HCRHOB.g/cm3                            :Плотность, у.е.
     ADCS.mV                               :Измеренное напряжение порога компараторапо ближнему зонду
     ADCL.mV                               :Измеренное напряжение порога компараторапо дальнему зонду
    THLDS.mV                               :Выставленный порог компараторапо ближнему зонду
    THLDL.mV                               :Выставленный порог компараторапо дальнему зонду
    GRUHV.В                                :Напряжение на высоковольтнике Гамма
~OTHER INFORMATION


~A     TIME     MT    TFG    RSD    RLD   RHOB HCRHOB   ADCS   ADCL  THLDS  THLDL  GRUHV
# ...
   50368079   76.0    0.0 1423.0 1783.0 1250.0   75.0  301.0  300.0  300.0  300.0 1500.0
   50372088   76.0    0.0 1423.0 1814.0 1240.0   74.0  301.0  300.0  300.0  300.0 1500.0
   50376110   76.0    0.0 1449.0 1829.0 1240.0   74.0  301.0  299.0  300.0  300.0 1500.0
   50380122   76.0    0.0 1433.0 1811.0 1240.0   74.0  301.0  300.0  300.0  300.0 1500.0
   50384148   76.0    0.0 1432.0 1819.0 1240.0   74.0  301.0  300.0  300.0  300.0 1500.0
   50388153   76.0    0.0 1468.0 1807.0 1260.0   76.0  301.0  300.0  300.0  300.0 1500.0
   50392142   76.0    0.0 1418.0 1829.0 1230.0   73.0  300.0  300.0  300.0  300.0 1500.0
   50396152   76.0    0.0 1448.0 1827.0 1250.0   75.0  301.0  300.0  300.0  300.0 1500.0
   50400171   76.0    0.0 1430.0 1813.0 1240.0   74.0  300.0  300.0  300.0  300.0 1500.0
   50404187   76.0    0.0 1455.0 1812.0 1250.0   75.0  300.0  300.0  300.0  300.0 1500.0
   50408202   76.0    0.0 1447.0 1797.0 1260.0   76.0  301.0  300.0  300.0  300.0 1500.0
   50412210   76.0    0.0 1448.0 1785.0 1260.0   76.0  301.0  299.0  300.0  300.0 1500.0
   50416229   76.0    0.0 1444.0 1814.0 1250.0   75.0  301.0  300.0  300.0  300.0 1500.0
   50420231   76.0    0.0 1422.0 1815.0 1240.0   74.0  301.0  300.0  300.0  300.0 1490.0
   50424227   76.0    0.0 1443.0 1818.0 1250.0   75.0  301.0  300.0  300.0  300.0 1500.0
   50428210   76.0    0.0 1436.0 1762.0 1260.0   76.0  300.0  300.0  300.0  300.0 1500.0
   50432227   76.0    0.0 1435.0 1819.0 1240.0   74.0  301.0  300.0  300.0  300.0 1500.0
   50436234   76.0    0.0 1422.0 1796.0 1240.0   74.0  300.0  300.0  300.0  300.0 1490.0
   50440235   75.0    0.0 1428.0 1807.0 1240.0   74.0  300.0  300.0  300.0  300.0 1500.0
   50444243   76.0    0.0 1444.0 1784.0 1260.0   76.0  300.0  300.0  300.0  300.0 1500.0
   50448250   76.0    0.0 1449.0 1814.0 1250.0   75.0  301.0  300.0  300.0  300.0 1490.0
   50452256   76.0    0.0 1447.0 1779.0 1260.0   76.0  300.0  300.0  300.0  300.0 1500.0
   50456262   75.0    0.0 1441.0 1755.0 1270.0   77.0  301.0  300.0  300.0  300.0 1500.0
   50460276   75.0    0.0 1463.0 1783.0 1270.0   77.0  300.0  300.0  300.0  300.0 1500.0
   50464285   75.0    0.0 1409.0 1817.0 1230.0   73.0  301.0  300.0  300.0  300.0 1490.0
   50468301   75.0    0.0 1443.0 1793.0 1260.0   76.0  301.0  300.0  300.0  300.0 1500.0
   50472320   75.0    0.0 1417.0 1798.0 1240.0   74.0  301.0  300.0  300.0  300.0 1490.0
   50476329   75.0    0.0 1449.0 1785.0 1260.0   76.0  301.0  300.0  300.0  300.0 1500.0
   50480357   75.0    0.0 1407.0 1812.0 1230.0   73.0  300.0  300.0  300.0  300.0 1500.0
   50484359   75.0    0.0 1438.0 1816.0 1240.0   74.0  300.0  300.0  300.0  300.0 1490.0
   50488355   75.0    0.0 1434.0 1764.0 1260.0   76.0  301.0  300.0  300.0  300.0 1500.0
   50492361   75.0    0.0 1436.0 1838.0 1240.0   74.0  300.0  300.0  300.0  300.0 1490.0
   50496379   75.0    0.0 1438.0 1786.0 1260.0   76.0  301.0  300.0  300.0  300.0 1500.0
   50500388   75.0    0.0 1415.0 1833.0 1230.0   73.0  300.0  300.0  300.0  300.0 1490.0
   50504411   75.0    0.0 1446.0 1787.0 1260.0   76.0  300.0  300.0  300.0  300.0 1500.0
   50508416   75.0    0.0 1451.0 1820.0 1250.0   75.0  301.0  300.0  300.0  300.0 1500.0
   50512414   75.0    0.0 1472.0 1822.0 1260.0   76.0  301.0  300.0  300.0  300.0 1500.0
   50516447   75.0    0.0 1425.0 1844.0 1230.0   73.0  300.0  300.0  300.0  300.0 1500.0
   50520445   75.0    0.0 1430.0 1811.0 1240.0   74.0  301.0  300.0  300.0  300.0 1500.0
   50524447   75.0    0.0 1480.0 1788.0 1270.0   77.0  301.0  300.0  300.0  300.0 1510.0
   50528448   75.0    0.0 1425.0 1805.0 1240.0   74.0  301.0  300.0  300.0  300.0 1500.0
   50532450   75.0    0.0 1451.0 1818.0 1250.0   75.0  301.0  300.0  300.0  300.0 1490.0
   50536465   75.0    0.0 1433.0 1805.0 1250.0   75.0  301.0  300.0  300.0  300.0 1500.0
   50540472   75.0    0.0 1427.0 1806.0 1240.0   74.0  301.0  300.0  300.0  300.0 1500.0
   50544478   75.0    0.0 1434.0 1815.0 1240.0   74.0  301.0  300.0  300.0  300.0 1500.0
   50548486   75.0    0.0 1417.0 1833.0 1230.0   73.0  301.0  300.0  300.0  300.0 1500.0
   50552502   75.0    0.0 1439.0 1837.0 1240.0   74.0  301.0  300.0  300.0  300.0 1500.0
   50556510   74.0    0.0 1453.0 1820.0 1250.0   75.0  301.0  300.0  300.0  300.0 1500.0
   50560522   75.0    0.0 1453.0 1791.0 1260.0   76.0  301.0  300.0  300.0  300.0 1500.0
   50564530   75.0    0.0 1425.0 1805.0 1240.0   74.0  301.0  300.0  300.0  300.0 1490.0
   50568541   74.0    0.0 1456.0 1791.0 1260.0   76.0  301.0  300.0  300.0  300.0 1500.0
   50572550   74.0    0.0 1422.0 1842.0 1230.0   73.0  300.0  300.0  300.0  300.0 1490.0
   50576561   74.0    0.0 1441.0 1804.0 1250.0   75.0  301.0  300.0  300.0  300.0 1500.0
   50580569   74.0    0.0 1419.0 1823.0 1230.0   73.0  301.0  300.0  300.0  300.0 1500.0
   50584578   74.0    0.0 1442.0 1815.0 1250.0   75.0  301.0  300.0  300.0  300.0 1500.0
   50588583   74.0    0.0 1461.0 1806.0 1260.0   76.0  301.0  300.0  300.0  300.0 1490.0
   50592591   74.0    0.0 1473.0 1852.0 1250.0   75.0  301.0  300.0  300.0  300.0 1500.0
   50596607   74.0    0.0 1418.0 1790.0 1240.0   74.0  301.0  300.0  300.0  300.0 1500.0
   50600622   74.0    0.0 1449.0 1856.0 1240.0   74.0  301.0  300.0  300.0  300.0 1500.0
   50604629   74.0    0.0 1418.0 1844.0 1230.0   73.0  300.0  300.0  300.0  300.0 1500.0
   50608648   74.0    0.0 1443.0 1820.0 1250.0   75.0  301.0  300.0  300.0  300.0 1500.0
   50612651   74.0    0.0 1453.0 1846.0 1240.0   74.0  301.0  300.0  300.0  300.0 1500.0
   50616644   74.0    0.0 1483.0 1824.0 1260.0   76.0  301.0  300.0  300.0  300.0 1490.0
   50620662   74.0    0.0 1427.0 1804.0 1240.0   74.0  301.0  300.0  300.0  300.0 1500.0
   50624667   74.0    0.0 1423.0 1794.0 1250.0   75.0  301.0  300.0  300.0  300.0 1500.0
   50628677   74.0    0.0 1429.0 1858.0 1230.0   73.0  301.0  300.0  300.0  300.0 1500.0
   50632692   74.0    0.0 1415.0 1792.0 1240.0   74.0  300.0  300.0  300.0  300.0 1490.0
   50636689   74.0    0.0 1443.0 1779.0 1260.0   76.0  300.0  299.0  300.0  300.0 1500.0
   50640707   74.0    0.0 1467.0 1816.0 1260.0   76.0  301.0  299.0  300.0  300.0 1490.0
   50644721   74.0    0.0 1468.0 1793.0 1270.0   77.0  301.0  300.0  300.0  300.0 1500.0
   50648722   74.0    0.0 1440.0 1788.0 1260.0   76.0  301.0  300.0  300.0  300.0 1500.0
   50652740   74.0    0.0 1421.0 1803.0 1240.0   74.0  301.0  300.0  300.0  300.0 1490.0
   50656744   74.0    0.0 1445.0 1830.0 1240.0   74.0  300.0  300.0  300.0  300.0 1490.0
   50660765   74.0    0.0 1465.0 1840.0 1250.0   75.0  300.0  300.0  300.0  300.0 1500.0
   50664764   74.0    0.0 1452.0 1848.0 1240.0   74.0  300.0  300.0  300.0  300.0 1500.0
   50668776   74.0    0.0 1431.0 1804.0 1250.0   75.0  300.0  299.0  300.0  300.0 1500.0
   50672780   74.0    0.0 1413.0 1794.0 1240.0   74.0  300.0  300.0  300.0  300.0 1500.0
   50676797   74.0    0.0 1433.0 1796.0 1250.0   75.0  301.0  300.0  300.0  300.0 1500.0
   50680804   73.0    0.0 1470.0 1809.0 1260.0   76.0  300.0  300.0  300.0  300.0 1490.0
   50684815   73.0    0.0 1430.0 1838.0 1230.0   73.0  301.0  300.0  300.0  300.0 1490.0
   50688828   73.0    0.0 1419.0 1793.0 1240.0   74.0  301.0  300.0  300.0  300.0 1490.0
   50692833   73.0    0.0 1412.0 1808.0 1240.0   74.0  300.0  300.0  300.0  300.0 1500.0
   50696840   73.0    0.0 1434.0 1829.0 1240.0   74.0  301.0  300.0  300.0  300.0 1500.0
   50700867   73.0    0.0 1451.0 1818.0 1250.0   75.0  300.0  300.0  300.0  300.0 1490.0
   50704871   73.0    0.0 1431.0 1784.0 1250.0   75.0  300.0  300.0  300.0  300.0 1490.0
   50708886   73.0    0.0 1425.0 1807.0 1240.0   74.0  300.0  300.0  300.0  300.0 1490.0
   50712891   73.0    0.0 1464.0 1814.0 1260.0   76.0  301.0  300.0  300.0  300.0 1500.0
   50716908   73.0    0.0 1439.0 1787.0 1260.0   76.0  301.0  300.0  300.0  300.0 1500.0
   50720923   73.0    0.0 1431.0 1829.0 1240.0   74.0  301.0  300.0  300.0  300.0 1490.0
   50724927   73.0    0.0 1460.0 1806.0 1260.0   76.0  301.0  300.0  300.0  300.0 1500.0
