# 
~VERSION INFORMATION
     VERS.                              2.0:Версия формата LAS
     WRAP.                               NO:Режим одной строчки на временной отчет
~WELL INFORMATION
     STRT.ms                       35211431:Время первой записи в файле
     STOP.ms                       51799721:Время последней записи в файле
     STEP.ms                              0:Шаг времени, 0 - переменный шаг
     NULL.                          -999.25:Метка, нет значения
     DATE.                       27.07.2023:Дата каротажа
      DRV.                                 :Наименование драйвера прибора
     NAME.                             ГГКП:Название прибора
     SNUM.                         19399001:Серийный номер прибора
     FRMW.                         0.19.7.3:Версия прошивки на контроллере прибора
~CURVE INFORMATION
     TIME.ms                       {0,11:0}:Время, количество миллисекунд от начало суток
       MT.°C                               :Температура
      TFG.°                                :Гравитационный поворот
      RSD.имп./сек                         :Счёт, ближний зонд ГГКП
      RLD.имп./сек                         :Счёт, дальний зонд ГГКП
     RHOB.кг/м3                            :Плотность
   HCRHOB.g/cm3                            :Плотность, у.е.
     ADCS.mV                               :Измеренное напряжение порога компараторапо ближнему зонду
     ADCL.mV                               :Измеренное напряжение порога компараторапо дальнему зонду
    THLDS.mV                               :Выставленный порог компараторапо ближнему зонду
    THLDL.mV                               :Выставленный порог компараторапо дальнему зонду
    GRUHV.В                                :Напряжение на высоковольтнике Гамма
~OTHER INFORMATION


~A     TIME     MT    TFG    RSD    RLD   RHOB HCRHOB   ADCS   ADCL  THLDS  THLDL  GRUHV
# ...
   36293961  102.0    0.0 1424.0 1805.0 1240.0   74.0  300.0  300.0  300.0  300.0 1490.0
   36297961  102.0    0.0 1450.0 1763.0 1270.0   77.0  301.0  300.0  300.0  300.0 1500.0
   36301961  102.0    0.0 1392.0 1770.0 1240.0   74.0  301.0  300.0  300.0  300.0 1500.0
   36305977  102.0    0.0 1458.0 1769.0 1270.0   77.0  301.0  300.0  300.0  300.0 1500.0
   36309983  102.0    0.0 1401.0 1814.0 1230.0   73.0  301.0  301.0  300.0  300.0 1490.0
   36313989  102.0    0.0 1435.0 1791.0 1250.0   75.0  301.0  300.0  300.0  300.0 1500.0
   36317998  102.0    0.0 1405.0 1783.0 1240.0   74.0  301.0  300.0  300.0  300.0 1500.0
   36322005  102.0    0.0 1407.0 1775.0 1250.0   75.0  301.0  300.0  300.0  300.0 1490.0
   36326013  102.0    0.0 1430.0 1794.0 1250.0   75.0  301.0  300.0  300.0  300.0 1500.0
   36330012  102.0    0.0 1452.0 1775.0 1270.0   77.0  301.0  300.0  300.0  300.0 1500.0
   36334021  102.0    0.0 1400.0 1787.0 1240.0   74.0  301.0  300.0  300.0  300.0 1490.0
   36338028  102.0    0.0 1470.0 1793.0 1270.0   77.0  301.0  300.0  300.0  300.0 1500.0
   36342036  102.0    0.0 1423.0 1780.0 1250.0   75.0  301.0  300.0  300.0  300.0 1500.0
   36346043  102.0    0.0 1402.0 1776.0 1240.0   74.0  301.0  300.0  300.0  300.0 1500.0
   36350049  102.0    0.0 1421.0 1763.0 1260.0   76.0  301.0  300.0  300.0  300.0 1490.0
   36354051  102.0    0.0 1406.0 1756.0 1250.0   75.0  301.0  300.0  300.0  300.0 1500.0
   36358058  102.0    0.0 1417.0 1822.0 1230.0   73.0  300.0  300.0  300.0  300.0 1500.0
   36362066  102.0    0.0 1416.0 1796.0 1240.0   74.0  301.0  300.0  300.0  300.0 1500.0
   36366074  102.0    0.0 1450.0 1788.0 1260.0   76.0  301.0  300.0  300.0  300.0 1500.0
   36370079  102.0    0.0 1431.0 1770.0 1260.0   76.0  300.0  300.0  300.0  300.0 1490.0
   36374088  102.0    0.0 1435.0 1753.0 1270.0   77.0  301.0  300.0  300.0  300.0 1500.0
   36378096  102.0    0.0 1443.0 1794.0 1250.0   75.0  301.0  300.0  300.0  300.0 1490.0
   36382104  102.0    0.0 1447.0 1771.0 1270.0   77.0  301.0  300.0  300.0  300.0 1490.0
   36386104  102.0    0.0 1414.0 1737.0 1260.0   76.0  300.0  300.0  300.0  300.0 1500.0
   36390114  102.0    0.0 1424.0 1779.0 1250.0   75.0  301.0  300.0  300.0  300.0 1490.0
   36394121  102.0    0.0 1431.0 1814.0 1240.0   74.0  301.0  300.0  300.0  300.0 1480.0
   36398129  102.0    0.0 1430.0 1799.0 1250.0   75.0  300.0  300.0  300.0  300.0 1500.0
   36402147  102.0    0.0 1440.0 1817.0 1250.0   75.0  301.0  300.0  300.0  300.0 1500.0
   36406146  102.0    0.0 1434.0 1760.0 1260.0   76.0  301.0  300.0  300.0  300.0 1510.0
   36410146  102.0    0.0 1464.0 1763.0 1280.0   78.0  301.0  300.0  300.0  300.0 1500.0
   36414153  102.0    0.0 1440.0 1798.0 1250.0   75.0  301.0  300.0  300.0  300.0 1500.0
   36418161  102.0    0.0 1416.0 1805.0 1240.0   74.0  301.0  300.0  300.0  300.0 1500.0
   36422168  102.0    0.0 1422.0 1811.0 1240.0   74.0  300.0  300.0  300.0  300.0 1500.0
   36426175  102.0    0.0 1450.0 1815.0 1250.0   75.0  300.0  300.0  300.0  300.0 1500.0
   36430197  102.0    0.0 1421.0 1762.0 1260.0   76.0  301.0  300.0  300.0  300.0 1500.0
   36434205  102.0    0.0 1458.0 1786.0 1260.0   76.0  301.0  300.0  300.0  300.0 1500.0
   36438201  102.0    0.0 1430.0 1790.0 1250.0   75.0  300.0  300.0  300.0  300.0 1500.0
   36442222  102.0    0.0 1438.0 1791.0 1250.0   75.0  301.0  300.0  300.0  300.0 1500.0
   36446238  102.0    0.0 1436.0 1800.0 1250.0   75.0  301.0  300.0  300.0  300.0 1500.0
   36450256  102.0    0.0 1411.0 1751.0 1260.0   76.0  301.0  300.0  300.0  300.0 1500.0
   36454247  102.0    0.0 1425.0 1839.0 1230.0   73.0  301.0  300.0  300.0  300.0 1500.0
   36458271  102.0    0.0 1442.0 1815.0 1250.0   75.0  301.0  300.0  300.0  300.0 1490.0
   36462278  102.0    0.0 1452.0 1788.0 1260.0   76.0  301.0  300.0  300.0  300.0 1510.0
   36466286  102.0    0.0 1442.0 1779.0 1260.0   76.0  300.0  300.0  300.0  300.0 1500.0
   36470303  102.0    0.0 1425.0 1815.0 1240.0   74.0  300.0  300.0  300.0  300.0 1500.0
   36474312  102.0    0.0 1435.0 1801.0 1250.0   75.0  301.0  300.0  300.0  300.0 1500.0
   36478318  102.0    0.0 1396.0 1746.0 1250.0   75.0  301.0  300.0  300.0  300.0 1500.0
   36482324  102.0    0.0 1426.0 1829.0 1230.0   73.0  301.0  300.0  300.0  300.0 1500.0
   36486335  102.0    0.0 1394.0 1775.0 1240.0   74.0  301.0  300.0  300.0  300.0 1500.0
   36490336  102.0    0.0 1431.0 1789.0 1250.0   75.0  301.0  300.0  300.0  300.0 1490.0
   36494344  102.0    0.0 1449.0 1781.0 1260.0   76.0  300.0  300.0  300.0  300.0 1500.0
   36498352  102.0    0.0 1438.0 1790.0 1250.0   75.0  301.0  300.0  300.0  300.0 1500.0
   36502359  102.0    0.0 1429.0 1770.0 1260.0   76.0  301.0  300.0  300.0  300.0 1500.0
   36506365  102.0    0.0 1403.0 1815.0 1230.0   73.0  300.0  300.0  300.0  300.0 1500.0
   36510374  102.0    0.0 1470.0 1775.0 1270.0   77.0  300.0  300.0  300.0  300.0 1500.0
   36514398  102.0    0.0 1448.0 1789.0 1260.0   76.0  301.0  300.0  300.0  300.0 1500.0
   36518407  102.0    0.0 1438.0 1788.0 1260.0   76.0  301.0  300.0  300.0  300.0 1500.0
   36522410  102.0    0.0 1447.0 1819.0 1250.0   75.0  301.0  300.0  300.0  300.0 1500.0
   36526417  102.0    0.0 1426.0 1834.0 1230.0   73.0  300.0  300.0  300.0  300.0 1490.0
   36530438  102.0    0.0 1407.0 1842.0 1220.0   72.0  300.0  300.0  300.0  300.0 1500.0
   36534440  102.0    0.0 1432.0 1831.0 1240.0   74.0  301.0  300.0  300.0  300.0 1500.0
   36538450  103.0    0.0 1417.0 1832.0 1230.0   73.0  301.0  300.0  300.0  300.0 1490.0
   36542460  102.0    0.0 1415.0 1801.0 1240.0   74.0  300.0  300.0  300.0  300.0 1500.0
   36546460  102.0    0.0 1436.0 1762.0 1260.0   76.0  301.0  300.0  300.0  300.0 1500.0
   36550468  102.0    0.0 1419.0 1784.0 1250.0   75.0  301.0  300.0  300.0  300.0 1500.0
   36554476  103.0    0.0 1421.0 1784.0 1250.0   75.0  301.0  300.0  300.0  300.0 1500.0
   36558499  103.0    0.0 1417.0 1794.0 1240.0   74.0  301.0  300.0  300.0  300.0 1510.0
   36562499  103.0    0.0 1424.0 1784.0 1250.0   75.0  301.0  300.0  300.0  300.0 1510.0
   36566504  103.0    0.0 1431.0 1801.0 1250.0   75.0  301.0  300.0  300.0  300.0 1500.0
   36570512  103.0    0.0 1436.0 1820.0 1240.0   74.0  300.0  300.0  300.0  300.0 1500.0
   36574536  103.0    0.0 1428.0 1797.0 1250.0   75.0  301.0  300.0  300.0  300.0 1490.0
   36578544  103.0    0.0 1451.0 1823.0 1250.0   75.0  301.0  300.0  300.0  300.0 1500.0
   36582553  102.0    0.0 1422.0 1765.0 1260.0   76.0  301.0  300.0  300.0  300.0 1500.0
   36586560  103.0    0.0 1430.0 1786.0 1250.0   75.0  301.0  300.0  300.0  300.0 1500.0
   36590572  103.0    0.0 1437.0 1788.0 1250.0   75.0  301.0  300.0  300.0  300.0 1490.0
   36594572  103.0    0.0 1432.0 1791.0 1250.0   75.0  301.0  300.0  300.0  300.0 1500.0
   36598576  103.0    0.0 1426.0 1790.0 1250.0   75.0  301.0  300.0  300.0  300.0 1500.0
   36602581  103.0    0.0 1448.0 1834.0 1240.0   74.0  301.0  300.0  300.0  300.0 1490.0
   36606590  103.0    0.0 1434.0 1758.0 1260.0   76.0  301.0  300.0  300.0  300.0 1500.0
   36610611  103.0    0.0 1457.0 1790.0 1260.0   76.0  301.0  300.0  300.0  300.0 1500.0
   36614613  103.0    0.0 1422.0 1774.0 1250.0   75.0  301.0  300.0  300.0  300.0 1500.0
   36618608  103.0    0.0 1432.0 1767.0 1260.0   76.0  301.0  300.0  300.0  300.0 1490.0
   36622631  103.0    0.0 1424.0 1817.0 1240.0   74.0  300.0  300.0  300.0  300.0 1500.0
   36626652  103.0    0.0 1462.0 1752.0 1280.0   78.0  301.0  300.0  300.0  300.0 1500.0
   36630653  103.0    0.0 1456.0 1816.0 1250.0   75.0  301.0  300.0  300.0  300.0 1500.0
   36634661  103.0    0.0 1439.0 1774.0 1260.0   76.0  301.0  300.0  300.0  300.0 1500.0
   36638686  103.0    0.0 1440.0 1801.0 1250.0   75.0  301.0  300.0  300.0  300.0 1500.0
   36642687  103.0    0.0 1435.0 1795.0 1250.0   75.0  301.0  300.0  300.0  300.0 1500.0
   36646693  103.0    0.0 1468.0 1789.0 1270.0   77.0  301.0  300.0  300.0  300.0 1500.0
   36650699  103.0    0.0 1431.0 1816.0 1240.0   74.0  301.0  300.0  300.0  300.0 1510.0
