# 
~VERSION INFORMATION
     VERS.                              2.0:Версия формата LAS
     WRAP.                               NO:Режим одной строчки на временной отчет
~WELL INFORMATION
     STRT.ms                       35211431:Время первой записи в файле
     STOP.ms                       51799721:Время последней записи в файле
     STEP.ms                              0:Шаг времени, 0 - переменный шаг
     NULL.                          -999.25:Метка, нет значения
     DATE.                       27.07.2023:Дата каротажа
      DRV.                                 :Наименование драйвера прибора
     NAME.                             ГГКП:Название прибора
     SNUM.                         19399001:Серийный номер прибора
     FRMW.                         0.19.7.3:Версия прошивки на контроллере прибора
~CURVE INFORMATION
     TIME.ms                       {0,11:0}:Время, количество миллисекунд от начало суток
       MT.°C                               :Температура
      TFG.°                                :Гравитационный поворот
      RSD.имп./сек                         :Счёт, ближний зонд ГГКП
      RLD.имп./сек                         :Счёт, дальний зонд ГГКП
     RHOB.кг/м3                            :Плотность
   HCRHOB.g/cm3                            :Плотность, у.е.
     ADCS.mV                               :Измеренное напряжение порога компараторапо ближнему зонду
     ADCL.mV                               :Измеренное напряжение порога компараторапо дальнему зонду
    THLDS.mV                               :Выставленный порог компараторапо ближнему зонду
    THLDL.mV                               :Выставленный порог компараторапо дальнему зонду
    GRUHV.В                                :Напряжение на высоковольтнике Гамма
~OTHER INFORMATION


~A     TIME     MT    TFG    RSD    RLD   RHOB HCRHOB   ADCS   ADCL  THLDS  THLDL  GRUHV
# ...
   40624220  118.0    0.0 1451.0 1777.0 1260.0   76.0  300.0  300.0  300.0  300.0 1490.0
   40628235  118.0    0.0 1400.0 1793.0 1240.0   74.0  301.0  300.0  300.0  300.0 1480.0
   40632258  118.0    0.0 1401.0 1730.0 1260.0   76.0  301.0  300.0  300.0  300.0 1500.0
   40636280  118.0    0.0 1407.0 1780.0 1240.0   74.0  301.0  300.0  300.0  300.0 1500.0
   40640283  118.0    0.0 1453.0 1759.0 1270.0   77.0  301.0  300.0  300.0  300.0 1500.0
   40644290  118.0    0.0 1399.0 1748.0 1250.0   75.0  301.0  300.0  300.0  300.0 1510.0
   40648303  118.0    0.0 1389.0 1766.0 1240.0   74.0  301.0  301.0  300.0  300.0 1470.0
   40652325  118.0    0.0 1398.0 1770.0 1240.0   74.0  301.0  300.0  300.0  300.0 1500.0
   40656346  118.0    0.0 1409.0 1774.0 1250.0   75.0  301.0  300.0  300.0  300.0 1500.0
   40660353  118.0    0.0 1408.0 1769.0 1250.0   75.0  301.0  300.0  300.0  300.0 1500.0
   40664350  118.0    0.0 1455.0 1756.0 1270.0   77.0  300.0  301.0  300.0  300.0 1490.0
   40668354  118.0    0.0 1409.0 1809.0 1230.0   73.0  301.0  300.0  300.0  300.0 1500.0
   40672366  118.0    0.0 1423.0 1769.0 1260.0   76.0  300.0  300.0  300.0  300.0 1500.0
   40676389  118.0    0.0 1390.0 1778.0 1240.0   74.0  301.0  300.0  300.0  300.0 1500.0
   40680395  118.0    0.0 1417.0 1774.0 1250.0   75.0  300.0  300.0  300.0  300.0 1500.0
   40684395  118.0    0.0 1418.0 1799.0 1240.0   74.0  300.0  300.0  300.0  300.0 1500.0
   40688402  118.0    0.0 1441.0 1784.0 1260.0   76.0  301.0  300.0  300.0  300.0 1500.0
   40692434  118.0    0.0 1424.0 1796.0 1250.0   75.0  301.0  300.0  300.0  300.0 1500.0
   40696445  118.0    0.0 1429.0 1791.0 1250.0   75.0  301.0  300.0  300.0  300.0 1470.0
   40700452  118.0    0.0 1433.0 1771.0 1260.0   76.0  301.0  300.0  300.0  300.0 1500.0
   40704474  118.0    0.0 1409.0 1803.0 1240.0   74.0  300.0  301.0  300.0  300.0 1500.0
   40708492  118.0    0.0 1410.0 1795.0 1240.0   74.0  301.0  300.0  300.0  300.0 1500.0
   40712499  118.0    0.0 1391.0 1809.0 1230.0   73.0  300.0  300.0  300.0  300.0 1500.0
   40716508  118.0    0.0 1436.0 1777.0 1260.0   76.0  300.0  300.0  300.0  300.0 1500.0
   40720514  118.0    0.0 1416.0 1769.0 1250.0   75.0  300.0  301.0  300.0  300.0 1500.0
   40724520  118.0    0.0 1426.0 1753.0 1260.0   76.0  301.0  300.0  300.0  300.0 1510.0
   40728534  118.0    0.0 1452.0 1758.0 1270.0   77.0  300.0  300.0  300.0  300.0 1500.0
   40732556  118.0    0.0 1422.0 1761.0 1260.0   76.0  301.0  300.0  300.0  300.0 1500.0
   40736577  118.0    0.0 1452.0 1761.0 1270.0   77.0  300.0  300.0  300.0  300.0 1500.0
   40740599  119.0    0.0 1427.0 1749.0 1260.0   76.0  301.0  301.0  300.0  300.0 1500.0
   40744610  118.0    0.0 1415.0 1794.0 1240.0   74.0  300.0  300.0  300.0  300.0 1500.0
   40748632  119.0    0.0 1424.0 1762.0 1260.0   76.0  301.0  300.0  300.0  300.0 1500.0
   40752655  118.0    0.0 1442.0 1789.0 1260.0   76.0  301.0  300.0  300.0  300.0 1500.0
   40756665  119.0    0.0 1436.0 1787.0 1250.0   75.0  301.0  300.0  300.0  300.0 1500.0
   40760681  118.0    0.0 1419.0 1758.0 1260.0   76.0  300.0  300.0  300.0  300.0 1500.0
   40764693  119.0    0.0 1392.0 1768.0 1240.0   74.0  301.0  300.0  300.0  300.0 1500.0
   40768716  119.0    0.0 1414.0 1751.0 1260.0   76.0  301.0  300.0  300.0  300.0 1500.0
   40772740  118.0    0.0 1391.0 1755.0 1250.0   75.0  301.0  300.0  300.0  300.0 1500.0
   40776763  118.0    0.0 1423.0 1751.0 1260.0   76.0  301.0  300.0  300.0  300.0 1490.0
   40780783  118.0    0.0 1435.0 1718.0 1280.0   78.0  300.0  300.0  300.0  300.0 1500.0
   40784796  118.0    0.0 1430.0 1772.0 1260.0   76.0  301.0  300.0  300.0  300.0 1500.0
   40788802  118.0    0.0 1428.0 1776.0 1250.0   75.0  301.0  300.0  300.0  300.0 1500.0
   40792823  118.0    0.0 1429.0 1733.0 1270.0   77.0  301.0  300.0  300.0  300.0 1500.0
   40796839  119.0    0.0 1423.0 1777.0 1250.0   75.0  300.0  300.0  300.0  300.0 1500.0
   40800850  119.0    0.0 1427.0 1770.0 1260.0   76.0  300.0  300.0  300.0  300.0 1500.0
   40804856  119.0    0.0 1428.0 1754.0 1260.0   76.0  300.0  300.0  300.0  300.0 1500.0
   40808862  119.0    0.0 1421.0 1783.0 1250.0   75.0  301.0  300.0  300.0  300.0 1500.0
   40812876  119.0    0.0 1458.0 1784.0 1270.0   77.0  301.0  300.0  300.0  300.0 1500.0
   40816897  119.0    0.0 1410.0 1794.0 1240.0   74.0  301.0  300.0  300.0  300.0 1500.0
   40820919  119.0    0.0 1426.0 1756.0 1260.0   76.0  300.0  300.0  300.0  300.0 1500.0
   40824934  119.0    0.0 1431.0 1794.0 1250.0   75.0  301.0  300.0  300.0  300.0 1500.0
   40828943  119.0    0.0 1418.0 1754.0 1260.0   76.0  301.0  300.0  300.0  300.0 1500.0
   40832942  119.0    0.0 1443.0 1780.0 1260.0   76.0  300.0  300.0  300.0  300.0 1490.0
   40836958  119.0    0.0 1414.0 1768.0 1250.0   75.0  301.0  300.0  300.0  300.0 1500.0
   40840957  119.0    0.0 1423.0 1754.0 1260.0   76.0  300.0  300.0  300.0  300.0 1500.0
   40844965  119.0    0.0 1406.0 1748.0 1250.0   75.0  300.0  300.0  300.0  300.0 1490.0
   40848972  119.0    0.0 1407.0 1784.0 1240.0   74.0  300.0  300.0  300.0  300.0 1510.0
   40852977  119.0    0.0 1422.0 1784.0 1250.0   75.0  301.0  300.0  300.0  300.0 1500.0
   40856983  119.0    0.0 1410.0 1797.0 1240.0   74.0  301.0  300.0  300.0  300.0 1500.0
   40860989  119.0    0.0 1410.0 1739.0 1260.0   76.0  301.0  300.0  300.0  300.0 1500.0
   40864991  119.0    0.0 1396.0 1806.0 1230.0   73.0  300.0  300.0  300.0  300.0 1500.0
   40869004  119.0    0.0 1403.0 1734.0 1260.0   76.0  300.0  300.0  300.0  300.0 1500.0
   40873008  119.0    0.0 1404.0 1738.0 1260.0   76.0  300.0  301.0  300.0  300.0 1500.0
   40877016  119.0    0.0 1399.0 1773.0 1240.0   74.0  300.0  300.0  300.0  300.0 1500.0
   40881039  119.0    0.0 1426.0 1759.0 1260.0   76.0  300.0  300.0  300.0  300.0 1500.0
   40885064  119.0    0.0 1428.0 1736.0 1270.0   77.0  301.0  300.0  300.0  300.0 1500.0
   40889090  119.0    0.0 1414.0 1796.0 1240.0   74.0  300.0  300.0  300.0  300.0 1500.0
   40893090  119.0    0.0 1406.0 1757.0 1250.0   75.0  301.0  300.0  300.0  300.0 1500.0
   40897108  119.0    0.0 1391.0 1763.0 1240.0   74.0  301.0  300.0  300.0  300.0 1500.0
   40901092  119.0    0.0 1389.0 1782.0 1230.0   73.0  300.0  300.0  300.0  300.0 1500.0
   40905117  119.0    0.0 1394.0 1775.0 1240.0   74.0  300.0  300.0  300.0  300.0 1500.0
   40909118  119.0    0.0 1402.0 1785.0 1240.0   74.0  301.0  300.0  300.0  300.0 1500.0
   40913128  119.0    0.0 1425.0 1766.0 1260.0   76.0  301.0  300.0  300.0  300.0 1500.0
   40917151  119.0    0.0 1381.0 1769.0 1240.0   74.0  300.0  300.0  300.0  300.0 1500.0
   40921158  119.0    0.0 1406.0 1759.0 1250.0   75.0  300.0  300.0  300.0  300.0 1540.0
   40925157  119.0    0.0 1421.0 1759.0 1260.0   76.0  301.0  300.0  300.0  300.0 1500.0
   40929164  119.0    0.0 1455.0 1784.0 1260.0   76.0  301.0  300.0  300.0  300.0 1500.0
   40933174  119.0    0.0 1386.0 1768.0 1240.0   74.0  300.0  300.0  300.0  300.0 1500.0
   40937198  119.0    0.0 1388.0 1757.0 1240.0   74.0  301.0  300.0  300.0  300.0 1510.0
   40941205  119.0    0.0 1361.0 1760.0 1230.0   73.0  301.0  300.0  300.0  300.0 1500.0
   40945204  119.0    0.0 1441.0 1769.0 1260.0   76.0  300.0  300.0  300.0  300.0 1490.0
   40949211  119.0    0.0 1413.0 1774.0 1250.0   75.0  301.0  300.0  300.0  300.0 1500.0
   40953219  119.0    0.0 1438.0 1746.0 1270.0   77.0  301.0  300.0  300.0  300.0 1500.0
   40957227  119.0    0.0 1450.0 1757.0 1270.0   77.0  301.0  300.0  300.0  300.0 1500.0
   40961235  119.0    0.0 1412.0 1783.0 1240.0   74.0  301.0  300.0  300.0  300.0 1500.0
   40965234  119.0    0.0 1411.0 1791.0 1240.0   74.0  300.0  300.0  300.0  300.0 1500.0
   40969241  119.0    0.0 1429.0 1790.0 1250.0   75.0  301.0  301.0  300.0  300.0 1490.0
   40973246  119.0    0.0 1402.0 1743.0 1260.0   76.0  300.0  300.0  300.0  300.0 1500.0
   40977251  119.0    0.0 1422.0 1781.0 1250.0   75.0  301.0  300.0  300.0  300.0 1500.0
   40981267  119.0    0.0 1425.0 1771.0 1260.0   76.0  300.0  300.0  300.0  300.0 1500.0
