# 
~VERSION INFORMATION
     VERS.                              2.0:Версия формата LAS
     WRAP.                               NO:Режим одной строчки на временной отчет
~WELL INFORMATION
     STRT.ms                       35211431:Время первой записи в файле
     STOP.ms                       51799721:Время последней записи в файле
     STEP.ms                              0:Шаг времени, 0 - переменный шаг
     NULL.                          -999.25:Метка, нет значения
     DATE.                       27.07.2023:Дата каротажа
      DRV.                                 :Наименование драйвера прибора
     NAME.                             ГГКП:Название прибора
     SNUM.                         19399001:Серийный номер прибора
     FRMW.                         0.19.7.3:Версия прошивки на контроллере прибора
~CURVE INFORMATION
     TIME.ms                       {0,11:0}:Время, количество миллисекунд от начало суток
       MT.°C                               :Температура
      TFG.°                                :Гравитационный поворот
      RSD.имп./сек                         :Счёт, ближний зонд ГГКП
      RLD.имп./сек                         :Счёт, дальний зонд ГГКП
     RHOB.кг/м3                            :Плотность
   HCRHOB.g/cm3                            :Плотность, у.е.
     ADCS.mV                               :Измеренное напряжение порога компараторапо ближнему зонду
     ADCL.mV                               :Измеренное напряжение порога компараторапо дальнему зонду
    THLDS.mV                               :Выставленный порог компараторапо ближнему зонду
    THLDL.mV                               :Выставленный порог компараторапо дальнему зонду
    GRUHV.В                                :Напряжение на высоковольтнике Гамма
~OTHER INFORMATION


~A     TIME     MT    TFG    RSD    RLD   RHOB HCRHOB   ADCS   ADCL  THLDS  THLDL  GRUHV
# ...
   39541349  114.0    0.0 1411.0 1792.0 1240.0   74.0  300.0  300.0  300.0  300.0 1500.0
   39545362  113.0    0.0 1426.0 1767.0 1260.0   76.0  301.0  300.0  300.0  300.0 1500.0
   39549385  113.0    0.0 1426.0 1788.0 1250.0   75.0  301.0  300.0  300.0  300.0 1500.0
   39553397  114.0    0.0 1426.0 1706.0 1280.0   78.0  300.0  300.0  300.0  300.0 1500.0
   39557406  114.0    0.0 1440.0 1752.0 1270.0   77.0  301.0  300.0  300.0  300.0 1490.0
   39561423  114.0    0.0 1426.0 1787.0 1250.0   75.0  301.0  301.0  300.0  300.0 1500.0
   39565421  114.0    0.0 1395.0 1750.0 1250.0   75.0  301.0  300.0  300.0  300.0 1490.0
   39569419  114.0    0.0 1412.0 1759.0 1250.0   75.0  300.0  300.0  300.0  300.0 1500.0
   39573428  114.0    0.0 1423.0 1767.0 1260.0   76.0  300.0  300.0  300.0  300.0 1510.0
   39577433  114.0    0.0 1429.0 1770.0 1260.0   76.0  301.0  300.0  300.0  300.0 1500.0
   39581446  114.0    0.0 1399.0 1771.0 1240.0   74.0  300.0  300.0  300.0  300.0 1500.0
   39585454  114.0    0.0 1429.0 1778.0 1250.0   75.0  301.0  300.0  300.0  300.0 1500.0
   39589469  114.0    0.0 1402.0 1791.0 1240.0   74.0  301.0  300.0  300.0  300.0 1490.0
   39593472  114.0    0.0 1414.0 1759.0 1250.0   75.0  301.0  300.0  300.0  300.0 1500.0
   39597476  114.0    0.0 1408.0 1777.0 1250.0   75.0  300.0  301.0  300.0  300.0 1500.0
   39601468  114.0    0.0 1390.0 1759.0 1240.0   74.0  300.0  300.0  300.0  300.0 1500.0
   39605499  114.0    0.0 1422.0 1769.0 1250.0   75.0  301.0  300.0  300.0  300.0 1500.0
   39609511  114.0    0.0 1401.0 1769.0 1240.0   74.0  301.0  300.0  300.0  300.0 1490.0
   39613527  114.0    0.0 1414.0 1763.0 1250.0   75.0  300.0  300.0  300.0  300.0 1500.0
   39617524  114.0    0.0 1417.0 1817.0 1230.0   73.0  301.0  300.0  300.0  300.0 1510.0
   39621528  114.0    0.0 1401.0 1766.0 1250.0   75.0  301.0  300.0  300.0  300.0 1500.0
   39625536  114.0    0.0 1413.0 1778.0 1250.0   75.0  301.0  300.0  300.0  300.0 1490.0
   39629548  114.0    0.0 1457.0 1735.0 1280.0   78.0  300.0  300.0  300.0  300.0 1490.0
   39633549  114.0    0.0 1424.0 1802.0 1240.0   74.0  301.0  300.0  300.0  300.0 1500.0
   39637562  114.0    0.0 1422.0 1793.0 1250.0   75.0  301.0  300.0  300.0  300.0 1510.0
   39641570  114.0    0.0 1415.0 1796.0 1240.0   74.0  301.0  300.0  300.0  300.0 1500.0
   39645578  114.0    0.0 1427.0 1747.0 1270.0   77.0  301.0  300.0  300.0  300.0 1490.0
   39649578  114.0    0.0 1399.0 1784.0 1240.0   74.0  300.0  300.0  300.0  300.0 1500.0
   39653593  114.0    0.0 1420.0 1766.0 1250.0   75.0  300.0  301.0  300.0  300.0 1490.0
   39657599  114.0    0.0 1407.0 1763.0 1250.0   75.0  301.0  300.0  300.0  300.0 1510.0
   39661614  114.0    0.0 1420.0 1812.0 1240.0   74.0  300.0  300.0  300.0  300.0 1500.0
   39665623  114.0    0.0 1369.0 1772.0 1230.0   73.0  301.0  301.0  300.0  300.0 1500.0
   39669631  114.0    0.0 1398.0 1761.0 1250.0   75.0  300.0  300.0  300.0  300.0 1500.0
   39673637  114.0    0.0 1434.0 1711.0 1280.0   78.0  301.0  300.0  300.0  300.0 1490.0
   39677644  114.0    0.0 1431.0 1794.0 1250.0   75.0  300.0  300.0  300.0  300.0 1490.0
   39681664  114.0    0.0 1427.0 1796.0 1250.0   75.0  301.0  300.0  300.0  300.0 1500.0
   39685665  114.0    0.0 1410.0 1756.0 1250.0   75.0  301.0  300.0  300.0  300.0 1500.0
   39689671  114.0    0.0 1402.0 1786.0 1240.0   74.0  300.0  300.0  300.0  300.0 1500.0
   39693679  114.0    0.0 1415.0 1796.0 1240.0   74.0  300.0  300.0  300.0  300.0 1500.0
   39697696  114.0    0.0 1419.0 1814.0 1240.0   74.0  301.0  300.0  300.0  300.0 1490.0
   39701707  114.0    0.0 1451.0 1798.0 1260.0   76.0  301.0  300.0  300.0  300.0 1480.0
   39705706  114.0    0.0 1406.0 1806.0 1230.0   73.0  301.0  300.0  300.0  300.0 1500.0
   39709715  114.0    0.0 1434.0 1764.0 1260.0   76.0  301.0  300.0  300.0  300.0 1500.0
   39713738  114.0    0.0 1435.0 1781.0 1260.0   76.0  301.0  300.0  300.0  300.0 1500.0
   39717745  114.0    0.0 1420.0 1798.0 1240.0   74.0  301.0  300.0  300.0  300.0 1500.0
   39721748  114.0    0.0 1444.0 1751.0 1270.0   77.0  301.0  300.0  300.0  300.0 1500.0
   39725763  114.0    0.0 1402.0 1785.0 1240.0   74.0  301.0  300.0  300.0  300.0 1500.0
   39729767  114.0    0.0 1419.0 1777.0 1250.0   75.0  301.0  300.0  300.0  300.0 1500.0
   39733775  114.0    0.0 1421.0 1760.0 1260.0   76.0  301.0  300.0  300.0  300.0 1500.0
   39737777  114.0    0.0 1443.0 1790.0 1260.0   76.0  301.0  300.0  300.0  300.0 1500.0
   39741791  114.0    0.0 1437.0 1786.0 1260.0   76.0  301.0  300.0  300.0  300.0 1500.0
   39745797  114.0    0.0 1409.0 1786.0 1240.0   74.0  301.0  300.0  300.0  300.0 1500.0
   39749803  114.0    0.0 1403.0 1801.0 1230.0   73.0  301.0  301.0  300.0  300.0 1500.0
   39753810  114.0    0.0 1432.0 1791.0 1250.0   75.0  301.0  300.0  300.0  300.0 1510.0
   39757817  114.0    0.0 1399.0 1773.0 1240.0   74.0  301.0  300.0  300.0  300.0 1500.0
   39761840  115.0    0.0 1406.0 1769.0 1250.0   75.0  301.0  300.0  300.0  300.0 1500.0
   39765864  115.0    0.0 1432.0 1806.0 1250.0   75.0  301.0  300.0  300.0  300.0 1500.0
   39769862  115.0    0.0 1417.0 1819.0 1230.0   73.0  301.0  300.0  300.0  300.0 1500.0
   39773869  114.0    0.0 1413.0 1758.0 1250.0   75.0  301.0  300.0  300.0  300.0 1500.0
   39777892  114.0    0.0 1427.0 1763.0 1260.0   76.0  300.0  300.0  300.0  300.0 1500.0
   39781899  114.0    0.0 1441.0 1772.0 1260.0   76.0  301.0  300.0  300.0  300.0 1500.0
   39785917  114.0    0.0 1425.0 1798.0 1250.0   75.0  301.0  300.0  300.0  300.0 1500.0
   39789929  115.0    0.0 1429.0 1786.0 1250.0   75.0  300.0  300.0  300.0  300.0 1530.0
   39793937  115.0    0.0 1406.0 1769.0 1250.0   75.0  301.0  300.0  300.0  300.0 1500.0
   39797944  115.0    0.0 1391.0 1776.0 1240.0   74.0  301.0  302.0  300.0  300.0 1500.0
   39801952  115.0    0.0 1395.0 1767.0 1240.0   74.0  300.0  300.0  300.0  300.0 1520.0
   39805975  115.0    0.0 1409.0 1788.0 1240.0   74.0  301.0  300.0  300.0  300.0 1500.0
   39809972  115.0    0.0 1415.0 1771.0 1250.0   75.0  301.0  300.0  300.0  300.0 1500.0
   39813988  115.0    0.0 1432.0 1774.0 1260.0   76.0  301.0  300.0  300.0  300.0 1500.0
   39818004  115.0    0.0 1409.0 1811.0 1230.0   73.0  301.0  300.0  300.0  300.0 1500.0
   39821997  115.0    0.0 1397.0 1750.0 1250.0   75.0  300.0  300.0  300.0  300.0 1500.0
   39826005  115.0    0.0 1403.0 1792.0 1240.0   74.0  301.0  300.0  300.0  300.0 1500.0
   39830012  115.0    0.0 1421.0 1776.0 1250.0   75.0  301.0  300.0  300.0  300.0 1500.0
   39834007  115.0    0.0 1393.0 1774.0 1240.0   74.0  300.0  300.0  300.0  300.0 1480.0
   39838030  115.0    0.0 1433.0 1790.0 1250.0   75.0  301.0  300.0  300.0  300.0 1500.0
   39842045  115.0    0.0 1456.0 1788.0 1260.0   76.0  301.0  300.0  300.0  300.0 1500.0
   39846067  115.0    0.0 1385.0 1766.0 1240.0   74.0  301.0  300.0  300.0  300.0 1500.0
   39850090  115.0    0.0 1427.0 1789.0 1250.0   75.0  301.0  300.0  300.0  300.0 1500.0
   39854095  115.0    0.0 1408.0 1736.0 1260.0   76.0  301.0  300.0  300.0  300.0 1500.0
   39858135  115.0    0.0 1391.0 1784.0 1230.0   73.0  301.0  300.0  300.0  300.0 1500.0
   39862139  115.0    0.0 1439.0 1773.0 1260.0   76.0  301.0  300.0  300.0  300.0 1500.0
   39866156  115.0    0.0 1408.0 1745.0 1260.0   76.0  300.0  300.0  300.0  300.0 1500.0
   39870161  115.0    0.0 1402.0 1782.0 1240.0   74.0  301.0  300.0  300.0  300.0 1500.0
   39874148  115.0    0.0 1427.0 1766.0 1260.0   76.0  301.0  300.0  300.0  300.0 1500.0
   39878177  115.0    0.0 1409.0 1742.0 1260.0   76.0  301.0  300.0  300.0  300.0 1500.0
   39882186  115.0    0.0 1416.0 1794.0 1240.0   74.0  300.0  300.0  300.0  300.0 1490.0
   39886190  115.0    0.0 1422.0 1766.0 1260.0   76.0  301.0  300.0  300.0  300.0 1500.0
   39890198  115.0    0.0 1419.0 1777.0 1250.0   75.0  300.0  300.0  300.0  300.0 1500.0
   39894207  115.0    0.0 1398.0 1762.0 1250.0   75.0  301.0  300.0  300.0  300.0 1500.0
   39898215  115.0    0.0 1440.0 1809.0 1250.0   75.0  301.0  300.0  300.0  300.0 1500.0
