# 
~VERSION INFORMATION
     VERS.                              2.0:Версия формата LAS
     WRAP.                               NO:Режим одной строчки на временной отчет
~WELL INFORMATION
     STRT.ms                       29740351:Время первой записи в файле
     STOP.ms                       47053724:Время последней записи в файле
     STEP.ms                              0:Шаг времени, 0 - переменный шаг
     NULL.                          -999.25:Метка, нет значения
     DATE.                       28.04.2023:Дата каротажа
      DRV.                                 :Наименование драйвера прибора
     NAME.                          ННКТ(б):Название прибора
     SNUM.                                 :Серийный номер прибора
     FRMW.                                 :Версия прошивки на контроллере прибора
~CURVE INFORMATION
     TIME.ms                       {0,11:0}:Время, количество миллисекунд от начало суток
     NTNC.имп/мин                          :Счёт, ближний зонд ННКТ
     FTNC.у.е.                             :Счёт, дальний зонд ННКТ
     NTNL.имп/мин                          :Счёт нормированный на счёт в воде, ближний зонд ННКТ
     FTNL.у.е.                             :Счёт нормированный на счёт в воде, дальний зонд ННКТ
     TRNP.%                                :Пористость по водородосодержанию ННКТ
     UHVS.В                                :Установленное напряжение на высоковольтнике
     UHVM.В                                :Измеренное напряжение на высоковольтнике
       MT.°C                               :Температура
~OTHER INFORMATION


~A     TIME   NTNC   FTNC   NTNL   FTNL   TRNP   UHVS   UHVM     MT
# ...
   37807937 7800.0 14880.0  130.0  248.0    5.0 2000.0 1996.0   72.0
   37808950 7440.0 16020.0  124.0  267.0    5.0 2000.0 1996.0   72.0
   37809950 9120.0 15540.0  152.0  259.0    5.1 2000.0 1996.0   72.0
   37810958 8940.0 15840.0  149.0  264.0    5.1 2000.0 1996.0   72.0
   37811962 9360.0 14520.0  156.0  242.0    5.2 2000.0 1996.0   72.0
   37812963 8700.0 14640.0  145.0  244.0    5.1 2000.0 1996.0   72.0
   37813969 8580.0 14220.0  143.0  237.0    5.1 2000.0 1996.0   72.0
   37814985 9180.0 14040.0  153.0  234.0    5.2 2000.0 1996.0   72.0
   37815992 8460.0 15360.0  141.0  256.0    5.1 2000.0 1996.0   72.0
   37817000 9240.0 15600.0  154.0  260.0    5.1 2000.0 1996.0   72.0
   37818006 7860.0 14700.0  131.0  245.0    5.1 2000.0 1996.0   72.0
   37819014 7800.0 12960.0  130.0  216.0    5.1 2000.0 1996.0   72.0
   37820017 8460.0 13620.0  141.0  227.0    5.2 2000.0 1996.0   72.0
   37821025 8820.0 15360.0  147.0  256.0    5.1 2000.0 1996.0   72.0
   37822031 7920.0 13920.0  132.0  232.0    5.1 2000.0 1996.0   72.0
   37823047 8940.0 16740.0  149.0  279.0    5.1 2000.0 1996.0   72.0
   37824054 8400.0 15360.0  140.0  256.0    5.1 2000.0 1996.0   72.0
   37825057 9720.0 14400.0  162.0  240.0    5.2 2000.0 1996.0   72.0
   37826072 9480.0 13620.0  158.0  227.0    5.3 2000.0 1996.0   72.0
   37827071 8460.0 15600.0  141.0  260.0    5.1 2000.0 1996.0   72.0
   37828083 8580.0 14820.0  143.0  247.0    5.1 2000.0 1996.0   72.0
   37829101 8400.0 14400.0  140.0  240.0    5.1 2000.0 1996.0   72.0
   37830107 8040.0 15420.0  134.0  257.0    5.0 2000.0 1996.0   72.0
   37831125 8040.0 15060.0  134.0  251.0    5.1 2000.0 1996.0   72.0
   37832133 8940.0 16440.0  149.0  274.0    5.1 2000.0 1996.0   72.0
   37833146 9300.0 15900.0  155.0  265.0    5.1 2000.0 1996.0   72.0
   37834144 8460.0 16980.0  141.0  283.0    5.0 2000.0 1996.0   72.0
   37835152 8760.0 14280.0  146.0  238.0    5.2 2000.0 1996.0   72.0
   37836170 9960.0 15840.0  166.0  264.0    5.2 2000.0 1996.0   72.0
   37837177 8640.0 13680.0  144.0  228.0    5.2 2000.0 1996.0   72.0
   37838178 9180.0 14220.0  153.0  237.0    5.2 2000.0 1996.0   72.0
   37839190 8940.0 14400.0  149.0  240.0    5.2 2000.0 1996.0   72.0
   37840184 7680.0 16980.0  128.0  283.0    5.0 2000.0 1996.0   72.0
   37841191 8400.0 14100.0  140.0  235.0    5.1 2000.0 1996.0   72.0
   37842204 9060.0 13320.0  151.0  222.0    5.2 2000.0 1996.0   72.0
   37843200 8940.0 14220.0  149.0  237.0    5.2 2000.0 1996.0   72.0
   37844207 8880.0 15540.0  148.0  259.0    5.1 2000.0 1996.0   72.0
   37845221 9360.0 15480.0  156.0  258.0    5.1 2000.0 1996.0   72.0
   37846225 8940.0 15540.0  149.0  259.0    5.1 2000.0 1995.0   72.0
   37847236 8160.0 15360.0  136.0  256.0    5.1 2000.0 1996.0   72.0
   37848244 9240.0 16740.0  154.0  279.0    5.1 2000.0 1996.0   72.0
   37849258 8280.0 16200.0  138.0  270.0    5.0 2000.0 1996.0   72.0
   37850271 9300.0 13380.0  155.0  223.0    5.3 2000.0 1996.0   72.0
   37851279 8820.0 13680.0  147.0  228.0    5.2 2000.0 1995.0   72.0
   37852280 9000.0 15660.0  150.0  261.0    5.1 2000.0 1996.0   72.0
   37853290 9420.0 13560.0  157.0  226.0    5.3 2000.0 1996.0   72.0
   37854299 8460.0 15180.0  141.0  253.0    5.1 2000.0 1996.0   72.0
   37855317 9180.0 14160.0  153.0  236.0    5.2 2000.0 1996.0   72.0
   37856339 7800.0 15120.0  130.0  252.0    5.0 2000.0 1996.0   72.0
   37857343 8820.0 15660.0  147.0  261.0    5.1 2000.0 1996.0   72.0
   37858351 9660.0 15960.0  161.0  266.0    5.1 2000.0 1995.0   72.0
   37859359 8400.0 15480.0  140.0  258.0    5.1 2000.0 1996.0   72.0
   37860366 8460.0 13800.0  141.0  230.0    5.2 2000.0 1996.0   72.0
   37861367 8880.0 15300.0  148.0  255.0    5.1 2000.0 1996.0   72.0
   37862383 8640.0 16080.0  144.0  268.0    5.1 2000.0 1996.0   72.0
   37863389 9120.0 14400.0  152.0  240.0    5.2 2000.0 1996.0   72.0
   37864384 8820.0 15480.0  147.0  258.0    5.1 2000.0 1996.0   72.0
   37865390 7860.0 14280.0  131.0  238.0    5.1 2000.0 1996.0   72.0
   37866393 8400.0 15600.0  140.0  260.0    5.1 2000.0 1996.0   72.0
   37867395 8040.0 14820.0  134.0  247.0    5.1 2000.0 1996.0   72.0
   37868414 9120.0 13320.0  152.0  222.0    5.2 2000.0 1996.0   72.0
   37869417 8280.0 12900.0  138.0  215.0    5.2 2000.0 1996.0   72.0
   37870419 7680.0 14280.0  128.0  238.0    5.1 2000.0 1996.0   72.0
   37871420 9120.0 14100.0  152.0  235.0    5.2 2000.0 1996.0   72.0
   37872421 9660.0 13920.0  161.0  232.0    5.3 2000.0 1996.0   72.0
   37873422 9600.0 15240.0  160.0  254.0    5.2 2000.0 1996.0   72.0
   37874428 9780.0 14340.0  163.0  239.0    5.2 2000.0 1996.0   72.0
   37875441 9720.0 15060.0  162.0  251.0    5.2 2000.0 1996.0   72.0
   37876442 9360.0 15300.0  156.0  255.0    5.1 2000.0 1996.0   72.0
   37877458 8160.0 12900.0  136.0  215.0    5.2 2000.0 1996.0   72.0
   37878466 8400.0 13860.0  140.0  231.0    5.1 2000.0 1996.0   72.0
   37879473 9480.0 15240.0  158.0  254.0    5.2 2000.0 1996.0   71.0
   37880474 9000.0 15900.0  150.0  265.0    5.1 2000.0 1996.0   72.0
   37881479 7860.0 14520.0  131.0  242.0    5.1 2000.0 1996.0   72.0
   37882494 8700.0 14580.0  145.0  243.0    5.1 2000.0 1996.0   72.0
   37883496 7020.0 14460.0  117.0  241.0    5.0 2000.0 1996.0   72.0
   37884497 8160.0 14760.0  136.0  246.0    5.1 2000.0 1996.0   71.0
   37885504 10080.0 14700.0  168.0  245.0    5.2 2000.0 1996.0   71.0
   37886514 9780.0 15720.0  163.0  262.0    5.2 2000.0 1996.0   72.0
   37887524 8700.0 14340.0  145.0  239.0    5.1 2000.0 1996.0   71.0
   37888533 8700.0 13860.0  145.0  231.0    5.2 2000.0 1996.0   72.0
   37889549 10200.0 14040.0  170.0  234.0    5.3 2000.0 1996.0   71.0
   37890556 8880.0 14460.0  148.0  241.0    5.2 2000.0 1996.0   71.0
   37891570 7860.0 16800.0  131.0  280.0    5.0 2000.0 1996.0   71.0
   37892580 8820.0 15540.0  147.0  259.0    5.1 2000.0 1996.0   71.0
   37893589 9900.0 14460.0  165.0  241.0    5.2 2000.0 1996.0   71.0
   37894590 8040.0 15960.0  134.0  266.0    5.0 2000.0 1996.0   71.0
   37895604 9360.0 14280.0  156.0  238.0    5.2 2000.0 1996.0   71.0
   37896598 8580.0 16740.0  143.0  279.0    5.0 2000.0 1996.0   71.0
   37897615 9060.0 16920.0  151.0  282.0    5.1 2000.0 1996.0   71.0
   37898615 9540.0 13800.0  159.0  230.0    5.2 2000.0 1996.0   71.0
   37899628 7680.0 15960.0  128.0  266.0    5.0 2000.0 1996.0   71.0
   37900632 8520.0 14820.0  142.0  247.0    5.1 2000.0 1996.0   71.0
   37901641 8340.0 15000.0  139.0  250.0    5.1 2000.0 1996.0   71.0
   37902655 9300.0 16920.0  155.0  282.0    5.1 2000.0 1996.0   71.0
   37903657 9960.0 15180.0  166.0  253.0    5.2 2000.0 1996.0   71.0
   37904671 8940.0 14340.0  149.0  239.0    5.2 2000.0 1996.0   71.0
   37905676 8940.0 14820.0  149.0  247.0    5.1 2000.0 1996.0   71.0
   37906686 8400.0 14280.0  140.0  238.0    5.1 2000.0 1996.0   71.0
   37907701 9780.0 15900.0  163.0  265.0    5.2 2000.0 1996.0   71.0
   37908702 7800.0 16560.0  130.0  276.0    5.0 2000.0 1996.0   71.0
   37909703 8040.0 13980.0  134.0  233.0    5.1 2000.0 1996.0   71.0
   37910717 9480.0 13200.0  158.0  220.0    5.3 2000.0 1996.0   71.0
   37911723 9120.0 15120.0  152.0  252.0    5.1 2000.0 1996.0   71.0
   37912724 8100.0 13500.0  135.0  225.0    5.1 2000.0 1996.0   71.0
   37913729 8700.0 15000.0  145.0  250.0    5.1 2000.0 1996.0   71.0
   37914738 7920.0 14760.0  132.0  246.0    5.1 2000.0 1996.0   71.0
   37915742 8580.0 14220.0  143.0  237.0    5.1 2000.0 1996.0   71.0
   37916750 8880.0 14220.0  148.0  237.0    5.2 2000.0 1996.0   71.0
   37917764 7980.0 14160.0  133.0  236.0    5.1 2000.0 1996.0   71.0
   37918774 8760.0 14220.0  146.0  237.0    5.2 2000.0 1996.0   71.0
   37919789 8520.0 15900.0  142.0  265.0    5.1 2000.0 1996.0   71.0
   37920808 9060.0 15540.0  151.0  259.0    5.1 2000.0 1996.0   71.0
   37921809 8700.0 15540.0  145.0  259.0    5.1 2000.0 1996.0   71.0
   37922813 8520.0 13200.0  142.0  220.0    5.2 2000.0 1996.0   71.0
   37923814 8100.0 15960.0  135.0  266.0    5.0 2000.0 1996.0   71.0
