# 
~VERSION INFORMATION
     VERS.                              2.0:Версия формата LAS
     WRAP.                               NO:Режим одной строчки на временной отчет
~WELL INFORMATION
     STRT.ms                       29740351:Время первой записи в файле
     STOP.ms                       47053724:Время последней записи в файле
     STEP.ms                              0:Шаг времени, 0 - переменный шаг
     NULL.                          -999.25:Метка, нет значения
     DATE.                       28.04.2023:Дата каротажа
      DRV.                                 :Наименование драйвера прибора
     NAME.                          ННКТ(б):Название прибора
     SNUM.                                 :Серийный номер прибора
     FRMW.                                 :Версия прошивки на контроллере прибора
~CURVE INFORMATION
     TIME.ms                       {0,11:0}:Время, количество миллисекунд от начало суток
     NTNC.имп/мин                          :Счёт, ближний зонд ННКТ
     FTNC.у.е.                             :Счёт, дальний зонд ННКТ
     NTNL.имп/мин                          :Счёт нормированный на счёт в воде, ближний зонд ННКТ
     FTNL.у.е.                             :Счёт нормированный на счёт в воде, дальний зонд ННКТ
     TRNP.%                                :Пористость по водородосодержанию ННКТ
     UHVS.В                                :Установленное напряжение на высоковольтнике
     UHVM.В                                :Измеренное напряжение на высоковольтнике
       MT.°C                               :Температура
~OTHER INFORMATION


~A     TIME   NTNC   FTNC   NTNL   FTNL   TRNP   UHVS   UHVM     MT
   29740351 9360.0 13680.0  156.0  228.0    5.2 2000.0 1996.0  145.0
   29741365 9000.0 15060.0  150.0  251.0    5.1 2000.0 1996.0  145.0
   29742357 8640.0 15480.0  144.0  258.0    5.1 2000.0 1996.0  145.0
   29743370 7980.0 14580.0  133.0  243.0    5.1 2000.0 1996.0  145.0
   29744385 8760.0 13980.0  146.0  233.0    5.2 2000.0 1996.0  146.0
   29745398 9780.0 15960.0  163.0  266.0    5.2 2000.0 1996.0  146.0
   29746409 8220.0 16440.0  137.0  274.0    5.0 2000.0 1996.0  146.0
   29747418 8580.0 15840.0  143.0  264.0    5.1 2000.0 1995.0  146.0
   29748432 9600.0 15660.0  160.0  261.0    5.2 2000.0 1996.0  146.0
   29749448 9300.0 13380.0  155.0  223.0    5.3 2000.0 1995.0  146.0
   29750454 9480.0 15240.0  158.0  254.0    5.2 2000.0 1995.0  146.0
   29751455 9120.0 15300.0  152.0  255.0    5.1 2000.0 1996.0  146.0
   29752468 9120.0 16200.0  152.0  270.0    5.1 2000.0 1996.0  146.0
   29753467 8340.0 16740.0  139.0  279.0    5.0 2000.0 1995.0  146.0
   29754476 7140.0 16560.0  119.0  276.0    4.9 2000.0 1995.0  146.0
   29755477 9240.0 15060.0  154.0  251.0    5.2 2000.0 1996.0  146.0
   29756479 9420.0 15720.0  157.0  262.0    5.1 2000.0 1996.0  146.0
   29757485 9240.0 16260.0  154.0  271.0    5.1 2000.0 1996.0  146.0
   29758486 9120.0 13680.0  152.0  228.0    5.2 2000.0 1996.0  146.0
   29759487 9480.0 15240.0  158.0  254.0    5.2 2000.0 1995.0  146.0
   29760492 9840.0 16320.0  164.0  272.0    5.1 2000.0 1996.0  146.0
   29761493 8880.0 13860.0  148.0  231.0    5.2 2000.0 1996.0  146.0
   29762494 9240.0 14220.0  154.0  237.0    5.2 2000.0 1996.0  146.0
   29763495 7800.0 15240.0  130.0  254.0    5.0 2000.0 1995.0  146.0
   29764502 9780.0 14520.0  163.0  242.0    5.2 2000.0 1996.0  146.0
   29765503 8760.0 15000.0  146.0  250.0    5.1 2000.0 1996.0  146.0
   29766504 9000.0 14100.0  150.0  235.0    5.2 2000.0 1996.0  146.0
   29767527 9600.0 16440.0  160.0  274.0    5.1 2000.0 1996.0  146.0
   29768527 10020.0 15000.0  167.0  250.0    5.2 2000.0 1996.0  146.0
   29769534 9300.0 13860.0  155.0  231.0    5.2 2000.0 1996.0  146.0
   29770548 8880.0 14820.0  148.0  247.0    5.1 2000.0 1995.0  146.0
   29771566 9240.0 15660.0  154.0  261.0    5.1 2000.0 1996.0  146.0
   29772577 9600.0 14040.0  160.0  234.0    5.2 2000.0 1996.0  146.0
   29773578 8100.0 13920.0  135.0  232.0    5.1 2000.0 1996.0  146.0
   29774580 8760.0 13260.0  146.0  221.0    5.2 2000.0 1995.0  146.0
   29775594 9180.0 14700.0  153.0  245.0    5.2 2000.0 1996.0  146.0
   29776611 8880.0 14940.0  148.0  249.0    5.1 2000.0 1995.0  146.0
   29777612 9960.0 13260.0  166.0  221.0    5.3 2000.0 1996.0  146.0
   29778614 9480.0 13920.0  158.0  232.0    5.2 2000.0 1996.0  146.0
   29779631 7620.0 13620.0  127.0  227.0    5.1 2000.0 1996.0  146.0
   29780631 8700.0 13140.0  145.0  219.0    5.2 2000.0 1996.0  146.0
   29781632 9240.0 13560.0  154.0  226.0    5.2 2000.0 1996.0  146.0
   29782640 7380.0 15360.0  123.0  256.0    5.0 2000.0 1996.0  146.0
   29783657 9780.0 15720.0  163.0  262.0    5.2 2000.0 1995.0  145.0
   29784670 8400.0 15900.0  140.0  265.0    5.0 2000.0 1996.0  146.0
   29785671 9360.0 14700.0  156.0  245.0    5.2 2000.0 1996.0  146.0
   29786685 9120.0 14220.0  152.0  237.0    5.2 2000.0 1995.0  146.0
   29787686 8520.0 15000.0  142.0  250.0    5.1 2000.0 1996.0  146.0
   29788687 9480.0 14460.0  158.0  241.0    5.2 2000.0 1995.0  146.0
   29789695 9780.0 14700.0  163.0  245.0    5.2 2000.0 1996.0  146.0
   29790702 9960.0 15060.0  166.0  251.0    5.2 2000.0 1997.0  146.0
   29791712 9660.0 14400.0  161.0  240.0    5.2 2000.0 1995.0  146.0
   29792723 9120.0 14460.0  152.0  241.0    5.2 2000.0 1996.0  146.0
   29793728 9840.0 15300.0  164.0  255.0    5.2 2000.0 1996.0  146.0
   29794744 9240.0 16080.0  154.0  268.0    5.1 2000.0 1996.0  145.0
   29795744 8280.0 14940.0  138.0  249.0    5.1 2000.0 1996.0  145.0
   29796752 7440.0 15600.0  124.0  260.0    5.0 2000.0 1996.0  146.0
   29797753 8220.0 15540.0  137.0  259.0    5.0 2000.0 1995.0  145.0
   29798770 9720.0 15120.0  162.0  252.0    5.2 2000.0 1996.0  146.0
   29799770 9120.0 15720.0  152.0  262.0    5.1 2000.0 1996.0  145.0
   29800771 7680.0 14640.0  128.0  244.0    5.0 2000.0 1996.0  145.0
   29801772 8460.0 15180.0  141.0  253.0    5.1 2000.0 1996.0  145.0
   29802780 8340.0 16200.0  139.0  270.0    5.0 2000.0 1996.0  145.0
   29803780 7680.0 14520.0  128.0  242.0    5.0 2000.0 1996.0  146.0
   29804785 8460.0 13920.0  141.0  232.0    5.1 2000.0 1996.0  145.0
   29805793 8820.0 14640.0  147.0  244.0    5.1 2000.0 1996.0  145.0
   29806795 9180.0 14700.0  153.0  245.0    5.2 2000.0 1996.0  146.0
   29807802 8520.0 16740.0  142.0  279.0    5.0 2000.0 1996.0  145.0
   29808807 9300.0 13080.0  155.0  218.0    5.3 2000.0 1996.0  145.0
   29809824 9180.0 16560.0  153.0  276.0    5.1 2000.0 1996.0  145.0
   29810840 9180.0 16140.0  153.0  269.0    5.1 2000.0 1996.0  145.0
   29811841 8580.0 14760.0  143.0  246.0    5.1 2000.0 1996.0  146.0
   29812849 8820.0 16200.0  147.0  270.0    5.1 2000.0 1996.0  145.0
   29813861 9180.0 14820.0  153.0  247.0    5.2 2000.0 1996.0  145.0
   29814876 8160.0 15240.0  136.0  254.0    5.1 2000.0 1996.0  145.0
   29815874 8160.0 13080.0  136.0  218.0    5.2 2000.0 1996.0  145.0
   29816877 8940.0 15660.0  149.0  261.0    5.1 2000.0 1996.0  145.0
   29817877 9960.0 14280.0  166.0  238.0    5.3 2000.0 1996.0  145.0
   29818877 8520.0 15120.0  142.0  252.0    5.1 2000.0 1996.0  145.0
   29819879 9780.0 16020.0  163.0  267.0    5.1 2000.0 1996.0  145.0
   29820881 8880.0 14220.0  148.0  237.0    5.2 2000.0 1996.0  145.0
   29821905 8700.0 15300.0  145.0  255.0    5.1 2000.0 1995.0  145.0
   29822902 9240.0 17160.0  154.0  286.0    5.1 2000.0 1996.0  145.0
   29823904 9060.0 15600.0  151.0  260.0    5.1 2000.0 1996.0  145.0
   29824904 8760.0 13680.0  146.0  228.0    5.2 2000.0 1996.0  145.0
   29825903 8640.0 15180.0  144.0  253.0    5.1 2000.0 1996.0  145.0
   29826906 9420.0 15240.0  157.0  254.0    5.2 2000.0 1996.0  145.0
   29827904 8220.0 12840.0  137.0  214.0    5.2 2000.0 1996.0  145.0
   29828905 8580.0 14100.0  143.0  235.0    5.1 2000.0 1996.0  145.0
   29829905 9360.0 14220.0  156.0  237.0    5.2 2000.0 1996.0  145.0
   29830905 9300.0 15420.0  155.0  257.0    5.1 2000.0 1996.0  145.0
   29831908 6780.0 13800.0  113.0  230.0    5.0 2000.0 1996.0  145.0
   29832910 7620.0 15060.0  127.0  251.0    5.0 2000.0 1996.0  145.0
   29833933 9360.0 15600.0  156.0  260.0    5.1 2000.0 1996.0  145.0
   29834932 9240.0 13740.0  154.0  229.0    5.2 2000.0 1996.0  145.0
   29835939 7920.0 15120.0  132.0  252.0    5.0 2000.0 1996.0  145.0
   29836954 8340.0 13260.0  139.0  221.0    5.2 2000.0 1996.0  145.0
   29837954 10080.0 13680.0  168.0  228.0    5.3 2000.0 1996.0  145.0
   29838962 9480.0 14580.0  158.0  243.0    5.2 2000.0 1996.0  145.0
   29839971 9240.0 14940.0  154.0  249.0    5.2 2000.0 1996.0  145.0
   29840973 7920.0 16860.0  132.0  281.0    5.0 2000.0 1996.0  145.0
   29841974 9240.0 15540.0  154.0  259.0    5.1 2000.0 1996.0  145.0
   29842982 9060.0 14280.0  151.0  238.0    5.2 2000.0 1996.0  145.0
   29843984 8580.0 17040.0  143.0  284.0    5.0 2000.0 1996.0  145.0
   29844985 8700.0 14760.0  145.0  246.0    5.1 2000.0 1996.0  145.0
   29845998 8520.0 14460.0  142.0  241.0    5.1 2000.0 1996.0  145.0
   29847007 9240.0 15540.0  154.0  259.0    5.1 2000.0 1996.0  145.0
   29848021 8520.0 14100.0  142.0  235.0    5.1 2000.0 1996.0  145.0
   29849036 9540.0 13620.0  159.0  227.0    5.3 2000.0 1996.0  145.0
   29850037 8100.0 13980.0  135.0  233.0    5.1 2000.0 1996.0  145.0
   29851045 8580.0 15480.0  143.0  258.0    5.1 2000.0 1996.0  145.0
   29852053 8700.0 15060.0  145.0  251.0    5.1 2000.0 1996.0  145.0
   29853053 8040.0 15240.0  134.0  254.0    5.0 2000.0 1996.0  145.0
   29854070 8160.0 15060.0  136.0  251.0    5.1 2000.0 1996.0  145.0
   29855082 9120.0 14820.0  152.0  247.0    5.2 2000.0 1996.0  145.0
   29856087 8880.0 14160.0  148.0  236.0    5.2 2000.0 1996.0  145.0
