# 
~VERSION INFORMATION
     VERS.                              2.0:Версия формата LAS
     WRAP.                               NO:Режим одной строчки на временной отчет
~WELL INFORMATION
     STRT.ms                       29740351:Время первой записи в файле
     STOP.ms                       47053724:Время последней записи в файле
     STEP.ms                              0:Шаг времени, 0 - переменный шаг
     NULL.                          -999.25:Метка, нет значения
     DATE.                       28.04.2023:Дата каротажа
      DRV.                                 :Наименование драйвера прибора
     NAME.                          ННКТ(б):Название прибора
     SNUM.                                 :Серийный номер прибора
     FRMW.                                 :Версия прошивки на контроллере прибора
~CURVE INFORMATION
     TIME.ms                       {0,11:0}:Время, количество миллисекунд от начало суток
     NTNC.имп/мин                          :Счёт, ближний зонд ННКТ
     FTNC.у.е.                             :Счёт, дальний зонд ННКТ
     NTNL.имп/мин                          :Счёт нормированный на счёт в воде, ближний зонд ННКТ
     FTNL.у.е.                             :Счёт нормированный на счёт в воде, дальний зонд ННКТ
     TRNP.%                                :Пористость по водородосодержанию ННКТ
     UHVS.В                                :Установленное напряжение на высоковольтнике
     UHVM.В                                :Измеренное напряжение на высоковольтнике
       MT.°C                               :Температура
~OTHER INFORMATION


~A     TIME   NTNC   FTNC   NTNL   FTNL   TRNP   UHVS   UHVM     MT
# ...
   46932838 7860.0 13560.0  131.0  226.0    5.1 2000.0 1995.0   36.0
   46933846 8460.0 15300.0  141.0  255.0    5.1 2000.0 1995.0   36.0
   46934849 9180.0 13140.0  153.0  219.0    5.3 2000.0 1995.0   36.0
   46935858 8760.0 14400.0  146.0  240.0    5.1 2000.0 1995.0   36.0
   46936862 9120.0 14340.0  152.0  239.0    5.2 2000.0 1995.0   36.0
   46937870 9360.0 14280.0  156.0  238.0    5.2 2000.0 1995.0   36.0
   46938879 8160.0 15600.0  136.0  260.0    5.0 2000.0 1995.0   36.0
   46939887 8400.0 14460.0  140.0  241.0    5.1 2000.0 1995.0   36.0
   46940893 9540.0 15060.0  159.0  251.0    5.2 2000.0 1995.0   36.0
   46941910 8220.0 15720.0  137.0  262.0    5.0 2000.0 1995.0   36.0
   46942917 9720.0 14580.0  162.0  243.0    5.2 2000.0 1995.0   36.0
   46943923 7920.0 14700.0  132.0  245.0    5.1 2000.0 1995.0   36.0
   46944924 7740.0 16740.0  129.0  279.0    5.0 2000.0 1995.0   36.0
   46945939 8820.0 13740.0  147.0  229.0    5.2 2000.0 1995.0   36.0
   46946941 8220.0 13920.0  137.0  232.0    5.1 2000.0 1995.0   36.0
   46947958 8880.0 14520.0  148.0  242.0    5.1 2000.0 1995.0   36.0
   46948970 7860.0 13320.0  131.0  222.0    5.1 2000.0 1995.0   36.0
   46949999 9360.0 14400.0  156.0  240.0    5.2 2000.0 1995.0   36.0
   46950986 9360.0 16680.0  156.0  278.0    5.1 2000.0 1995.0   36.0
   46951994 8280.0 13620.0  138.0  227.0    5.1 2000.0 1995.0   36.0
   46953013 9120.0 14400.0  152.0  240.0    5.2 2000.0 1995.0   36.0
   46954008 9120.0 14820.0  152.0  247.0    5.2 2000.0 1995.0   36.0
   46955021 8460.0 14400.0  141.0  240.0    5.1 2000.0 1995.0   36.0
   46956022 7320.0 14940.0  122.0  249.0    5.0 2000.0 1995.0   36.0
   46957034 7500.0 15060.0  125.0  251.0    5.0 2000.0 1995.0   36.0
   46958036 7260.0 15000.0  121.0  250.0    5.0 2000.0 1995.0   36.0
   46959038 8640.0 14520.0  144.0  242.0    5.1 2000.0 1995.0   36.0
   46960050 9000.0 15000.0  150.0  250.0    5.1 2000.0 1995.0   36.0
   46961060 9120.0 14580.0  152.0  243.0    5.2 2000.0 1995.0   36.0
   46962066 7560.0 13440.0  126.0  224.0    5.1 2000.0 1995.0   36.0
   46963076 9060.0 15000.0  151.0  250.0    5.1 2000.0 1995.0   36.0
   46964084 9600.0 14100.0  160.0  235.0    5.2 2000.0 1995.0   36.0
   46965090 7860.0 14880.0  131.0  248.0    5.0 2000.0 1995.0   36.0
   46966092 8460.0 13320.0  141.0  222.0    5.2 2000.0 1995.0   36.0
   46967095 7620.0 14940.0  127.0  249.0    5.0 2000.0 1995.0   36.0
   46968107 7920.0 14460.0  132.0  241.0    5.1 2000.0 1995.0   36.0
   46969104 8340.0 15000.0  139.0  250.0    5.1 2000.0 1995.0   36.0
   46970118 8280.0 13500.0  138.0  225.0    5.2 2000.0 1995.0   36.0
   46971125 7380.0 13740.0  123.0  229.0    5.1 2000.0 1995.0   36.0
   46972142 8700.0 15540.0  145.0  259.0    5.1 2000.0 1995.0   36.0
   46973143 9480.0 14820.0  158.0  247.0    5.2 2000.0 1995.0   36.0
   46974148 8820.0 14820.0  147.0  247.0    5.1 2000.0 1995.0   36.0
   46975163 9660.0 13500.0  161.0  225.0    5.3 2000.0 1995.0   36.0
   46976158 8760.0 14160.0  146.0  236.0    5.2 2000.0 1995.0   36.0
   46977161 10020.0 15780.0  167.0  263.0    5.2 2000.0 1994.0   36.0
   46978169 8820.0 16500.0  147.0  275.0    5.1 2000.0 1995.0   36.0
   46979185 8700.0 14580.0  145.0  243.0    5.1 2000.0 1995.0   36.0
   46980194 8820.0 16320.0  147.0  272.0    5.1 2000.0 1995.0   36.0
   46981204 7140.0 16500.0  119.0  275.0    4.9 2000.0 1995.0   36.0
   46982212 9180.0 16200.0  153.0  270.0    5.1 2000.0 1995.0   36.0
   46983220 9420.0 15120.0  157.0  252.0    5.2 2000.0 1995.0   36.0
   46984221 9240.0 15480.0  154.0  258.0    5.1 2000.0 1995.0   36.0
   46985227 7260.0 14580.0  121.0  243.0    5.0 2000.0 1995.0   36.0
   46986234 8700.0 16080.0  145.0  268.0    5.1 2000.0 1995.0   36.0
   46987245 8820.0 13440.0  147.0  224.0    5.2 2000.0 1995.0   36.0
   46988251 10380.0 12900.0  173.0  215.0    5.4 2000.0 1995.0   36.0
   46989252 7980.0 15180.0  133.0  253.0    5.0 2000.0 1995.0   36.0
   46990262 8580.0 14880.0  143.0  248.0    5.1 2000.0 1995.0   36.0
   46991262 8100.0 16740.0  135.0  279.0    5.0 2000.0 1995.0   36.0
   46992260 8520.0 16320.0  142.0  272.0    5.0 2000.0 1995.0   36.0
   46993268 9180.0 14820.0  153.0  247.0    5.2 2000.0 1995.0   36.0
   46994274 7260.0 14400.0  121.0  240.0    5.0 2000.0 1995.0   36.0
   46995274 9060.0 13260.0  151.0  221.0    5.2 2000.0 1995.0   36.0
   46996290 9000.0 15000.0  150.0  250.0    5.1 2000.0 1995.0   36.0
   46997295 8580.0 13980.0  143.0  233.0    5.2 2000.0 1995.0   36.0
   46998301 8700.0 14820.0  145.0  247.0    5.1 2000.0 1995.0   36.0
   46999308 8880.0 15240.0  148.0  254.0    5.1 2000.0 1995.0   36.0
   47000306 7380.0 14280.0  123.0  238.0    5.0 2000.0 1995.0   36.0
   47001308 8280.0 12900.0  138.0  215.0    5.2 2000.0 1995.0   36.0
   47002320 9600.0 16020.0  160.0  267.0    5.1 2000.0 1995.0   36.0
   47003330 8820.0 15360.0  147.0  256.0    5.1 2000.0 1995.0   36.0
   47004345 8580.0 16020.0  143.0  267.0    5.1 2000.0 1995.0   36.0
   47005356 9180.0 14160.0  153.0  236.0    5.2 2000.0 1995.0   36.0
   47006361 7860.0 13140.0  131.0  219.0    5.1 2000.0 1995.0   36.0
   47007364 8220.0 13860.0  137.0  231.0    5.1 2000.0 1995.0   36.0
   47008377 8880.0 14400.0  148.0  240.0    5.2 2000.0 1995.0   36.0
   47009391 9360.0 14760.0  156.0  246.0    5.2 2000.0 1995.0   36.0
   47010408 9900.0 14160.0  165.0  236.0    5.3 2000.0 1995.0   36.0
   47011409 8820.0 16560.0  147.0  276.0    5.1 2000.0 1995.0   36.0
   47012424 7560.0 13920.0  126.0  232.0    5.1 2000.0 1995.0   36.0
   47013426 7800.0 14760.0  130.0  246.0    5.0 2000.0 1995.0   36.0
   47014432 9000.0 14160.0  150.0  236.0    5.2 2000.0 1995.0   36.0
   47015431 9420.0 14700.0  157.0  245.0    5.2 2000.0 1995.0   36.0
   47016440 8760.0 13740.0  146.0  229.0    5.2 2000.0 1995.0   36.0
   47017442 9180.0 14460.0  153.0  241.0    5.2 2000.0 1995.0   36.0
   47018454 8880.0 14160.0  148.0  236.0    5.2 2000.0 1995.0   36.0
   47019455 9600.0 14580.0  160.0  243.0    5.2 2000.0 1995.0   36.0
   47020473 9360.0 15900.0  156.0  265.0    5.1 2000.0 1995.0   36.0
   47021481 9300.0 15480.0  155.0  258.0    5.1 2000.0 1995.0   36.0
   47022495 9060.0 14880.0  151.0  248.0    5.1 2000.0 1995.0   36.0
   47023489 8520.0 14880.0  142.0  248.0    5.1 2000.0 1995.0   36.0
   47024498 9420.0 14160.0  157.0  236.0    5.2 2000.0 1995.0   36.0
   47025506 9180.0 15300.0  153.0  255.0    5.1 2000.0 1995.0   36.0
   47026521 9000.0 15300.0  150.0  255.0    5.1 2000.0 1995.0   36.0
   47027534 8760.0 16740.0  146.0  279.0    5.0 2000.0 1995.0   36.0
   47028546 9000.0 13920.0  150.0  232.0    5.2 2000.0 1995.0   36.0
   47029548 8280.0 14040.0  138.0  234.0    5.1 2000.0 1995.0   36.0
   47030562 9600.0 15600.0  160.0  260.0    5.2 2000.0 1995.0   36.0
   47031577 9420.0 14820.0  157.0  247.0    5.2 2000.0 1995.0   36.0
   47032577 7980.0 17280.0  133.0  288.0    5.0 2000.0 1995.0   36.0
   47033585 9180.0 14280.0  153.0  238.0    5.2 2000.0 1995.0   36.0
   47034592 8640.0 15420.0  144.0  257.0    5.1 2000.0 1995.0   36.0
   47035598 7740.0 15000.0  129.0  250.0    5.0 2000.0 1995.0   36.0
   47036607 9420.0 15300.0  157.0  255.0    5.2 2000.0 1995.0   36.0
   47037616 10020.0 15240.0  167.0  254.0    5.2 2000.0 1995.0   36.0
   47038608 8580.0 15300.0  143.0  255.0    5.1 2000.0 1995.0   36.0
   47039620 8400.0 15540.0  140.0  259.0    5.1 2000.0 1995.0   36.0
   47040625 8880.0 14820.0  148.0  247.0    5.1 2000.0 1995.0   36.0
   47041638 7320.0 12960.0  122.0  216.0    5.1 2000.0 1995.0   36.0
   47042639 6780.0 15000.0  113.0  250.0    5.0 2000.0 1995.0   36.0
   47043646 9300.0 13740.0  155.0  229.0    5.2 2000.0 1995.0   36.0
   47044654 8760.0 14520.0  146.0  242.0    5.1 2000.0 1995.0   36.0
   47045657 7980.0 15360.0  133.0  256.0    5.0 2000.0 1995.0   36.0
   47046661 9780.0 14760.0  163.0  246.0    5.2 2000.0 1995.0   36.0
   47047682 7800.0 16020.0  130.0  267.0    5.0 2000.0 1995.0   35.0
   47048671 8700.0 14160.0  145.0  236.0    5.2 2000.0 1995.0   36.0
