# 
~VERSION INFORMATION
     VERS.                              2.0:Версия формата LAS
     WRAP.                               NO:Режим одной строчки на временной отчет
~WELL INFORMATION
     STRT.ms                       29740351:Время первой записи в файле
     STOP.ms                       47053724:Время последней записи в файле
     STEP.ms                              0:Шаг времени, 0 - переменный шаг
     NULL.                          -999.25:Метка, нет значения
     DATE.                       28.04.2023:Дата каротажа
      DRV.                                 :Наименование драйвера прибора
     NAME.                          ННКТ(б):Название прибора
     SNUM.                                 :Серийный номер прибора
     FRMW.                                 :Версия прошивки на контроллере прибора
~CURVE INFORMATION
     TIME.ms                       {0,11:0}:Время, количество миллисекунд от начало суток
     NTNC.имп/мин                          :Счёт, ближний зонд ННКТ
     FTNC.у.е.                             :Счёт, дальний зонд ННКТ
     NTNL.имп/мин                          :Счёт нормированный на счёт в воде, ближний зонд ННКТ
     FTNL.у.е.                             :Счёт нормированный на счёт в воде, дальний зонд ННКТ
     TRNP.%                                :Пористость по водородосодержанию ННКТ
     UHVS.В                                :Установленное напряжение на высоковольтнике
     UHVM.В                                :Измеренное напряжение на высоковольтнике
       MT.°C                               :Температура
~OTHER INFORMATION


~A     TIME   NTNC   FTNC   NTNL   FTNL   TRNP   UHVS   UHVM     MT
# ...
   40030122 9420.0 14040.0  157.0  234.0    5.2 2000.0 1995.0   63.0
   40031123 9120.0 12300.0  152.0  205.0    5.3 2000.0 1995.0   63.0
   40032139 9480.0 14760.0  158.0  246.0    5.2 2000.0 1995.0   63.0
   40033146 7980.0 15300.0  133.0  255.0    5.0 2000.0 1995.0   63.0
   40034148 8760.0 13620.0  146.0  227.0    5.2 2000.0 1995.0   63.0
   40035159 8940.0 15000.0  149.0  250.0    5.1 2000.0 1995.0   63.0
   40036172 9600.0 14100.0  160.0  235.0    5.2 2000.0 1995.0   63.0
   40037173 8040.0 16620.0  134.0  277.0    5.0 2000.0 1995.0   63.0
   40038174 8640.0 16020.0  144.0  267.0    5.1 2000.0 1995.0   63.0
   40039177 9120.0 14280.0  152.0  238.0    5.2 2000.0 1996.0   63.0
   40040190 9000.0 16020.0  150.0  267.0    5.1 2000.0 1995.0   63.0
   40041201 8760.0 15000.0  146.0  250.0    5.1 2000.0 1995.0   63.0
   40042215 9000.0 15360.0  150.0  256.0    5.1 2000.0 1995.0   63.0
   40043228 9120.0 16920.0  152.0  282.0    5.1 2000.0 1995.0   63.0
   40044232 8040.0 14520.0  134.0  242.0    5.1 2000.0 1996.0   63.0
   40045249 9000.0 16440.0  150.0  274.0    5.1 2000.0 1996.0   63.0
   40046265 8460.0 14460.0  141.0  241.0    5.1 2000.0 1995.0   63.0
   40047273 9300.0 15420.0  155.0  257.0    5.1 2000.0 1995.0   63.0
   40048286 8460.0 13800.0  141.0  230.0    5.2 2000.0 1995.0   63.0
   40049288 9420.0 14040.0  157.0  234.0    5.2 2000.0 1995.0   63.0
   40050302 8760.0 13560.0  146.0  226.0    5.2 2000.0 1995.0   63.0
   40051318 9300.0 13800.0  155.0  230.0    5.2 2000.0 1995.0   63.0
   40052312 8760.0 14520.0  146.0  242.0    5.1 2000.0 1996.0   63.0
   40053325 7680.0 15420.0  128.0  257.0    5.0 2000.0 1995.0   63.0
   40054331 8760.0 14580.0  146.0  243.0    5.1 2000.0 1995.0   63.0
   40055333 8040.0 15600.0  134.0  260.0    5.0 2000.0 1995.0   63.0
   40056337 7800.0 14760.0  130.0  246.0    5.0 2000.0 1995.0   63.0
   40057348 8760.0 14760.0  146.0  246.0    5.1 2000.0 1995.0   62.0
   40058353 8400.0 13740.0  140.0  229.0    5.1 2000.0 1996.0   63.0
   40059361 8460.0 16980.0  141.0  283.0    5.0 2000.0 1995.0   62.0
   40060363 8520.0 13380.0  142.0  223.0    5.2 2000.0 1995.0   63.0
   40061377 8760.0 12960.0  146.0  216.0    5.2 2000.0 1996.0   63.0
   40062389 8760.0 14820.0  146.0  247.0    5.1 2000.0 1996.0   63.0
   40063393 8160.0 13860.0  136.0  231.0    5.1 2000.0 1995.0   63.0
   40064410 10200.0 13800.0  170.0  230.0    5.3 2000.0 1995.0   62.0
   40065424 9060.0 16440.0  151.0  274.0    5.1 2000.0 1995.0   63.0
   40066434 8820.0 14160.0  147.0  236.0    5.2 2000.0 1996.0   62.0
   40067447 7800.0 14160.0  130.0  236.0    5.1 2000.0 1995.0   62.0
   40068447 8100.0 15000.0  135.0  250.0    5.1 2000.0 1995.0   63.0
   40069448 8280.0 14580.0  138.0  243.0    5.1 2000.0 1995.0   63.0
   40070454 9960.0 15780.0  166.0  263.0    5.2 2000.0 1996.0   62.0
   40071463 9840.0 15120.0  164.0  252.0    5.2 2000.0 1995.0   62.0
   40072472 9660.0 14820.0  161.0  247.0    5.2 2000.0 1996.0   62.0
   40073477 7500.0 14460.0  125.0  241.0    5.0 2000.0 1995.0   63.0
   40074490 8580.0 15660.0  143.0  261.0    5.1 2000.0 1996.0   62.0
   40075494 9480.0 15060.0  158.0  251.0    5.2 2000.0 1996.0   62.0
   40076510 7980.0 15240.0  133.0  254.0    5.0 2000.0 1995.0   62.0
   40077517 8100.0 14640.0  135.0  244.0    5.1 2000.0 1995.0   62.0
   40078517 8700.0 13920.0  145.0  232.0    5.2 2000.0 1995.0   62.0
   40079528 8880.0 14640.0  148.0  244.0    5.1 2000.0 1995.0   62.0
   40080525 8640.0 15540.0  144.0  259.0    5.1 2000.0 1995.0   62.0
   40081530 9060.0 15000.0  151.0  250.0    5.1 2000.0 1995.0   62.0
   40082547 7800.0 14820.0  130.0  247.0    5.0 2000.0 1996.0   62.0
   40083547 9120.0 16200.0  152.0  270.0    5.1 2000.0 1995.0   62.0
   40084554 8220.0 16860.0  137.0  281.0    5.0 2000.0 1995.0   62.0
   40085565 8160.0 15000.0  136.0  250.0    5.1 2000.0 1996.0   62.0
   40086568 8460.0 13620.0  141.0  227.0    5.2 2000.0 1995.0   62.0
   40087578 7560.0 13920.0  126.0  232.0    5.1 2000.0 1996.0   62.0
   40088589 8940.0 14700.0  149.0  245.0    5.1 2000.0 1995.0   62.0
   40089595 8640.0 13860.0  144.0  231.0    5.2 2000.0 1995.0   62.0
   40090605 8640.0 16140.0  144.0  269.0    5.1 2000.0 1995.0   62.0
   40091625 8280.0 16140.0  138.0  269.0    5.0 2000.0 1996.0   62.0
   40092625 8880.0 15240.0  148.0  254.0    5.1 2000.0 1996.0   62.0
   40093627 8820.0 14040.0  147.0  234.0    5.2 2000.0 1996.0   62.0
   40094628 8160.0 14700.0  136.0  245.0    5.1 2000.0 1995.0   62.0
   40095639 9240.0 14880.0  154.0  248.0    5.2 2000.0 1995.0   62.0
   40096655 8100.0 15180.0  135.0  253.0    5.1 2000.0 1996.0   62.0
   40097665 9000.0 16140.0  150.0  269.0    5.1 2000.0 1995.0   62.0
   40098669 9960.0 14880.0  166.0  248.0    5.2 2000.0 1995.0   62.0
   40099670 8520.0 14040.0  142.0  234.0    5.1 2000.0 1996.0   62.0
   40100690 8520.0 17100.0  142.0  285.0    5.0 2000.0 1995.0   62.0
   40101696 9480.0 14760.0  158.0  246.0    5.2 2000.0 1995.0   62.0
   40102700 8940.0 14820.0  149.0  247.0    5.1 2000.0 1996.0   62.0
   40103714 9180.0 15120.0  153.0  252.0    5.1 2000.0 1995.0   62.0
   40104715 9660.0 15000.0  161.0  250.0    5.2 2000.0 1996.0   62.0
   40105723 8820.0 14220.0  147.0  237.0    5.2 2000.0 1995.0   62.0
   40106733 8040.0 13140.0  134.0  219.0    5.2 2000.0 1995.0   62.0
   40107731 7800.0 15420.0  130.0  257.0    5.0 2000.0 1995.0   62.0
   40108750 8220.0 14940.0  137.0  249.0    5.1 2000.0 1996.0   62.0
   40109776 7920.0 14880.0  132.0  248.0    5.1 2000.0 1995.0   62.0
   40110766 7980.0 13140.0  133.0  219.0    5.1 2000.0 1995.0   62.0
   40111779 8220.0 15480.0  137.0  258.0    5.1 2000.0 1995.0   62.0
   40112795 8640.0 14160.0  144.0  236.0    5.1 2000.0 1995.0   62.0
   40113813 8640.0 15480.0  144.0  258.0    5.1 2000.0 1995.0   62.0
   40114805 9600.0 15360.0  160.0  256.0    5.2 2000.0 1995.0   62.0
   40115825 7920.0 15660.0  132.0  261.0    5.0 2000.0 1995.0   62.0
   40116821 9360.0 16740.0  156.0  279.0    5.1 2000.0 1995.0   62.0
   40117825 8880.0 14580.0  148.0  243.0    5.1 2000.0 1995.0   62.0
   40118827 7860.0 16080.0  131.0  268.0    5.0 2000.0 1996.0   62.0
   40119825 8700.0 14640.0  145.0  244.0    5.1 2000.0 1996.0   62.0
   40120829 9780.0 14760.0  163.0  246.0    5.2 2000.0 1996.0   62.0
   40121832 9300.0 15660.0  155.0  261.0    5.1 2000.0 1995.0   62.0
   40122847 9960.0 14580.0  166.0  243.0    5.2 2000.0 1995.0   62.0
   40123860 9480.0 12660.0  158.0  211.0    5.3 2000.0 1996.0   62.0
   40124865 8460.0 15540.0  141.0  259.0    5.1 2000.0 1995.0   62.0
   40125873 8340.0 15180.0  139.0  253.0    5.1 2000.0 1995.0   62.0
   40126885 8640.0 14640.0  144.0  244.0    5.1 2000.0 1995.0   62.0
   40127895 8280.0 13740.0  138.0  229.0    5.1 2000.0 1995.0   62.0
   40128921 9300.0 15600.0  155.0  260.0    5.1 2000.0 1995.0   62.0
   40129922 8580.0 15000.0  143.0  250.0    5.1 2000.0 1995.0   62.0
   40130938 7020.0 16020.0  117.0  267.0    4.9 2000.0 1995.0   62.0
   40131942 8160.0 14280.0  136.0  238.0    5.1 2000.0 1995.0   62.0
   40132956 10020.0 13440.0  167.0  224.0    5.3 2000.0 1995.0   62.0
   40133972 9000.0 15180.0  150.0  253.0    5.1 2000.0 1995.0   62.0
   40134988 7380.0 15180.0  123.0  253.0    5.0 2000.0 1995.0   62.0
   40136001 8580.0 17340.0  143.0  289.0    5.0 2000.0 1995.0   62.0
   40137005 9060.0 17040.0  151.0  284.0    5.1 2000.0 1995.0   62.0
   40138019 8520.0 16440.0  142.0  274.0    5.0 2000.0 1995.0   62.0
   40139024 8520.0 15060.0  142.0  251.0    5.1 2000.0 1995.0   62.0
   40140041 9300.0 14820.0  155.0  247.0    5.2 2000.0 1995.0   62.0
   40141042 8280.0 14820.0  138.0  247.0    5.1 2000.0 1995.0   62.0
   40142049 9600.0 15840.0  160.0  264.0    5.1 2000.0 1996.0   62.0
   40143056 8160.0 15420.0  136.0  257.0    5.0 2000.0 1995.0   62.0
   40144063 9600.0 15360.0  160.0  256.0    5.2 2000.0 1995.0   62.0
   40145070 7920.0 16200.0  132.0  270.0    5.0 2000.0 1995.0   62.0
   40146071 8760.0 13020.0  146.0  217.0    5.2 2000.0 1996.0   62.0
