# 
~VERSION INFORMATION
     VERS.                              2.0:Версия формата LAS
     WRAP.                               NO:Режим одной строчки на временной отчет
~WELL INFORMATION
     STRT.ms                       29740351:Время первой записи в файле
     STOP.ms                       47053724:Время последней записи в файле
     STEP.ms                              0:Шаг времени, 0 - переменный шаг
     NULL.                          -999.25:Метка, нет значения
     DATE.                       28.04.2023:Дата каротажа
      DRV.                                 :Наименование драйвера прибора
     NAME.                          ННКТ(б):Название прибора
     SNUM.                                 :Серийный номер прибора
     FRMW.                                 :Версия прошивки на контроллере прибора
~CURVE INFORMATION
     TIME.ms                       {0,11:0}:Время, количество миллисекунд от начало суток
     NTNC.имп/мин                          :Счёт, ближний зонд ННКТ
     FTNC.у.е.                             :Счёт, дальний зонд ННКТ
     NTNL.имп/мин                          :Счёт нормированный на счёт в воде, ближний зонд ННКТ
     FTNL.у.е.                             :Счёт нормированный на счёт в воде, дальний зонд ННКТ
     TRNP.%                                :Пористость по водородосодержанию ННКТ
     UHVS.В                                :Установленное напряжение на высоковольтнике
     UHVM.В                                :Измеренное напряжение на высоковольтнике
       MT.°C                               :Температура
~OTHER INFORMATION


~A     TIME   NTNC   FTNC   NTNL   FTNL   TRNP   UHVS   UHVM     MT
# ...
   43538793 10020.0 14640.0  167.0  244.0    5.2 2000.0 1995.0   50.0
   43539809 9600.0 15120.0  160.0  252.0    5.2 2000.0 1995.0   50.0
   43540799 8520.0 14880.0  142.0  248.0    5.1 2000.0 1995.0   50.0
   43541823 7140.0 17160.0  119.0  286.0    4.9 2000.0 1995.0   50.0
   43542831 8460.0 14160.0  141.0  236.0    5.1 2000.0 1995.0   50.0
   43543844 9000.0 15120.0  150.0  252.0    5.1 2000.0 1995.0   50.0
   43544856 8760.0 14400.0  146.0  240.0    5.1 2000.0 1995.0   50.0
   43545870 8940.0 12960.0  149.0  216.0    5.2 2000.0 1996.0   50.0
   43546878 7980.0 15900.0  133.0  265.0    5.0 2000.0 1995.0   50.0
   43547875 9300.0 15900.0  155.0  265.0    5.1 2000.0 1995.0   50.0
   43548879 9660.0 14340.0  161.0  239.0    5.2 2000.0 1995.0   50.0
   43549890 7860.0 14520.0  131.0  242.0    5.1 2000.0 1995.0   50.0
   43550909 8880.0 16140.0  148.0  269.0    5.1 2000.0 1995.0   50.0
   43551924 9240.0 14340.0  154.0  239.0    5.2 2000.0 1995.0   50.0
   43552940 10020.0 14040.0  167.0  234.0    5.3 2000.0 1995.0   50.0
   43553948 7980.0 15660.0  133.0  261.0    5.0 2000.0 1995.0   50.0
   43554950 9300.0 14700.0  155.0  245.0    5.2 2000.0 1995.0   50.0
   43555964 7920.0 15900.0  132.0  265.0    5.0 2000.0 1995.0   50.0
   43556978 8700.0 13800.0  145.0  230.0    5.2 2000.0 1995.0   50.0
   43557979 9180.0 15660.0  153.0  261.0    5.1 2000.0 1995.0   50.0
   43558987 8280.0 12600.0  138.0  210.0    5.2 2000.0 1995.0   50.0
   43559995 9120.0 14520.0  152.0  242.0    5.2 2000.0 1995.0   50.0
   43560996 7620.0 13800.0  127.0  230.0    5.1 2000.0 1995.0   50.0
   43562004 9120.0 13860.0  152.0  231.0    5.2 2000.0 1995.0   50.0
   43563018 9660.0 14040.0  161.0  234.0    5.2 2000.0 1995.0   50.0
   43564021 9420.0 13680.0  157.0  228.0    5.2 2000.0 1995.0   50.0
   43565027 7200.0 15420.0  120.0  257.0    5.0 2000.0 1995.0   50.0
   43566052 8820.0 15660.0  147.0  261.0    5.1 2000.0 1995.0   50.0
   43567060 8160.0 14160.0  136.0  236.0    5.1 2000.0 1995.0   50.0
   43568059 8100.0 13500.0  135.0  225.0    5.1 2000.0 1995.0   50.0
   43569073 10080.0 15540.0  168.0  259.0    5.2 2000.0 1995.0   50.0
   43570077 9660.0 16500.0  161.0  275.0    5.1 2000.0 1995.0   50.0
   43571079 8220.0 15360.0  137.0  256.0    5.1 2000.0 1996.0   50.0
   43572081 10860.0 15180.0  181.0  253.0    5.3 2000.0 1995.0   50.0
   43573097 7380.0 14580.0  123.0  243.0    5.0 2000.0 1995.0   50.0
   43574110 9240.0 13260.0  154.0  221.0    5.3 2000.0 1995.0   50.0
   43575124 9660.0 14520.0  161.0  242.0    5.2 2000.0 1995.0   50.0
   43576132 8640.0 14460.0  144.0  241.0    5.1 2000.0 1995.0   50.0
   43577151 8760.0 13860.0  146.0  231.0    5.2 2000.0 1995.0   50.0
   43578163 9360.0 14220.0  156.0  237.0    5.2 2000.0 1995.0   50.0
   43579157 9600.0 13920.0  160.0  232.0    5.2 2000.0 1995.0   50.0
   43580158 7980.0 13200.0  133.0  220.0    5.1 2000.0 1995.0   50.0
   43581160 9000.0 15240.0  150.0  254.0    5.1 2000.0 1995.0   50.0
   43582176 8460.0 15120.0  141.0  252.0    5.1 2000.0 1995.0   50.0
   43583183 9000.0 15660.0  150.0  261.0    5.1 2000.0 1995.0   50.0
   43584177 8640.0 13680.0  144.0  228.0    5.2 2000.0 1995.0   50.0
   43585190 7500.0 15660.0  125.0  261.0    5.0 2000.0 1995.0   50.0
   43586207 8640.0 15720.0  144.0  262.0    5.1 2000.0 1995.0   50.0
   43587206 8820.0 15900.0  147.0  265.0    5.1 2000.0 1995.0   50.0
   43588214 9060.0 14340.0  151.0  239.0    5.2 2000.0 1995.0   50.0
   43589232 8400.0 14220.0  140.0  237.0    5.1 2000.0 1995.0   50.0
   43590226 9660.0 14700.0  161.0  245.0    5.2 2000.0 1995.0   50.0
   43591239 9000.0 14700.0  150.0  245.0    5.2 2000.0 1995.0   50.0
   43592257 8820.0 15060.0  147.0  251.0    5.1 2000.0 1995.0   50.0
   43593270 9540.0 14700.0  159.0  245.0    5.2 2000.0 1995.0   50.0
   43594283 8340.0 15960.0  139.0  266.0    5.0 2000.0 1995.0   50.0
   43595294 8280.0 13500.0  138.0  225.0    5.2 2000.0 1995.0   50.0
   43596295 9120.0 13920.0  152.0  232.0    5.2 2000.0 1995.0   50.0
   43597307 8400.0 13800.0  140.0  230.0    5.1 2000.0 1995.0   50.0
   43598322 8760.0 14460.0  146.0  241.0    5.1 2000.0 1995.0   50.0
   43599323 8640.0 14160.0  144.0  236.0    5.1 2000.0 1995.0   50.0
   43600328 8160.0 17160.0  136.0  286.0    5.0 2000.0 1995.0   50.0
   43601349 8460.0 14100.0  141.0  235.0    5.1 2000.0 1995.0   50.0
   43602347 7800.0 15300.0  130.0  255.0    5.0 2000.0 1995.0   50.0
   43603362 9000.0 14940.0  150.0  249.0    5.1 2000.0 1995.0   50.0
   43604367 7980.0 15000.0  133.0  250.0    5.1 2000.0 1995.0   50.0
   43605371 8100.0 15360.0  135.0  256.0    5.0 2000.0 1995.0   50.0
   43606383 9420.0 13140.0  157.0  219.0    5.3 2000.0 1995.0   50.0
   43607403 8100.0 15000.0  135.0  250.0    5.1 2000.0 1995.0   50.0
   43608405 7920.0 16680.0  132.0  278.0    5.0 2000.0 1995.0   50.0
   43609426 8160.0 14100.0  136.0  235.0    5.1 2000.0 1995.0   50.0
   43610423 8760.0 14340.0  146.0  239.0    5.1 2000.0 1995.0   50.0
   43611430 8460.0 14520.0  141.0  242.0    5.1 2000.0 1995.0   50.0
   43612446 8760.0 14880.0  146.0  248.0    5.1 2000.0 1995.0   50.0
   43613448 9900.0 15780.0  165.0  263.0    5.2 2000.0 1995.0   50.0
   43614455 9660.0 14880.0  161.0  248.0    5.2 2000.0 1995.0   49.0
   43615472 9240.0 14520.0  154.0  242.0    5.2 2000.0 1995.0   50.0
   43616477 9960.0 16260.0  166.0  271.0    5.2 2000.0 1995.0   49.0
   43617480 8400.0 15780.0  140.0  263.0    5.1 2000.0 1995.0   49.0
   43618494 8640.0 14040.0  144.0  234.0    5.2 2000.0 1995.0   50.0
   43619501 8160.0 15660.0  136.0  261.0    5.0 2000.0 1995.0   49.0
   43620504 8940.0 15060.0  149.0  251.0    5.1 2000.0 1995.0   49.0
   43621517 10440.0 16380.0  174.0  273.0    5.2 2000.0 1995.0   49.0
   43622524 9780.0 15420.0  163.0  257.0    5.2 2000.0 1995.0   49.0
   43623528 8880.0 14400.0  148.0  240.0    5.2 2000.0 1995.0   49.0
   43624533 8940.0 13800.0  149.0  230.0    5.2 2000.0 1995.0   49.0
   43625547 10320.0 15120.0  172.0  252.0    5.2 2000.0 1995.0   49.0
   43626562 8820.0 14760.0  147.0  246.0    5.1 2000.0 1995.0   49.0
   43627556 9060.0 13380.0  151.0  223.0    5.2 2000.0 1995.0   49.0
   43628570 8700.0 16380.0  145.0  273.0    5.1 2000.0 1995.0   49.0
   43629563 7260.0 13980.0  121.0  233.0    5.0 2000.0 1995.0   49.0
   43630575 8580.0 13980.0  143.0  233.0    5.2 2000.0 1995.0   49.0
   43631576 8940.0 16440.0  149.0  274.0    5.1 2000.0 1995.0   49.0
   43632581 9240.0 15120.0  154.0  252.0    5.1 2000.0 1995.0   49.0
   43633589 9240.0 16920.0  154.0  282.0    5.1 2000.0 1995.0   49.0
   43634593 8640.0 14580.0  144.0  243.0    5.1 2000.0 1995.0   49.0
   43635610 7980.0 15600.0  133.0  260.0    5.0 2000.0 1995.0   49.0
   43636616 9180.0 15000.0  153.0  250.0    5.2 2000.0 1995.0   49.0
   43637631 7800.0 14460.0  130.0  241.0    5.1 2000.0 1995.0   49.0
   43638643 9300.0 12480.0  155.0  208.0    5.3 2000.0 1995.0   49.0
   43639651 9120.0 15360.0  152.0  256.0    5.1 2000.0 1995.0   49.0
   43640653 7500.0 15000.0  125.0  250.0    5.0 2000.0 1995.0   49.0
   43641671 7920.0 15000.0  132.0  250.0    5.0 2000.0 1995.0   49.0
   43642673 8340.0 13860.0  139.0  231.0    5.1 2000.0 1995.0   49.0
   43643689 9960.0 15600.0  166.0  260.0    5.2 2000.0 1995.0   49.0
   43644695 9480.0 14520.0  158.0  242.0    5.2 2000.0 1995.0   49.0
   43645703 7620.0 13740.0  127.0  229.0    5.1 2000.0 1995.0   49.0
   43646710 8820.0 15300.0  147.0  255.0    5.1 2000.0 1995.0   49.0
   43647711 9600.0 14880.0  160.0  248.0    5.2 2000.0 1995.0   49.0
   43648721 9120.0 13080.0  152.0  218.0    5.3 2000.0 1995.0   49.0
   43649719 9660.0 14940.0  161.0  249.0    5.2 2000.0 1995.0   49.0
   43650723 8520.0 14460.0  142.0  241.0    5.1 2000.0 1995.0   49.0
   43651724 8400.0 14040.0  140.0  234.0    5.1 2000.0 1995.0   49.0
   43652734 10260.0 15180.0  171.0  253.0    5.2 2000.0 1995.0   49.0
   43653734 7620.0 15540.0  127.0  259.0    5.0 2000.0 1995.0   49.0
   43654745 9600.0 14700.0  160.0  245.0    5.2 2000.0 1995.0   49.0
