# 
~VERSION INFORMATION
     VERS.                              2.0:Версия формата LAS
     WRAP.                               NO:Режим одной строчки на временной отчет
~WELL INFORMATION
     STRT.ms                       29740351:Время первой записи в файле
     STOP.ms                       47053724:Время последней записи в файле
     STEP.ms                              0:Шаг времени, 0 - переменный шаг
     NULL.                          -999.25:Метка, нет значения
     DATE.                       28.04.2023:Дата каротажа
      DRV.                                 :Наименование драйвера прибора
     NAME.                          ННКТ(б):Название прибора
     SNUM.                                 :Серийный номер прибора
     FRMW.                                 :Версия прошивки на контроллере прибора
~CURVE INFORMATION
     TIME.ms                       {0,11:0}:Время, количество миллисекунд от начало суток
     NTNC.имп/мин                          :Счёт, ближний зонд ННКТ
     FTNC.у.е.                             :Счёт, дальний зонд ННКТ
     NTNL.имп/мин                          :Счёт нормированный на счёт в воде, ближний зонд ННКТ
     FTNL.у.е.                             :Счёт нормированный на счёт в воде, дальний зонд ННКТ
     TRNP.%                                :Пористость по водородосодержанию ННКТ
     UHVS.В                                :Установленное напряжение на высоковольтнике
     UHVM.В                                :Измеренное напряжение на высоковольтнике
       MT.°C                               :Температура
~OTHER INFORMATION


~A     TIME   NTNC   FTNC   NTNL   FTNL   TRNP   UHVS   UHVM     MT
# ...
   36638657 9060.0 15420.0  151.0  257.0    5.1 2000.0 1996.0   78.0
   36639671 9240.0 14820.0  154.0  247.0    5.2 2000.0 1996.0   78.0
   36640676 9240.0 16260.0  154.0  271.0    5.1 2000.0 1996.0   78.0
   36641690 8100.0 16080.0  135.0  268.0    5.0 2000.0 1996.0   78.0
   36642708 8580.0 15300.0  143.0  255.0    5.1 2000.0 1996.0   78.0
   36643716 8820.0 14520.0  147.0  242.0    5.1 2000.0 1996.0   78.0
   36644717 9600.0 13380.0  160.0  223.0    5.3 2000.0 1996.0   78.0
   36645723 8100.0 15240.0  135.0  254.0    5.1 2000.0 1996.0   78.0
   36646741 8220.0 14400.0  137.0  240.0    5.1 2000.0 1996.0   78.0
   36647749 8280.0 14880.0  138.0  248.0    5.1 2000.0 1996.0   78.0
   36648765 9180.0 14160.0  153.0  236.0    5.2 2000.0 1996.0   78.0
   36649771 7980.0 13680.0  133.0  228.0    5.1 2000.0 1996.0   78.0
   36650789 8580.0 14940.0  143.0  249.0    5.1 2000.0 1996.0   78.0
   36651800 8760.0 14160.0  146.0  236.0    5.2 2000.0 1996.0   78.0
   36652802 7500.0 13980.0  125.0  233.0    5.1 2000.0 1996.0   78.0
   36653803 8520.0 13920.0  142.0  232.0    5.1 2000.0 1996.0   78.0
   36654816 8400.0 14400.0  140.0  240.0    5.1 2000.0 1996.0   78.0
   36655831 8040.0 14100.0  134.0  235.0    5.1 2000.0 1996.0   78.0
   36656852 9360.0 12960.0  156.0  216.0    5.3 2000.0 1996.0   78.0
   36657849 9300.0 15060.0  155.0  251.0    5.2 2000.0 1996.0   78.0
   36658851 8280.0 15720.0  138.0  262.0    5.0 2000.0 1996.0   78.0
   36659864 9120.0 14520.0  152.0  242.0    5.2 2000.0 1996.0   78.0
   36660877 7560.0 14040.0  126.0  234.0    5.1 2000.0 1996.0   78.0
   36661879 8040.0 14100.0  134.0  235.0    5.1 2000.0 1996.0   78.0
   36662879 9780.0 15600.0  163.0  260.0    5.2 2000.0 1996.0   78.0
   36663894 8040.0 14400.0  134.0  240.0    5.1 2000.0 1996.0   78.0
   36664901 8220.0 15540.0  137.0  259.0    5.0 2000.0 1996.0   78.0
   36665917 9420.0 15000.0  157.0  250.0    5.2 2000.0 1996.0   78.0
   36666918 9300.0 15120.0  155.0  252.0    5.2 2000.0 1996.0   78.0
   36667933 8040.0 13140.0  134.0  219.0    5.2 2000.0 1996.0   78.0
   36668940 9480.0 14460.0  158.0  241.0    5.2 2000.0 1996.0   78.0
   36669942 7740.0 15360.0  129.0  256.0    5.0 2000.0 1996.0   78.0
   36670943 9300.0 14940.0  155.0  249.0    5.2 2000.0 1996.0   78.0
   36671950 7980.0 14940.0  133.0  249.0    5.1 2000.0 1996.0   78.0
   36672952 8880.0 15660.0  148.0  261.0    5.1 2000.0 1996.0   78.0
   36673953 9300.0 15780.0  155.0  263.0    5.1 2000.0 1996.0   78.0
   36674961 9060.0 12840.0  151.0  214.0    5.3 2000.0 1996.0   78.0
   36675962 7260.0 14040.0  121.0  234.0    5.0 2000.0 1996.0   78.0
   36676978 8700.0 14340.0  145.0  239.0    5.1 2000.0 1996.0   77.0
   36677983 8100.0 16080.0  135.0  268.0    5.0 2000.0 1996.0   77.0
   36678999 7440.0 14520.0  124.0  242.0    5.0 2000.0 1996.0   78.0
   36679993 8880.0 15000.0  148.0  250.0    5.1 2000.0 1996.0   78.0
   36680994 8520.0 15360.0  142.0  256.0    5.1 2000.0 1996.0   78.0
   36682001 8580.0 14040.0  143.0  234.0    5.1 2000.0 1996.0   78.0
   36683001 8220.0 14940.0  137.0  249.0    5.1 2000.0 1996.0   78.0
   36684002 9000.0 15000.0  150.0  250.0    5.1 2000.0 1996.0   78.0
   36685020 8580.0 14100.0  143.0  235.0    5.1 2000.0 1996.0   78.0
   36686027 7620.0 14580.0  127.0  243.0    5.0 2000.0 1996.0   78.0
   36687036 9120.0 14880.0  152.0  248.0    5.2 2000.0 1996.0   78.0
   36688045 8340.0 14220.0  139.0  237.0    5.1 2000.0 1996.0   78.0
   36689045 9300.0 15060.0  155.0  251.0    5.2 2000.0 1996.0   77.0
   36690051 9180.0 14340.0  153.0  239.0    5.2 2000.0 1996.0   77.0
   36691051 8520.0 14580.0  142.0  243.0    5.1 2000.0 1996.0   78.0
   36692064 7860.0 13980.0  131.0  233.0    5.1 2000.0 1996.0   78.0
   36693071 8580.0 16380.0  143.0  273.0    5.0 2000.0 1996.0   77.0
   36694072 9120.0 15420.0  152.0  257.0    5.1 2000.0 1996.0   78.0
   36695073 8160.0 14820.0  136.0  247.0    5.1 2000.0 1996.0   77.0
   36696088 7800.0 12000.0  130.0  200.0    5.2 2000.0 1996.0   77.0
   36697090 10020.0 13740.0  167.0  229.0    5.3 2000.0 1996.0   77.0
   36698104 8280.0 14820.0  138.0  247.0    5.1 2000.0 1996.0   77.0
   36699108 8940.0 13320.0  149.0  222.0    5.2 2000.0 1996.0   77.0
   36700110 8040.0 12060.0  134.0  201.0    5.2 2000.0 1996.0   77.0
   36701112 8400.0 14280.0  140.0  238.0    5.1 2000.0 1996.0   77.0
   36702119 8400.0 14820.0  140.0  247.0    5.1 2000.0 1996.0   77.0
   36703121 9360.0 13680.0  156.0  228.0    5.2 2000.0 1996.0   77.0
   36704130 8520.0 13440.0  142.0  224.0    5.2 2000.0 1996.0   77.0
   36705139 7920.0 14940.0  132.0  249.0    5.1 2000.0 1996.0   77.0
   36706149 9540.0 15180.0  159.0  253.0    5.2 2000.0 1996.0   77.0
   36707144 10080.0 16020.0  168.0  267.0    5.2 2000.0 1996.0   77.0
   36708144 7980.0 15300.0  133.0  255.0    5.0 2000.0 1996.0   77.0
   36709151 8280.0 15480.0  138.0  258.0    5.1 2000.0 1996.0   77.0
   36710159 8580.0 15840.0  143.0  264.0    5.1 2000.0 1996.0   77.0
   36711172 8160.0 15180.0  136.0  253.0    5.1 2000.0 1996.0   77.0
   36712170 8820.0 15060.0  147.0  251.0    5.1 2000.0 1996.0   77.0
   36713173 7920.0 13620.0  132.0  227.0    5.1 2000.0 1996.0   77.0
   36714172 8940.0 13740.0  149.0  229.0    5.2 2000.0 1996.0   77.0
   36715174 10200.0 13380.0  170.0  223.0    5.3 2000.0 1996.0   77.0
   36716176 9240.0 14220.0  154.0  237.0    5.2 2000.0 1996.0   77.0
   36717192 9840.0 15000.0  164.0  250.0    5.2 2000.0 1996.0   77.0
   36718203 9780.0 13920.0  163.0  232.0    5.3 2000.0 1996.0   77.0
   36719211 9420.0 15360.0  157.0  256.0    5.2 2000.0 1996.0   77.0
   36720238 9360.0 14760.0  156.0  246.0    5.2 2000.0 1996.0   77.0
   36721228 8940.0 14400.0  149.0  240.0    5.2 2000.0 1996.0   77.0
   36722229 8700.0 14160.0  145.0  236.0    5.2 2000.0 1996.0   77.0
   36723230 8820.0 15840.0  147.0  264.0    5.1 2000.0 1996.0   77.0
   36724231 8280.0 15240.0  138.0  254.0    5.1 2000.0 1996.0   77.0
   36725246 8160.0 14580.0  136.0  243.0    5.1 2000.0 1996.0   77.0
   36726264 8160.0 15660.0  136.0  261.0    5.0 2000.0 1996.0   77.0
   36727270 9660.0 15600.0  161.0  260.0    5.2 2000.0 1996.0   77.0
   36728284 8760.0 12780.0  146.0  213.0    5.2 2000.0 1996.0   77.0
   36729300 8280.0 16080.0  138.0  268.0    5.0 2000.0 1996.0   77.0
   36730294 8760.0 14520.0  146.0  242.0    5.1 2000.0 1996.0   77.0
   36731294 9540.0 14640.0  159.0  244.0    5.2 2000.0 1996.0   77.0
   36732309 7860.0 15000.0  131.0  250.0    5.0 2000.0 1996.0   77.0
   36733317 8700.0 14760.0  145.0  246.0    5.1 2000.0 1996.0   77.0
   36734332 7980.0 14580.0  133.0  243.0    5.1 2000.0 1996.0   77.0
   36735346 7740.0 14940.0  129.0  249.0    5.0 2000.0 1996.0   77.0
   36736362 9180.0 16500.0  153.0  275.0    5.1 2000.0 1996.0   77.0
   36737377 9480.0 15600.0  158.0  260.0    5.1 2000.0 1996.0   77.0
   36738394 8520.0 14400.0  142.0  240.0    5.1 2000.0 1996.0   77.0
   36739403 8460.0 16080.0  141.0  268.0    5.0 2000.0 1996.0   77.0
   36740419 8940.0 15240.0  149.0  254.0    5.1 2000.0 1996.0   77.0
   36741419 9720.0 15240.0  162.0  254.0    5.2 2000.0 1996.0   77.0
   36742424 9540.0 15720.0  159.0  262.0    5.1 2000.0 1996.0   77.0
   36743426 8280.0 13500.0  138.0  225.0    5.2 2000.0 1996.0   77.0
   36744440 8400.0 14460.0  140.0  241.0    5.1 2000.0 1996.0   77.0
   36745457 8880.0 14340.0  148.0  239.0    5.2 2000.0 1996.0   77.0
   36746466 8040.0 14400.0  134.0  240.0    5.1 2000.0 1996.0   77.0
   36747465 9120.0 14940.0  152.0  249.0    5.1 2000.0 1996.0   77.0
   36748466 8400.0 15240.0  140.0  254.0    5.1 2000.0 1996.0   77.0
   36749483 9360.0 15480.0  156.0  258.0    5.1 2000.0 1996.0   77.0
   36750494 7800.0 13860.0  130.0  231.0    5.1 2000.0 1996.0   77.0
   36751488 10260.0 13500.0  171.0  225.0    5.3 2000.0 1996.0   77.0
   36752489 8760.0 14460.0  146.0  241.0    5.1 2000.0 1996.0   77.0
   36753492 9120.0 16320.0  152.0  272.0    5.1 2000.0 1996.0   77.0
   36754499 9060.0 15000.0  151.0  250.0    5.1 2000.0 1996.0   77.0
