# 
~VERSION INFORMATION
     VERS.                              2.0:Версия формата LAS
     WRAP.                               NO:Режим одной строчки на временной отчет
~WELL INFORMATION
     STRT.ms                       29740351:Время первой записи в файле
     STOP.ms                       47053724:Время последней записи в файле
     STEP.ms                              0:Шаг времени, 0 - переменный шаг
     NULL.                          -999.25:Метка, нет значения
     DATE.                       28.04.2023:Дата каротажа
      DRV.                                 :Наименование драйвера прибора
     NAME.                          ННКТ(б):Название прибора
     SNUM.                                 :Серийный номер прибора
     FRMW.                                 :Версия прошивки на контроллере прибора
~CURVE INFORMATION
     TIME.ms                       {0,11:0}:Время, количество миллисекунд от начало суток
     NTNC.имп/мин                          :Счёт, ближний зонд ННКТ
     FTNC.у.е.                             :Счёт, дальний зонд ННКТ
     NTNL.имп/мин                          :Счёт нормированный на счёт в воде, ближний зонд ННКТ
     FTNL.у.е.                             :Счёт нормированный на счёт в воде, дальний зонд ННКТ
     TRNP.%                                :Пористость по водородосодержанию ННКТ
     UHVS.В                                :Установленное напряжение на высоковольтнике
     UHVM.В                                :Измеренное напряжение на высоковольтнике
       MT.°C                               :Температура
~OTHER INFORMATION


~A     TIME   NTNC   FTNC   NTNL   FTNL   TRNP   UHVS   UHVM     MT
# ...
   42369061 9480.0 16320.0  158.0  272.0    5.1 2000.0 1995.0   56.0
   42370065 8760.0 15780.0  146.0  263.0    5.1 2000.0 1995.0   55.0
   42371076 7680.0 14640.0  128.0  244.0    5.0 2000.0 1995.0   56.0
   42372088 9840.0 13680.0  164.0  228.0    5.3 2000.0 1995.0   56.0
   42373082 9360.0 15300.0  156.0  255.0    5.1 2000.0 1995.0   56.0
   42374081 8400.0 15300.0  140.0  255.0    5.1 2000.0 1995.0   56.0
   42375095 9240.0 14580.0  154.0  243.0    5.2 2000.0 1995.0   55.0
   42376105 11040.0 12540.0  184.0  209.0    5.5 2000.0 1995.0   55.0
   42377099 9360.0 14640.0  156.0  244.0    5.2 2000.0 1995.0   56.0
   42378115 8940.0 14100.0  149.0  235.0    5.2 2000.0 1995.0   55.0
   42379130 8760.0 15120.0  146.0  252.0    5.1 2000.0 1995.0   55.0
   42380138 8340.0 13200.0  139.0  220.0    5.2 2000.0 1995.0   56.0
   42381143 8460.0 15060.0  141.0  251.0    5.1 2000.0 1995.0   55.0
   42382159 8640.0 15120.0  144.0  252.0    5.1 2000.0 1995.0   55.0
   42383165 8820.0 14820.0  147.0  247.0    5.1 2000.0 1995.0   55.0
   42384180 7740.0 16200.0  129.0  270.0    5.0 2000.0 1995.0   55.0
   42385181 8280.0 15840.0  138.0  264.0    5.0 2000.0 1995.0   55.0
   42386197 9720.0 15180.0  162.0  253.0    5.2 2000.0 1995.0   55.0
   42387213 7980.0 14520.0  133.0  242.0    5.1 2000.0 1995.0   55.0
   42388216 9240.0 14880.0  154.0  248.0    5.2 2000.0 1995.0   55.0
   42389232 9000.0 16080.0  150.0  268.0    5.1 2000.0 1995.0   55.0
   42390234 8340.0 14160.0  139.0  236.0    5.1 2000.0 1995.0   55.0
   42391241 8820.0 13980.0  147.0  233.0    5.2 2000.0 1995.0   55.0
   42392253 9060.0 14580.0  151.0  243.0    5.2 2000.0 1995.0   55.0
   42393251 7800.0 13680.0  130.0  228.0    5.1 2000.0 1995.0   55.0
   42394272 8460.0 14220.0  141.0  237.0    5.1 2000.0 1995.0   55.0
   42395284 9000.0 14940.0  150.0  249.0    5.1 2000.0 1995.0   55.0
   42396290 9060.0 16260.0  151.0  271.0    5.1 2000.0 1995.0   55.0
   42397306 9300.0 14280.0  155.0  238.0    5.2 2000.0 1995.0   55.0
   42398318 9060.0 13980.0  151.0  233.0    5.2 2000.0 1995.0   55.0
   42399326 9300.0 16020.0  155.0  267.0    5.1 2000.0 1995.0   55.0
   42400340 9000.0 13680.0  150.0  228.0    5.2 2000.0 1995.0   55.0
   42401348 8280.0 13680.0  138.0  228.0    5.1 2000.0 1995.0   55.0
   42402354 9540.0 15360.0  159.0  256.0    5.2 2000.0 1995.0   55.0
   42403370 9420.0 15900.0  157.0  265.0    5.1 2000.0 1995.0   55.0
   42404382 9180.0 15720.0  153.0  262.0    5.1 2000.0 1995.0   55.0
   42405390 8400.0 14880.0  140.0  248.0    5.1 2000.0 1995.0   55.0
   42406404 9360.0 15180.0  156.0  253.0    5.2 2000.0 1995.0   55.0
   42407408 8700.0 14880.0  145.0  248.0    5.1 2000.0 1995.0   55.0
   42408415 9120.0 13500.0  152.0  225.0    5.2 2000.0 1995.0   55.0
   42409420 8460.0 14580.0  141.0  243.0    5.1 2000.0 1995.0   55.0
   42410424 8820.0 15600.0  147.0  260.0    5.1 2000.0 1995.0   55.0
   42411427 10200.0 15240.0  170.0  254.0    5.2 2000.0 1995.0   55.0
   42412426 8520.0 15960.0  142.0  266.0    5.1 2000.0 1995.0   55.0
   42413440 8760.0 15120.0  146.0  252.0    5.1 2000.0 1995.0   55.0
   42414448 9720.0 13740.0  162.0  229.0    5.3 2000.0 1995.0   55.0
   42415464 8700.0 13740.0  145.0  229.0    5.2 2000.0 1995.0   55.0
   42416471 7920.0 15420.0  132.0  257.0    5.0 2000.0 1995.0   55.0
   42417487 7800.0 15480.0  130.0  258.0    5.0 2000.0 1995.0   55.0
   42418495 9300.0 16440.0  155.0  274.0    5.1 2000.0 1995.0   55.0
   42419503 9660.0 13800.0  161.0  230.0    5.3 2000.0 1995.0   55.0
   42420520 7800.0 13740.0  130.0  229.0    5.1 2000.0 1995.0   55.0
   42421534 8460.0 14040.0  141.0  234.0    5.1 2000.0 1995.0   55.0
   42422544 9540.0 16080.0  159.0  268.0    5.1 2000.0 1995.0   55.0
   42423557 8280.0 15960.0  138.0  266.0    5.0 2000.0 1995.0   55.0
   42424572 9000.0 14940.0  150.0  249.0    5.1 2000.0 1995.0   55.0
   42425588 10200.0 13380.0  170.0  223.0    5.3 2000.0 1995.0   55.0
   42426598 8880.0 13380.0  148.0  223.0    5.2 2000.0 1995.0   55.0
   42427605 7440.0 14280.0  124.0  238.0    5.0 2000.0 1995.0   55.0
   42428606 8760.0 13020.0  146.0  217.0    5.2 2000.0 1995.0   55.0
   42429621 8760.0 14280.0  146.0  238.0    5.2 2000.0 1995.0   55.0
   42430626 8340.0 15120.0  139.0  252.0    5.1 2000.0 1995.0   55.0
   42431631 9060.0 16740.0  151.0  279.0    5.1 2000.0 1995.0   55.0
   42432647 8640.0 14700.0  144.0  245.0    5.1 2000.0 1995.0   55.0
   42433660 7500.0 15720.0  125.0  262.0    5.0 2000.0 1995.0   55.0
   42434662 9600.0 15180.0  160.0  253.0    5.2 2000.0 1995.0   55.0
   42435676 9840.0 14700.0  164.0  245.0    5.2 2000.0 1995.0   55.0
   42436685 7980.0 15600.0  133.0  260.0    5.0 2000.0 1995.0   55.0
   42437694 8940.0 13800.0  149.0  230.0    5.2 2000.0 1995.0   55.0
   42438696 9300.0 13800.0  155.0  230.0    5.2 2000.0 1995.0   55.0
   42439700 7980.0 13980.0  133.0  233.0    5.1 2000.0 1995.0   55.0
   42440719 9000.0 14580.0  150.0  243.0    5.2 2000.0 1995.0   55.0
   42441726 8460.0 14460.0  141.0  241.0    5.1 2000.0 1995.0   55.0
   42442732 8700.0 14460.0  145.0  241.0    5.1 2000.0 1995.0   55.0
   42443743 9060.0 15360.0  151.0  256.0    5.1 2000.0 1995.0   55.0
   42444749 8760.0 14460.0  146.0  241.0    5.1 2000.0 1995.0   55.0
   42445757 8700.0 15660.0  145.0  261.0    5.1 2000.0 1995.0   55.0
   42446764 9060.0 14520.0  151.0  242.0    5.2 2000.0 1995.0   55.0
   42447765 8220.0 13320.0  137.0  222.0    5.2 2000.0 1995.0   55.0
   42448766 9240.0 15300.0  154.0  255.0    5.1 2000.0 1995.0   55.0
   42449781 8040.0 15600.0  134.0  260.0    5.0 2000.0 1995.0   55.0
   42450786 8580.0 14880.0  143.0  248.0    5.1 2000.0 1995.0   55.0
   42451797 9600.0 14220.0  160.0  237.0    5.2 2000.0 1995.0   55.0
   42452801 11220.0 15120.0  187.0  252.0    5.3 2000.0 1995.0   55.0
   42453805 8100.0 14820.0  135.0  247.0    5.1 2000.0 1995.0   55.0
   42454813 9240.0 15360.0  154.0  256.0    5.1 2000.0 1995.0   55.0
   42455817 8100.0 13980.0  135.0  233.0    5.1 2000.0 1995.0   55.0
   42456825 8580.0 15180.0  143.0  253.0    5.1 2000.0 1995.0   55.0
   42457826 9180.0 14040.0  153.0  234.0    5.2 2000.0 1995.0   55.0
   42458839 8340.0 13320.0  139.0  222.0    5.2 2000.0 1995.0   55.0
   42459846 8520.0 15180.0  142.0  253.0    5.1 2000.0 1995.0   55.0
   42460861 8940.0 13860.0  149.0  231.0    5.2 2000.0 1995.0   55.0
   42461864 8400.0 14580.0  140.0  243.0    5.1 2000.0 1995.0   55.0
   42462879 9480.0 14400.0  158.0  240.0    5.2 2000.0 1995.0   55.0
   42463887 8880.0 14460.0  148.0  241.0    5.2 2000.0 1995.0   55.0
   42464895 9060.0 13740.0  151.0  229.0    5.2 2000.0 1995.0   55.0
   42465908 8400.0 14580.0  140.0  243.0    5.1 2000.0 1995.0   55.0
   42466915 9360.0 13140.0  156.0  219.0    5.3 2000.0 1995.0   55.0
   42467924 8100.0 13920.0  135.0  232.0    5.1 2000.0 1995.0   55.0
   42468940 8340.0 17280.0  139.0  288.0    5.0 2000.0 1995.0   55.0
   42469953 8700.0 13500.0  145.0  225.0    5.2 2000.0 1995.0   55.0
   42470966 8280.0 15660.0  138.0  261.0    5.0 2000.0 1995.0   55.0
   42471973 8580.0 15840.0  143.0  264.0    5.1 2000.0 1995.0   55.0
   42472980 8340.0 13920.0  139.0  232.0    5.1 2000.0 1995.0   55.0
   42473987 9240.0 15420.0  154.0  257.0    5.1 2000.0 1995.0   55.0
   42474993 8280.0 15780.0  138.0  263.0    5.0 2000.0 1995.0   55.0
   42476012 8040.0 14760.0  134.0  246.0    5.1 2000.0 1995.0   55.0
   42477019 9000.0 12420.0  150.0  207.0    5.3 2000.0 1995.0   55.0
   42478028 8820.0 15540.0  147.0  259.0    5.1 2000.0 1995.0   55.0
   42479026 8400.0 13440.0  140.0  224.0    5.2 2000.0 1995.0   55.0
   42480047 9360.0 13800.0  156.0  230.0    5.2 2000.0 1995.0   55.0
   42481055 9600.0 14340.0  160.0  239.0    5.2 2000.0 1995.0   55.0
   42482068 8940.0 13860.0  149.0  231.0    5.2 2000.0 1995.0   55.0
   42483073 8820.0 14460.0  147.0  241.0    5.1 2000.0 1995.0   55.0
   42484087 8880.0 15840.0  148.0  264.0    5.1 2000.0 1995.0   55.0
   42485090 10320.0 13860.0  172.0  231.0    5.3 2000.0 1995.0   55.0
