# 
~VERSION INFORMATION
     VERS.                              2.0:Версия формата LAS
     WRAP.                               NO:Режим одной строчки на временной отчет
~WELL INFORMATION
     STRT.ms                       29740351:Время первой записи в файле
     STOP.ms                       47053724:Время последней записи в файле
     STEP.ms                              0:Шаг времени, 0 - переменный шаг
     NULL.                          -999.25:Метка, нет значения
     DATE.                       28.04.2023:Дата каротажа
      DRV.                                 :Наименование драйвера прибора
     NAME.                          ННКТ(б):Название прибора
     SNUM.                                 :Серийный номер прибора
     FRMW.                                 :Версия прошивки на контроллере прибора
~CURVE INFORMATION
     TIME.ms                       {0,11:0}:Время, количество миллисекунд от начало суток
     NTNC.имп/мин                          :Счёт, ближний зонд ННКТ
     FTNC.у.е.                             :Счёт, дальний зонд ННКТ
     NTNL.имп/мин                          :Счёт нормированный на счёт в воде, ближний зонд ННКТ
     FTNL.у.е.                             :Счёт нормированный на счёт в воде, дальний зонд ННКТ
     TRNP.%                                :Пористость по водородосодержанию ННКТ
     UHVS.В                                :Установленное напряжение на высоковольтнике
     UHVM.В                                :Измеренное напряжение на высоковольтнике
       MT.°C                               :Температура
~OTHER INFORMATION


~A     TIME   NTNC   FTNC   NTNL   FTNL   TRNP   UHVS   UHVM     MT
# ...
   41199561 10380.0 15000.0  173.0  250.0    5.2 2000.0 1996.0   59.0
   41200585 8580.0 14220.0  143.0  237.0    5.1 2000.0 1996.0   59.0
   41201573 9240.0 15540.0  154.0  259.0    5.1 2000.0 1996.0   59.0
   41202585 8400.0 14760.0  140.0  246.0    5.1 2000.0 1996.0   59.0
   41203592 9300.0 14580.0  155.0  243.0    5.2 2000.0 1996.0   59.0
   41204594 8880.0 14100.0  148.0  235.0    5.2 2000.0 1996.0   59.0
   41205594 8520.0 14220.0  142.0  237.0    5.1 2000.0 1996.0   59.0
   41206609 9060.0 13620.0  151.0  227.0    5.2 2000.0 1996.0   59.0
   41207618 8640.0 14820.0  144.0  247.0    5.1 2000.0 1996.0   59.0
   41208625 9300.0 15720.0  155.0  262.0    5.1 2000.0 1996.0   59.0
   41209639 8280.0 15060.0  138.0  251.0    5.1 2000.0 1995.0   59.0
   41210654 9180.0 13980.0  153.0  233.0    5.2 2000.0 1996.0   59.0
   41211662 7500.0 14100.0  125.0  235.0    5.1 2000.0 1996.0   59.0
   41212679 7680.0 15960.0  128.0  266.0    5.0 2000.0 1996.0   59.0
   41213685 10500.0 14700.0  175.0  245.0    5.3 2000.0 1996.0   59.0
   41214702 9240.0 15000.0  154.0  250.0    5.2 2000.0 1996.0   59.0
   41215703 9300.0 15660.0  155.0  261.0    5.1 2000.0 1996.0   59.0
   41216718 8100.0 16260.0  135.0  271.0    5.0 2000.0 1996.0   59.0
   41217733 8580.0 15660.0  143.0  261.0    5.1 2000.0 1996.0   59.0
   41218744 8580.0 15300.0  143.0  255.0    5.1 2000.0 1996.0   59.0
   41219758 8820.0 13860.0  147.0  231.0    5.2 2000.0 1996.0   59.0
   41220766 7080.0 15660.0  118.0  261.0    5.0 2000.0 1996.0   59.0
   41221779 8220.0 15420.0  137.0  257.0    5.1 2000.0 1996.0   59.0
   41222795 9540.0 14700.0  159.0  245.0    5.2 2000.0 1996.0   59.0
   41223814 8160.0 15060.0  136.0  251.0    5.1 2000.0 1996.0   59.0
   41224810 8880.0 15120.0  148.0  252.0    5.1 2000.0 1996.0   59.0
   41225818 9240.0 18000.0  154.0  300.0    5.0 2000.0 1996.0   59.0
   41226823 10080.0 15540.0  168.0  259.0    5.2 2000.0 1996.0   59.0
   41227833 8040.0 14100.0  134.0  235.0    5.1 2000.0 1996.0   59.0
   41228842 8940.0 14760.0  149.0  246.0    5.1 2000.0 1996.0   59.0
   41229850 8400.0 16200.0  140.0  270.0    5.0 2000.0 1996.0   59.0
   41230855 7500.0 16500.0  125.0  275.0    5.0 2000.0 1996.0   59.0
   41231863 7920.0 15420.0  132.0  257.0    5.0 2000.0 1996.0   59.0
   41232868 10320.0 13860.0  172.0  231.0    5.3 2000.0 1996.0   59.0
   41233875 7920.0 13680.0  132.0  228.0    5.1 2000.0 1996.0   59.0
   41234888 9840.0 15420.0  164.0  257.0    5.2 2000.0 1996.0   59.0
   41235905 8400.0 14160.0  140.0  236.0    5.1 2000.0 1996.0   59.0
   41236918 8280.0 15180.0  138.0  253.0    5.1 2000.0 1996.0   59.0
   41237926 8040.0 15420.0  134.0  257.0    5.0 2000.0 1996.0   59.0
   41238940 7440.0 15660.0  124.0  261.0    5.0 2000.0 1996.0   59.0
   41239952 9240.0 14460.0  154.0  241.0    5.2 2000.0 1996.0   59.0
   41240958 8160.0 16680.0  136.0  278.0    5.0 2000.0 1996.0   59.0
   41241972 8160.0 14760.0  136.0  246.0    5.1 2000.0 1996.0   59.0
   41242968 9600.0 15060.0  160.0  251.0    5.2 2000.0 1996.0   59.0
   41243990 8580.0 14700.0  143.0  245.0    5.1 2000.0 1996.0   59.0
   41245003 9600.0 15060.0  160.0  251.0    5.2 2000.0 1996.0   59.0
   41246011 8520.0 13740.0  142.0  229.0    5.2 2000.0 1996.0   59.0
   41247013 8700.0 14760.0  145.0  246.0    5.1 2000.0 1996.0   59.0
   41248018 9360.0 13920.0  156.0  232.0    5.2 2000.0 1996.0   59.0
   41249020 9480.0 14400.0  158.0  240.0    5.2 2000.0 1996.0   59.0
   41250023 8880.0 13800.0  148.0  230.0    5.2 2000.0 1996.0   59.0
   41251024 7500.0 15060.0  125.0  251.0    5.0 2000.0 1995.0   59.0
   41252040 9720.0 14520.0  162.0  242.0    5.2 2000.0 1996.0   59.0
   41253042 8820.0 15060.0  147.0  251.0    5.1 2000.0 1996.0   59.0
   41254056 7860.0 15540.0  131.0  259.0    5.0 2000.0 1995.0   59.0
   41255064 9000.0 14580.0  150.0  243.0    5.2 2000.0 1996.0   59.0
   41256076 7920.0 15420.0  132.0  257.0    5.0 2000.0 1996.0   59.0
   41257089 7980.0 14880.0  133.0  248.0    5.1 2000.0 1996.0   59.0
   41258102 9360.0 13620.0  156.0  227.0    5.2 2000.0 1995.0   59.0
   41259119 9000.0 14460.0  150.0  241.0    5.2 2000.0 1996.0   59.0
   41260126 9000.0 14400.0  150.0  240.0    5.2 2000.0 1996.0   59.0
   41261134 8400.0 17040.0  140.0  284.0    5.0 2000.0 1996.0   59.0
   41262135 7740.0 15000.0  129.0  250.0    5.0 2000.0 1995.0   59.0
   41263144 8220.0 14760.0  137.0  246.0    5.1 2000.0 1995.0   59.0
   41264157 9720.0 14340.0  162.0  239.0    5.2 2000.0 1995.0   59.0
   41265159 8280.0 14880.0  138.0  248.0    5.1 2000.0 1996.0   58.0
   41266167 8220.0 14040.0  137.0  234.0    5.1 2000.0 1996.0   59.0
   41267174 8340.0 14460.0  139.0  241.0    5.1 2000.0 1996.0   59.0
   41268177 8760.0 16140.0  146.0  269.0    5.1 2000.0 1996.0   59.0
   41269191 9000.0 15060.0  150.0  251.0    5.1 2000.0 1996.0   59.0
   41270199 9000.0 15060.0  150.0  251.0    5.1 2000.0 1996.0   59.0
   41271213 7440.0 15600.0  124.0  260.0    5.0 2000.0 1996.0   59.0
   41272222 8700.0 16440.0  145.0  274.0    5.0 2000.0 1996.0   59.0
   41273224 9240.0 14160.0  154.0  236.0    5.2 2000.0 1996.0   59.0
   41274229 7920.0 14640.0  132.0  244.0    5.1 2000.0 1996.0   59.0
   41275229 8340.0 16020.0  139.0  267.0    5.0 2000.0 1996.0   59.0
   41276231 8880.0 13380.0  148.0  223.0    5.2 2000.0 1996.0   59.0
   41277243 9780.0 13920.0  163.0  232.0    5.3 2000.0 1996.0   59.0
   41278251 10140.0 14280.0  169.0  238.0    5.3 2000.0 1996.0   59.0
   41279253 9900.0 13680.0  165.0  228.0    5.3 2000.0 1996.0   59.0
   41280268 8880.0 12960.0  148.0  216.0    5.2 2000.0 1996.0   59.0
   41281266 8340.0 14100.0  139.0  235.0    5.1 2000.0 1996.0   59.0
   41282279 10140.0 14520.0  169.0  242.0    5.3 2000.0 1996.0   58.0
   41283290 8400.0 13260.0  140.0  221.0    5.2 2000.0 1996.0   59.0
   41284292 9240.0 14880.0  154.0  248.0    5.2 2000.0 1996.0   59.0
   41285297 9300.0 14520.0  155.0  242.0    5.2 2000.0 1996.0   59.0
   41286313 7800.0 13860.0  130.0  231.0    5.1 2000.0 1996.0   59.0
   41287329 7440.0 15660.0  124.0  261.0    5.0 2000.0 1996.0   59.0
   41288343 8280.0 15240.0  138.0  254.0    5.1 2000.0 1996.0   59.0
   41289345 9480.0 14580.0  158.0  243.0    5.2 2000.0 1996.0   59.0
   41290353 7980.0 13140.0  133.0  219.0    5.1 2000.0 1996.0   58.0
   41291358 8040.0 15240.0  134.0  254.0    5.0 2000.0 1996.0   59.0
   41292370 9180.0 15360.0  153.0  256.0    5.1 2000.0 1996.0   59.0
   41293388 8160.0 14580.0  136.0  243.0    5.1 2000.0 1996.0   59.0
   41294389 9240.0 16260.0  154.0  271.0    5.1 2000.0 1996.0   58.0
   41295393 8340.0 14340.0  139.0  239.0    5.1 2000.0 1996.0   59.0
   41296409 10140.0 14520.0  169.0  242.0    5.3 2000.0 1996.0   59.0
   41297416 8640.0 16080.0  144.0  268.0    5.1 2000.0 1995.0   59.0
   41298421 8640.0 14580.0  144.0  243.0    5.1 2000.0 1996.0   59.0
   41299423 9360.0 13380.0  156.0  223.0    5.3 2000.0 1996.0   58.0
   41300427 8700.0 15780.0  145.0  263.0    5.1 2000.0 1996.0   58.0
   41301441 8460.0 15120.0  141.0  252.0    5.1 2000.0 1996.0   58.0
   41302437 9480.0 14520.0  158.0  242.0    5.2 2000.0 1996.0   58.0
   41303452 8580.0 15000.0  143.0  250.0    5.1 2000.0 1996.0   59.0
   41304451 9360.0 15840.0  156.0  264.0    5.1 2000.0 1996.0   59.0
   41305452 8940.0 15900.0  149.0  265.0    5.1 2000.0 1996.0   58.0
   41306460 8580.0 14220.0  143.0  237.0    5.1 2000.0 1996.0   58.0
   41307468 8340.0 13980.0  139.0  233.0    5.1 2000.0 1996.0   58.0
   41308479 9540.0 15660.0  159.0  261.0    5.1 2000.0 1996.0   59.0
   41309478 8700.0 14640.0  145.0  244.0    5.1 2000.0 1996.0   59.0
   41310496 8820.0 13740.0  147.0  229.0    5.2 2000.0 1996.0   58.0
   41311501 7980.0 14520.0  133.0  242.0    5.1 2000.0 1996.0   59.0
   41312504 8220.0 15600.0  137.0  260.0    5.0 2000.0 1996.0   59.0
   41313505 8640.0 14880.0  144.0  248.0    5.1 2000.0 1996.0   59.0
   41314531 8700.0 14220.0  145.0  237.0    5.1 2000.0 1996.0   58.0
   41315519 7740.0 15300.0  129.0  255.0    5.0 2000.0 1996.0   58.0
