# 
~VERSION INFORMATION
     VERS.                              2.0:Версия формата LAS
     WRAP.                               NO:Режим одной строчки на временной отчет
~WELL INFORMATION
     STRT.ms                       29740351:Время первой записи в файле
     STOP.ms                       47053724:Время последней записи в файле
     STEP.ms                              0:Шаг времени, 0 - переменный шаг
     NULL.                          -999.25:Метка, нет значения
     DATE.                       28.04.2023:Дата каротажа
      DRV.                                 :Наименование драйвера прибора
     NAME.                          ННКТ(б):Название прибора
     SNUM.                                 :Серийный номер прибора
     FRMW.                                 :Версия прошивки на контроллере прибора
~CURVE INFORMATION
     TIME.ms                       {0,11:0}:Время, количество миллисекунд от начало суток
     NTNC.имп/мин                          :Счёт, ближний зонд ННКТ
     FTNC.у.е.                             :Счёт, дальний зонд ННКТ
     NTNL.имп/мин                          :Счёт нормированный на счёт в воде, ближний зонд ННКТ
     FTNL.у.е.                             :Счёт нормированный на счёт в воде, дальний зонд ННКТ
     TRNP.%                                :Пористость по водородосодержанию ННКТ
     UHVS.В                                :Установленное напряжение на высоковольтнике
     UHVM.В                                :Измеренное напряжение на высоковольтнике
       MT.°C                               :Температура
~OTHER INFORMATION


~A     TIME   NTNC   FTNC   NTNL   FTNL   TRNP   UHVS   UHVM     MT
# ...
   35469439 8700.0 15300.0  145.0  255.0    5.1 2000.0 1996.0   85.0
   35470446 8460.0 13920.0  141.0  232.0    5.1 2000.0 1996.0   85.0
   35471464 9900.0 14760.0  165.0  246.0    5.2 2000.0 1996.0   85.0
   35472477 8940.0 15660.0  149.0  261.0    5.1 2000.0 1996.0   85.0
   35473491 8520.0 15180.0  142.0  253.0    5.1 2000.0 1996.0   85.0
   35474489 8760.0 14460.0  146.0  241.0    5.1 2000.0 1996.0   85.0
   35475497 7980.0 15780.0  133.0  263.0    5.0 2000.0 1996.0   85.0
   35476509 8520.0 13620.0  142.0  227.0    5.2 2000.0 1996.0   85.0
   35477512 8700.0 14340.0  145.0  239.0    5.1 2000.0 1996.0   85.0
   35478527 7800.0 15780.0  130.0  263.0    5.0 2000.0 1996.0   85.0
   35479535 8400.0 15900.0  140.0  265.0    5.0 2000.0 1996.0   85.0
   35480540 7980.0 15060.0  133.0  251.0    5.0 2000.0 1996.0   85.0
   35481549 9780.0 15180.0  163.0  253.0    5.2 2000.0 1996.0   85.0
   35482561 9120.0 16980.0  152.0  283.0    5.1 2000.0 1996.0   85.0
   35483577 8340.0 14220.0  139.0  237.0    5.1 2000.0 1996.0   85.0
   35484585 8880.0 14580.0  148.0  243.0    5.1 2000.0 1996.0   85.0
   35485601 9180.0 15660.0  153.0  261.0    5.1 2000.0 1996.0   85.0
   35486597 9180.0 16020.0  153.0  267.0    5.1 2000.0 1996.0   85.0
   35487614 8760.0 15660.0  146.0  261.0    5.1 2000.0 1996.0   85.0
   35488623 9720.0 13800.0  162.0  230.0    5.3 2000.0 1996.0   85.0
   35489638 8700.0 15120.0  145.0  252.0    5.1 2000.0 1996.0   85.0
   35490640 8160.0 14940.0  136.0  249.0    5.1 2000.0 1996.0   85.0
   35491653 7980.0 13320.0  133.0  222.0    5.1 2000.0 1996.0   85.0
   35492648 9000.0 14040.0  150.0  234.0    5.2 2000.0 1996.0   85.0
   35493658 9120.0 14520.0  152.0  242.0    5.2 2000.0 1996.0   85.0
   35494661 8340.0 14460.0  139.0  241.0    5.1 2000.0 1996.0   85.0
   35495670 10500.0 15120.0  175.0  252.0    5.3 2000.0 1996.0   85.0
   35496680 7680.0 15780.0  128.0  263.0    5.0 2000.0 1996.0   85.0
   35497688 7680.0 14100.0  128.0  235.0    5.1 2000.0 1996.0   85.0
   35498702 9000.0 15540.0  150.0  259.0    5.1 2000.0 1996.0   85.0
   35499704 9600.0 16020.0  160.0  267.0    5.1 2000.0 1996.0   85.0
   35500705 8040.0 13800.0  134.0  230.0    5.1 2000.0 1996.0   85.0
   35501713 9240.0 14520.0  154.0  242.0    5.2 2000.0 1996.0   85.0
   35502734 9300.0 15960.0  155.0  266.0    5.1 2000.0 1996.0   85.0
   35503734 9480.0 13560.0  158.0  226.0    5.3 2000.0 1996.0   85.0
   35504739 8040.0 14040.0  134.0  234.0    5.1 2000.0 1996.0   85.0
   35505750 8040.0 13980.0  134.0  233.0    5.1 2000.0 1996.0   85.0
   35506760 7680.0 14940.0  128.0  249.0    5.0 2000.0 1996.0   85.0
   35507768 9120.0 15360.0  152.0  256.0    5.1 2000.0 1996.0   85.0
   35508773 10920.0 15060.0  182.0  251.0    5.3 2000.0 1996.0   85.0
   35509793 9600.0 14340.0  160.0  239.0    5.2 2000.0 1996.0   85.0
   35510780 8580.0 13740.0  143.0  229.0    5.2 2000.0 1996.0   85.0
   35511785 8100.0 14760.0  135.0  246.0    5.1 2000.0 1996.0   84.0
   35512787 7560.0 14580.0  126.0  243.0    5.0 2000.0 1996.0   85.0
   35513782 7680.0 15300.0  128.0  255.0    5.0 2000.0 1996.0   84.0
   35514799 7620.0 13980.0  127.0  233.0    5.1 2000.0 1996.0   84.0
   35515807 8820.0 13980.0  147.0  233.0    5.2 2000.0 1996.0   85.0
   35516809 8520.0 14280.0  142.0  238.0    5.1 2000.0 1996.0   85.0
   35517816 8640.0 14940.0  144.0  249.0    5.1 2000.0 1996.0   85.0
   35518824 8220.0 16020.0  137.0  267.0    5.0 2000.0 1996.0   85.0
   35519826 8700.0 13620.0  145.0  227.0    5.2 2000.0 1996.0   85.0
   35520827 9300.0 14280.0  155.0  238.0    5.2 2000.0 1996.0   85.0
   35521832 9240.0 15600.0  154.0  260.0    5.1 2000.0 1996.0   84.0
   35522851 8880.0 15840.0  148.0  264.0    5.1 2000.0 1996.0   84.0
   35523860 7440.0 15780.0  124.0  263.0    5.0 2000.0 1996.0   85.0
   35524874 8280.0 15180.0  138.0  253.0    5.1 2000.0 1996.0   84.0
   35525865 8820.0 14160.0  147.0  236.0    5.2 2000.0 1996.0   85.0
   35526877 9060.0 14220.0  151.0  237.0    5.2 2000.0 1996.0   84.0
   35527892 8820.0 16620.0  147.0  277.0    5.1 2000.0 1996.0   84.0
   35528895 8460.0 15180.0  141.0  253.0    5.1 2000.0 1996.0   84.0
   35529912 7980.0 14820.0  133.0  247.0    5.1 2000.0 1996.0   84.0
   35530925 8580.0 13860.0  143.0  231.0    5.2 2000.0 1996.0   85.0
   35531922 7980.0 13020.0  133.0  217.0    5.2 2000.0 1996.0   85.0
   35532929 9420.0 14160.0  157.0  236.0    5.2 2000.0 1996.0   84.0
   35533937 8880.0 15720.0  148.0  262.0    5.1 2000.0 1996.0   84.0
   35534943 8280.0 13620.0  138.0  227.0    5.1 2000.0 1996.0   84.0
   35535954 9540.0 15120.0  159.0  252.0    5.2 2000.0 1996.0   84.0
   35536956 9240.0 15000.0  154.0  250.0    5.2 2000.0 1996.0   84.0
   35537956 8340.0 14280.0  139.0  238.0    5.1 2000.0 1996.0   84.0
   35538971 8700.0 17220.0  145.0  287.0    5.0 2000.0 1996.0   84.0
   35539961 8760.0 14880.0  146.0  248.0    5.1 2000.0 1996.0   84.0
   35540962 9120.0 14700.0  152.0  245.0    5.2 2000.0 1996.0   84.0
   35541980 8220.0 14700.0  137.0  245.0    5.1 2000.0 1996.0   84.0
   35542972 8580.0 13980.0  143.0  233.0    5.2 2000.0 1996.0   84.0
   35543985 9960.0 15060.0  166.0  251.0    5.2 2000.0 1996.0   84.0
   35544987 8280.0 13080.0  138.0  218.0    5.2 2000.0 1996.0   84.0
   35545997 8520.0 13860.0  142.0  231.0    5.2 2000.0 1996.0   84.0
   35547003 10320.0 13560.0  172.0  226.0    5.3 2000.0 1996.0   84.0
   35548022 9600.0 15240.0  160.0  254.0    5.2 2000.0 1996.0   84.0
   35549020 9060.0 14220.0  151.0  237.0    5.2 2000.0 1996.0   84.0
   35550028 7860.0 15840.0  131.0  264.0    5.0 2000.0 1996.0   84.0
   35551044 8940.0 14640.0  149.0  244.0    5.1 2000.0 1996.0   84.0
   35552054 10080.0 13980.0  168.0  233.0    5.3 2000.0 1996.0   84.0
   35553061 10200.0 13500.0  170.0  225.0    5.3 2000.0 1996.0   84.0
   35554083 9300.0 13620.0  155.0  227.0    5.2 2000.0 1996.0   84.0
   35555104 9960.0 15000.0  166.0  250.0    5.2 2000.0 1996.0   84.0
   35556097 9900.0 15360.0  165.0  256.0    5.2 2000.0 1996.0   84.0
   35557109 8640.0 13980.0  144.0  233.0    5.2 2000.0 1996.0   84.0
   35558110 8580.0 14040.0  143.0  234.0    5.1 2000.0 1996.0   84.0
   35559111 9600.0 16200.0  160.0  270.0    5.1 2000.0 1996.0   84.0
   35560120 8760.0 15000.0  146.0  250.0    5.1 2000.0 1996.0   84.0
   35561137 8820.0 14460.0  147.0  241.0    5.1 2000.0 1996.0   84.0
   35562136 9180.0 14460.0  153.0  241.0    5.2 2000.0 1996.0   84.0
   35563136 7140.0 13560.0  119.0  226.0    5.0 2000.0 1996.0   84.0
   35564143 7560.0 13440.0  126.0  224.0    5.1 2000.0 1996.0   84.0
   35565161 9300.0 15420.0  155.0  257.0    5.1 2000.0 1996.0   84.0
   35566152 8640.0 13980.0  144.0  233.0    5.2 2000.0 1996.0   84.0
   35567177 10080.0 15480.0  168.0  258.0    5.2 2000.0 1996.0   84.0
   35568174 8340.0 16560.0  139.0  276.0    5.0 2000.0 1996.0   84.0
   35569189 9780.0 14940.0  163.0  249.0    5.2 2000.0 1996.0   84.0
   35570202 8220.0 14460.0  137.0  241.0    5.1 2000.0 1996.0   84.0
   35571206 8880.0 15600.0  148.0  260.0    5.1 2000.0 1996.0   84.0
   35572212 9240.0 15660.0  154.0  261.0    5.1 2000.0 1996.0   84.0
   35573228 7800.0 15660.0  130.0  261.0    5.0 2000.0 1996.0   84.0
   35574239 9120.0 13140.0  152.0  219.0    5.3 2000.0 1996.0   84.0
   35575230 7440.0 16440.0  124.0  274.0    5.0 2000.0 1996.0   84.0
   35576248 8820.0 13380.0  147.0  223.0    5.2 2000.0 1996.0   84.0
   35577251 8340.0 14880.0  139.0  248.0    5.1 2000.0 1996.0   84.0
   35578255 8160.0 13140.0  136.0  219.0    5.2 2000.0 1996.0   84.0
   35579266 9900.0 15060.0  165.0  251.0    5.2 2000.0 1996.0   84.0
   35580269 8580.0 15300.0  143.0  255.0    5.1 2000.0 1996.0   84.0
   35581283 10200.0 14100.0  170.0  235.0    5.3 2000.0 1996.0   84.0
   35582292 8580.0 15960.0  143.0  266.0    5.1 2000.0 1996.0   84.0
   35583291 8340.0 13680.0  139.0  228.0    5.1 2000.0 1996.0   84.0
   35584293 8340.0 14760.0  139.0  246.0    5.1 2000.0 1996.0   84.0
   35585315 8940.0 14160.0  149.0  236.0    5.2 2000.0 1996.0   84.0
