# 
~VERSION INFORMATION
     VERS.                              2.0:Версия формата LAS
     WRAP.                               NO:Режим одной строчки на временной отчет
~WELL INFORMATION
     STRT.ms                       29740351:Время первой записи в файле
     STOP.ms                       47053724:Время последней записи в файле
     STEP.ms                              0:Шаг времени, 0 - переменный шаг
     NULL.                          -999.25:Метка, нет значения
     DATE.                       28.04.2023:Дата каротажа
      DRV.                                 :Наименование драйвера прибора
     NAME.                          ННКТ(б):Название прибора
     SNUM.                                 :Серийный номер прибора
     FRMW.                                 :Версия прошивки на контроллере прибора
~CURVE INFORMATION
     TIME.ms                       {0,11:0}:Время, количество миллисекунд от начало суток
     NTNC.имп/мин                          :Счёт, ближний зонд ННКТ
     FTNC.у.е.                             :Счёт, дальний зонд ННКТ
     NTNL.имп/мин                          :Счёт нормированный на счёт в воде, ближний зонд ННКТ
     FTNL.у.е.                             :Счёт нормированный на счёт в воде, дальний зонд ННКТ
     TRNP.%                                :Пористость по водородосодержанию ННКТ
     UHVS.В                                :Установленное напряжение на высоковольтнике
     UHVM.В                                :Измеренное напряжение на высоковольтнике
       MT.°C                               :Температура
~OTHER INFORMATION


~A     TIME   NTNC   FTNC   NTNL   FTNL   TRNP   UHVS   UHVM     MT
# ...
   45763565 7860.0 16020.0  131.0  267.0    5.0 2000.0 1995.0   39.0
   45764579 9120.0 15420.0  152.0  257.0    5.1 2000.0 1995.0   39.0
   45765572 7980.0 16020.0  133.0  267.0    5.0 2000.0 1995.0   39.0
   45766586 8160.0 15420.0  136.0  257.0    5.0 2000.0 1995.0   39.0
   45767581 9720.0 15180.0  162.0  253.0    5.2 2000.0 1995.0   39.0
   45768581 8700.0 16080.0  145.0  268.0    5.1 2000.0 1995.0   39.0
   45769582 8460.0 15480.0  141.0  258.0    5.1 2000.0 1995.0   39.0
   45770596 9300.0 15000.0  155.0  250.0    5.2 2000.0 1995.0   39.0
   45771618 8880.0 14340.0  148.0  239.0    5.2 2000.0 1995.0   39.0
   45772616 8160.0 15120.0  136.0  252.0    5.1 2000.0 1995.0   39.0
   45773625 8820.0 16140.0  147.0  269.0    5.1 2000.0 1995.0   39.0
   45774634 7860.0 13800.0  131.0  230.0    5.1 2000.0 1995.0   39.0
   45775633 8520.0 16020.0  142.0  267.0    5.1 2000.0 1995.0   39.0
   45776633 8460.0 15360.0  141.0  256.0    5.1 2000.0 1995.0   39.0
   45777642 8580.0 16260.0  143.0  271.0    5.0 2000.0 1995.0   39.0
   45778651 9000.0 15120.0  150.0  252.0    5.1 2000.0 1995.0   39.0
   45779647 8820.0 15780.0  147.0  263.0    5.1 2000.0 1995.0   39.0
   45780660 9240.0 13440.0  154.0  224.0    5.2 2000.0 1995.0   39.0
   45781654 8040.0 14160.0  134.0  236.0    5.1 2000.0 1995.0   39.0
   45782662 9180.0 14520.0  153.0  242.0    5.2 2000.0 1995.0   39.0
   45783675 7680.0 15480.0  128.0  258.0    5.0 2000.0 1995.0   39.0
   45784691 8700.0 15120.0  145.0  252.0    5.1 2000.0 1995.0   39.0
   45785690 7500.0 13980.0  125.0  233.0    5.1 2000.0 1995.0   39.0
   45786706 9720.0 15660.0  162.0  261.0    5.2 2000.0 1995.0   39.0
   45787707 10440.0 14580.0  174.0  243.0    5.3 2000.0 1995.0   39.0
   45788708 8520.0 14340.0  142.0  239.0    5.1 2000.0 1995.0   39.0
   45789709 9000.0 14280.0  150.0  238.0    5.2 2000.0 1995.0   39.0
   45790711 9180.0 13620.0  153.0  227.0    5.2 2000.0 1995.0   39.0
   45791722 9540.0 16440.0  159.0  274.0    5.1 2000.0 1995.0   39.0
   45792722 9240.0 16620.0  154.0  277.0    5.1 2000.0 1995.0   39.0
   45793739 9120.0 15780.0  152.0  263.0    5.1 2000.0 1995.0   39.0
   45794744 8340.0 15060.0  139.0  251.0    5.1 2000.0 1995.0   39.0
   45795749 8040.0 13920.0  134.0  232.0    5.1 2000.0 1995.0   39.0
   45796763 8040.0 15540.0  134.0  259.0    5.0 2000.0 1995.0   39.0
   45797773 7020.0 13740.0  117.0  229.0    5.0 2000.0 1995.0   39.0
   45798766 8220.0 13680.0  137.0  228.0    5.1 2000.0 1995.0   39.0
   45799776 8880.0 13920.0  148.0  232.0    5.2 2000.0 1995.0   39.0
   45800790 8700.0 14940.0  145.0  249.0    5.1 2000.0 1995.0   39.0
   45801799 8280.0 14640.0  138.0  244.0    5.1 2000.0 1995.0   39.0
   45802813 8040.0 13920.0  134.0  232.0    5.1 2000.0 1995.0   39.0
   45803815 8040.0 14880.0  134.0  248.0    5.1 2000.0 1995.0   39.0
   45804816 8580.0 13800.0  143.0  230.0    5.2 2000.0 1995.0   39.0
   45805824 8340.0 14940.0  139.0  249.0    5.1 2000.0 1995.0   39.0
   45806837 8460.0 16200.0  141.0  270.0    5.0 2000.0 1995.0   39.0
   45807840 9900.0 16620.0  165.0  277.0    5.1 2000.0 1995.0   39.0
   45808853 9720.0 15060.0  162.0  251.0    5.2 2000.0 1995.0   39.0
   45809874 8580.0 14580.0  143.0  243.0    5.1 2000.0 1995.0   39.0
   45810875 8460.0 14220.0  141.0  237.0    5.1 2000.0 1995.0   39.0
   45811890 8220.0 15540.0  137.0  259.0    5.0 2000.0 1995.0   39.0
   45812901 8280.0 15480.0  138.0  258.0    5.1 2000.0 1995.0   39.0
   45813903 9180.0 16020.0  153.0  267.0    5.1 2000.0 1995.0   39.0
   45814909 8460.0 14460.0  141.0  241.0    5.1 2000.0 1995.0   39.0
   45815921 8520.0 14400.0  142.0  240.0    5.1 2000.0 1995.0   39.0
   45816926 7980.0 13260.0  133.0  221.0    5.1 2000.0 1995.0   39.0
   45817932 9660.0 16560.0  161.0  276.0    5.1 2000.0 1995.0   39.0
   45818941 7980.0 14580.0  133.0  243.0    5.1 2000.0 1995.0   39.0
   45819932 6720.0 13860.0  112.0  231.0    5.0 2000.0 1995.0   39.0
   45820942 7800.0 13920.0  130.0  232.0    5.1 2000.0 1995.0   39.0
   45821946 9120.0 14700.0  152.0  245.0    5.2 2000.0 1995.0   39.0
   45822956 8040.0 15180.0  134.0  253.0    5.0 2000.0 1995.0   39.0
   45823969 7860.0 15180.0  131.0  253.0    5.0 2000.0 1995.0   39.0
   45824979 7860.0 14280.0  131.0  238.0    5.1 2000.0 1995.0   39.0
   45825987 9060.0 14100.0  151.0  235.0    5.2 2000.0 1995.0   39.0
   45826988 9180.0 16320.0  153.0  272.0    5.1 2000.0 1995.0   39.0
   45827995 7620.0 17040.0  127.0  284.0    4.9 2000.0 1995.0   39.0
   45829009 8640.0 13860.0  144.0  231.0    5.2 2000.0 1995.0   39.0
   45830017 8640.0 15060.0  144.0  251.0    5.1 2000.0 1995.0   39.0
   45831035 9000.0 16260.0  150.0  271.0    5.1 2000.0 1995.0   39.0
   45832038 9000.0 16860.0  150.0  281.0    5.1 2000.0 1995.0   39.0
   45833042 8700.0 15180.0  145.0  253.0    5.1 2000.0 1995.0   39.0
   45834052 8700.0 14040.0  145.0  234.0    5.2 2000.0 1995.0   39.0
   45835054 8760.0 15540.0  146.0  259.0    5.1 2000.0 1995.0   39.0
   45836055 10020.0 15000.0  167.0  250.0    5.2 2000.0 1995.0   39.0
   45837057 9480.0 15420.0  158.0  257.0    5.2 2000.0 1995.0   39.0
   45838071 9060.0 14940.0  151.0  249.0    5.1 2000.0 1995.0   39.0
   45839070 7560.0 13140.0  126.0  219.0    5.1 2000.0 1995.0   39.0
   45840082 8940.0 15240.0  149.0  254.0    5.1 2000.0 1995.0   39.0
   45841079 9000.0 15480.0  150.0  258.0    5.1 2000.0 1995.0   39.0
   45842088 7980.0 14820.0  133.0  247.0    5.1 2000.0 1995.0   39.0
   45843093 9720.0 15960.0  162.0  266.0    5.1 2000.0 1995.0   39.0
   45844102 9360.0 14760.0  156.0  246.0    5.2 2000.0 1995.0   39.0
   45845108 9480.0 15720.0  158.0  262.0    5.1 2000.0 1995.0   39.0
   45846115 9060.0 14760.0  151.0  246.0    5.2 2000.0 1995.0   39.0
   45847127 10080.0 14880.0  168.0  248.0    5.2 2000.0 1995.0   39.0
   45848147 7860.0 14880.0  131.0  248.0    5.1 2000.0 1995.0   39.0
   45849153 9120.0 15300.0  152.0  255.0    5.1 2000.0 1995.0   39.0
   45850160 9120.0 15780.0  152.0  263.0    5.1 2000.0 1995.0   39.0
   45851174 8040.0 14820.0  134.0  247.0    5.1 2000.0 1995.0   39.0
   45852186 8100.0 14160.0  135.0  236.0    5.1 2000.0 1995.0   39.0
   45853192 10920.0 16500.0  182.0  275.0    5.2 2000.0 1995.0   39.0
   45854208 9540.0 14220.0  159.0  237.0    5.2 2000.0 1996.0   39.0
   45855219 8760.0 14760.0  146.0  246.0    5.1 2000.0 1995.0   39.0
   45856232 9060.0 13680.0  151.0  228.0    5.2 2000.0 1995.0   39.0
   45857225 7740.0 15660.0  129.0  261.0    5.0 2000.0 1996.0   39.0
   45858232 9000.0 12960.0  150.0  216.0    5.3 2000.0 1995.0   39.0
   45859247 9180.0 15000.0  153.0  250.0    5.2 2000.0 1995.0   39.0
   45860254 8880.0 13800.0  148.0  230.0    5.2 2000.0 1995.0   39.0
   45861278 8340.0 15540.0  139.0  259.0    5.1 2000.0 1995.0   39.0
   45862273 9900.0 16620.0  165.0  277.0    5.1 2000.0 1995.0   39.0
   45863279 8340.0 13740.0  139.0  229.0    5.1 2000.0 1995.0   39.0
   45864280 9600.0 15300.0  160.0  255.0    5.2 2000.0 1995.0   39.0
   45865288 9000.0 13740.0  150.0  229.0    5.2 2000.0 1995.0   39.0
   45866290 8880.0 12780.0  148.0  213.0    5.3 2000.0 1995.0   39.0
   45867310 8340.0 15420.0  139.0  257.0    5.1 2000.0 1995.0   39.0
   45868312 9120.0 13920.0  152.0  232.0    5.2 2000.0 1995.0   39.0
   45869320 9000.0 16020.0  150.0  267.0    5.1 2000.0 1995.0   39.0
   45870317 7980.0 15840.0  133.0  264.0    5.0 2000.0 1995.0   39.0
   45871328 7740.0 15540.0  129.0  259.0    5.0 2000.0 1995.0   39.0
   45872331 9900.0 14640.0  165.0  244.0    5.2 2000.0 1995.0   39.0
   45873346 9060.0 14460.0  151.0  241.0    5.2 2000.0 1995.0   39.0
   45874357 8040.0 14280.0  134.0  238.0    5.1 2000.0 1995.0   39.0
   45875370 9000.0 14400.0  150.0  240.0    5.2 2000.0 1995.0   39.0
   45876374 9540.0 15780.0  159.0  263.0    5.1 2000.0 1996.0   39.0
   45877382 8220.0 14580.0  137.0  243.0    5.1 2000.0 1995.0   39.0
   45878390 8460.0 15300.0  141.0  255.0    5.1 2000.0 1995.0   39.0
   45879393 8640.0 14280.0  144.0  238.0    5.1 2000.0 1995.0   39.0
