# 
~VERSION INFORMATION
     VERS.                              2.0:Версия формата LAS
     WRAP.                               NO:Режим одной строчки на временной отчет
~WELL INFORMATION
     STRT.ms                       29740351:Время первой записи в файле
     STOP.ms                       47053724:Время последней записи в файле
     STEP.ms                              0:Шаг времени, 0 - переменный шаг
     NULL.                          -999.25:Метка, нет значения
     DATE.                       28.04.2023:Дата каротажа
      DRV.                                 :Наименование драйвера прибора
     NAME.                          ННКТ(б):Название прибора
     SNUM.                                 :Серийный номер прибора
     FRMW.                                 :Версия прошивки на контроллере прибора
~CURVE INFORMATION
     TIME.ms                       {0,11:0}:Время, количество миллисекунд от начало суток
     NTNC.имп/мин                          :Счёт, ближний зонд ННКТ
     FTNC.у.е.                             :Счёт, дальний зонд ННКТ
     NTNL.имп/мин                          :Счёт нормированный на счёт в воде, ближний зонд ННКТ
     FTNL.у.е.                             :Счёт нормированный на счёт в воде, дальний зонд ННКТ
     TRNP.%                                :Пористость по водородосодержанию ННКТ
     UHVS.В                                :Установленное напряжение на высоковольтнике
     UHVM.В                                :Измеренное напряжение на высоковольтнике
       MT.°C                               :Температура
~OTHER INFORMATION


~A     TIME   NTNC   FTNC   NTNL   FTNL   TRNP   UHVS   UHVM     MT
# ...
   33130410 9540.0 15480.0  159.0  258.0    5.2 2000.0 1996.0  103.0
   33131422 7980.0 14400.0  133.0  240.0    5.1 2000.0 1995.0  103.0
   33132429 9360.0 14400.0  156.0  240.0    5.2 2000.0 1996.0  103.0
   33133430 7980.0 15060.0  133.0  251.0    5.0 2000.0 1996.0  103.0
   33134437 7740.0 15420.0  129.0  257.0    5.0 2000.0 1996.0  103.0
   33135434 7800.0 15360.0  130.0  256.0    5.0 2000.0 1996.0  103.0
   33136435 9180.0 14460.0  153.0  241.0    5.2 2000.0 1995.0  102.0
   33137442 7740.0 15780.0  129.0  263.0    5.0 2000.0 1996.0  102.0
   33138457 8760.0 15420.0  146.0  257.0    5.1 2000.0 1995.0  102.0
   33139462 8280.0 15840.0  138.0  264.0    5.0 2000.0 1995.0  102.0
   33140472 9300.0 15840.0  155.0  264.0    5.1 2000.0 1996.0  103.0
   33141473 9480.0 13380.0  158.0  223.0    5.3 2000.0 1995.0  103.0
   33142480 8700.0 13740.0  145.0  229.0    5.2 2000.0 1995.0  103.0
   33143493 8220.0 14220.0  137.0  237.0    5.1 2000.0 1996.0  103.0
   33144504 9480.0 14820.0  158.0  247.0    5.2 2000.0 1995.0  103.0
   33145512 9240.0 15060.0  154.0  251.0    5.2 2000.0 1995.0  103.0
   33146514 10140.0 13980.0  169.0  233.0    5.3 2000.0 1996.0  102.0
   33147518 8940.0 13440.0  149.0  224.0    5.2 2000.0 1995.0  102.0
   33148526 7560.0 12480.0  126.0  208.0    5.1 2000.0 1996.0  103.0
   33149539 8100.0 12720.0  135.0  212.0    5.2 2000.0 1996.0  102.0
   33150550 8280.0 15120.0  138.0  252.0    5.1 2000.0 1996.0  102.0
   33151564 9600.0 14760.0  160.0  246.0    5.2 2000.0 1996.0  102.0
   33152578 8700.0 14280.0  145.0  238.0    5.1 2000.0 1996.0  102.0
   33153591 8220.0 16260.0  137.0  271.0    5.0 2000.0 1995.0  102.0
   33154604 7560.0 15780.0  126.0  263.0    5.0 2000.0 1996.0  102.0
   33155612 7860.0 15600.0  131.0  260.0    5.0 2000.0 1996.0  102.0
   33156625 8160.0 14040.0  136.0  234.0    5.1 2000.0 1995.0  102.0
   33157626 8520.0 13620.0  142.0  227.0    5.2 2000.0 1995.0  102.0
   33158640 8520.0 13740.0  142.0  229.0    5.2 2000.0 1996.0  102.0
   33159643 9060.0 14580.0  151.0  243.0    5.2 2000.0 1996.0  102.0
   33160653 9540.0 15300.0  159.0  255.0    5.2 2000.0 1996.0  102.0
   33161659 8280.0 13380.0  138.0  223.0    5.2 2000.0 1996.0  102.0
   33162670 9480.0 15180.0  158.0  253.0    5.2 2000.0 1996.0  102.0
   33163690 8220.0 13740.0  137.0  229.0    5.1 2000.0 1995.0  102.0
   33164685 9180.0 13440.0  153.0  224.0    5.2 2000.0 1996.0  102.0
   33165697 9300.0 16380.0  155.0  273.0    5.1 2000.0 1996.0  102.0
   33166699 9360.0 14580.0  156.0  243.0    5.2 2000.0 1996.0  102.0
   33167703 9060.0 15120.0  151.0  252.0    5.1 2000.0 1997.0  102.0
   33168702 8880.0 15060.0  148.0  251.0    5.1 2000.0 1995.0  102.0
   33169710 8820.0 16260.0  147.0  271.0    5.1 2000.0 1995.0  102.0
   33170733 8580.0 14640.0  143.0  244.0    5.1 2000.0 1996.0  102.0
   33171734 9120.0 13680.0  152.0  228.0    5.2 2000.0 1997.0  102.0
   33172726 8640.0 14700.0  144.0  245.0    5.1 2000.0 1996.0  102.0
   33173736 8340.0 15060.0  139.0  251.0    5.1 2000.0 1996.0  102.0
   33174738 7620.0 14280.0  127.0  238.0    5.1 2000.0 1996.0  102.0
   33175748 8400.0 13800.0  140.0  230.0    5.1 2000.0 1995.0  102.0
   33176764 8940.0 15360.0  149.0  256.0    5.1 2000.0 1995.0  102.0
   33177772 9900.0 14280.0  165.0  238.0    5.2 2000.0 1996.0  102.0
   33178790 8580.0 14100.0  143.0  235.0    5.1 2000.0 1996.0  102.0
   33179786 9000.0 15060.0  150.0  251.0    5.1 2000.0 1996.0  102.0
   33180790 9360.0 14460.0  156.0  241.0    5.2 2000.0 1996.0  102.0
   33181791 9240.0 14520.0  154.0  242.0    5.2 2000.0 1995.0  102.0
   33182801 10380.0 15120.0  173.0  252.0    5.2 2000.0 1996.0  102.0
   33183815 9600.0 17280.0  160.0  288.0    5.1 2000.0 1995.0  102.0
   33184828 9900.0 13380.0  165.0  223.0    5.3 2000.0 1995.0  102.0
   33185833 9660.0 13920.0  161.0  232.0    5.2 2000.0 1995.0  102.0
   33186848 8940.0 13920.0  149.0  232.0    5.2 2000.0 1995.0  102.0
   33187858 9720.0 15840.0  162.0  264.0    5.2 2000.0 1995.0  102.0
   33188862 7500.0 13860.0  125.0  231.0    5.1 2000.0 1995.0  102.0
   33189867 8880.0 14100.0  148.0  235.0    5.2 2000.0 1995.0  102.0
   33190881 7860.0 16980.0  131.0  283.0    5.0 2000.0 1996.0  102.0
   33191884 10200.0 14520.0  170.0  242.0    5.3 2000.0 1995.0  102.0
   33192886 8220.0 15060.0  137.0  251.0    5.1 2000.0 1995.0  102.0
   33193902 9300.0 15000.0  155.0  250.0    5.2 2000.0 1995.0  102.0
   33194909 9060.0 15840.0  151.0  264.0    5.1 2000.0 1995.0  102.0
   33195904 9780.0 14400.0  163.0  240.0    5.2 2000.0 1996.0  102.0
   33196909 8100.0 16020.0  135.0  267.0    5.0 2000.0 1995.0  102.0
   33197922 10560.0 14220.0  176.0  237.0    5.3 2000.0 1996.0  102.0
   33198937 9780.0 13920.0  163.0  232.0    5.3 2000.0 1995.0  102.0
   33199946 8460.0 15120.0  141.0  252.0    5.1 2000.0 1996.0  102.0
   33200959 10020.0 15000.0  167.0  250.0    5.2 2000.0 1996.0  102.0
   33201967 8580.0 14640.0  143.0  244.0    5.1 2000.0 1995.0  102.0
   33202974 7800.0 15720.0  130.0  262.0    5.0 2000.0 1996.0  102.0
   33203989 9600.0 12660.0  160.0  211.0    5.3 2000.0 1996.0  102.0
   33204997 8880.0 14460.0  148.0  241.0    5.2 2000.0 1996.0  102.0
   33206007 9060.0 14520.0  151.0  242.0    5.2 2000.0 1995.0  102.0
   33207030 9720.0 15060.0  162.0  251.0    5.2 2000.0 1996.0  102.0
   33208032 10200.0 14040.0  170.0  234.0    5.3 2000.0 1996.0  102.0
   33209044 9060.0 15540.0  151.0  259.0    5.1 2000.0 1995.0  102.0
   33210052 9000.0 14280.0  150.0  238.0    5.2 2000.0 1995.0  102.0
   33211058 8280.0 14460.0  138.0  241.0    5.1 2000.0 1996.0  102.0
   33212067 9000.0 15720.0  150.0  262.0    5.1 2000.0 1995.0  102.0
   33213063 8760.0 14340.0  146.0  239.0    5.1 2000.0 1996.0  102.0
   33214071 9120.0 14040.0  152.0  234.0    5.2 2000.0 1995.0  102.0
   33215082 8640.0 14580.0  144.0  243.0    5.1 2000.0 1996.0  102.0
   33216084 8220.0 14880.0  137.0  248.0    5.1 2000.0 1995.0  102.0
   33217092 8820.0 14460.0  147.0  241.0    5.1 2000.0 1995.0  102.0
   33218107 8220.0 14280.0  137.0  238.0    5.1 2000.0 1995.0  102.0
   33219107 7860.0 14400.0  131.0  240.0    5.1 2000.0 1995.0  102.0
   33220115 8820.0 15900.0  147.0  265.0    5.1 2000.0 1995.0  102.0
   33221127 10080.0 15660.0  168.0  261.0    5.2 2000.0 1995.0  102.0
   33222145 9480.0 14100.0  158.0  235.0    5.2 2000.0 1996.0  102.0
   33223160 8640.0 15360.0  144.0  256.0    5.1 2000.0 1995.0  102.0
   33224164 7800.0 14100.0  130.0  235.0    5.1 2000.0 1996.0  102.0
   33225162 7140.0 13200.0  119.0  220.0    5.1 2000.0 1996.0  102.0
   33226182 9060.0 15360.0  151.0  256.0    5.1 2000.0 1995.0  102.0
   33227190 8460.0 14640.0  141.0  244.0    5.1 2000.0 1995.0  102.0
   33228198 7860.0 14700.0  131.0  245.0    5.1 2000.0 1996.0  102.0
   33229209 8640.0 14520.0  144.0  242.0    5.1 2000.0 1996.0  102.0
   33230225 9240.0 14820.0  154.0  247.0    5.2 2000.0 1995.0  102.0
   33231247 9180.0 16800.0  153.0  280.0    5.1 2000.0 1996.0  102.0
   33232243 8700.0 12780.0  145.0  213.0    5.2 2000.0 1995.0  102.0
   33233254 8400.0 13560.0  140.0  226.0    5.2 2000.0 1995.0  102.0
   33234269 8700.0 14220.0  145.0  237.0    5.1 2000.0 1995.0  102.0
   33235274 9300.0 13140.0  155.0  219.0    5.3 2000.0 1995.0  102.0
   33236276 6900.0 15540.0  115.0  259.0    4.9 2000.0 1996.0  102.0
   33237289 7980.0 13980.0  133.0  233.0    5.1 2000.0 1995.0  102.0
   33238294 8520.0 16680.0  142.0  278.0    5.0 2000.0 1995.0  101.0
   33239299 9600.0 14220.0  160.0  237.0    5.2 2000.0 1996.0  102.0
   33240302 8460.0 13620.0  141.0  227.0    5.2 2000.0 1995.0  102.0
   33241317 8340.0 15000.0  139.0  250.0    5.1 2000.0 1995.0  101.0
   33242325 8580.0 15720.0  143.0  262.0    5.1 2000.0 1995.0  101.0
   33243335 6900.0 15420.0  115.0  257.0    5.0 2000.0 1995.0  101.0
   33244345 7860.0 15300.0  131.0  255.0    5.0 2000.0 1997.0  101.0
   33245353 9060.0 13440.0  151.0  224.0    5.2 2000.0 1996.0  102.0
   33246356 8220.0 14280.0  137.0  238.0    5.1 2000.0 1996.0  101.0
