# 
~VERSION INFORMATION
     VERS.                              2.0:Версия формата LAS
     WRAP.                               NO:Режим одной строчки на временной отчет
~WELL INFORMATION
     STRT.ms                       29740351:Время первой записи в файле
     STOP.ms                       47053724:Время последней записи в файле
     STEP.ms                              0:Шаг времени, 0 - переменный шаг
     NULL.                          -999.25:Метка, нет значения
     DATE.                       28.04.2023:Дата каротажа
      DRV.                                 :Наименование драйвера прибора
     NAME.                          ННКТ(б):Название прибора
     SNUM.                                 :Серийный номер прибора
     FRMW.                                 :Версия прошивки на контроллере прибора
~CURVE INFORMATION
     TIME.ms                       {0,11:0}:Время, количество миллисекунд от начало суток
     NTNC.имп/мин                          :Счёт, ближний зонд ННКТ
     FTNC.у.е.                             :Счёт, дальний зонд ННКТ
     NTNL.имп/мин                          :Счёт нормированный на счёт в воде, ближний зонд ННКТ
     FTNL.у.е.                             :Счёт нормированный на счёт в воде, дальний зонд ННКТ
     TRNP.%                                :Пористость по водородосодержанию ННКТ
     UHVS.В                                :Установленное напряжение на высоковольтнике
     UHVM.В                                :Измеренное напряжение на высоковольтнике
       MT.°C                               :Температура
~OTHER INFORMATION


~A     TIME   NTNC   FTNC   NTNL   FTNL   TRNP   UHVS   UHVM     MT
# ...
   32077983 8940.0 15660.0  149.0  261.0    5.1 2000.0 1996.0  113.0
   32078996 9420.0 15300.0  157.0  255.0    5.2 2000.0 1996.0  113.0
   32079997 8520.0 15060.0  142.0  251.0    5.1 2000.0 1996.0  113.0
   32081000 8220.0 14940.0  137.0  249.0    5.1 2000.0 1996.0  113.0
   32082003 9720.0 13620.0  162.0  227.0    5.3 2000.0 1996.0  113.0
   32083019 9420.0 14040.0  157.0  234.0    5.2 2000.0 1996.0  113.0
   32084026 7800.0 15480.0  130.0  258.0    5.0 2000.0 1996.0  113.0
   32085034 8220.0 13980.0  137.0  233.0    5.1 2000.0 1996.0  113.0
   32086048 9120.0 15180.0  152.0  253.0    5.1 2000.0 1996.0  113.0
   32087063 8460.0 16140.0  141.0  269.0    5.0 2000.0 1996.0  113.0
   32088072 9420.0 13140.0  157.0  219.0    5.3 2000.0 1996.0  113.0
   32089088 8940.0 15720.0  149.0  262.0    5.1 2000.0 1996.0  113.0
   32090102 9000.0 14580.0  150.0  243.0    5.2 2000.0 1996.0  113.0
   32091119 9060.0 16680.0  151.0  278.0    5.1 2000.0 1996.0  113.0
   32092120 8160.0 14280.0  136.0  238.0    5.1 2000.0 1996.0  113.0
   32093130 8160.0 14520.0  136.0  242.0    5.1 2000.0 1996.0  113.0
   32094137 8340.0 13800.0  139.0  230.0    5.1 2000.0 1996.0  113.0
   32095145 8820.0 15840.0  147.0  264.0    5.1 2000.0 1996.0  113.0
   32096148 10020.0 14640.0  167.0  244.0    5.2 2000.0 1996.0  113.0
   32097155 8460.0 16380.0  141.0  273.0    5.0 2000.0 1996.0  113.0
   32098171 8340.0 13500.0  139.0  225.0    5.2 2000.0 1995.0  113.0
   32099163 9000.0 15900.0  150.0  265.0    5.1 2000.0 1996.0  113.0
   32100177 7380.0 15060.0  123.0  251.0    5.0 2000.0 1996.0  113.0
   32101190 8220.0 13620.0  137.0  227.0    5.1 2000.0 1996.0  113.0
   32102192 9120.0 15840.0  152.0  264.0    5.1 2000.0 1996.0  113.0
   32103207 9000.0 15900.0  150.0  265.0    5.1 2000.0 1996.0  113.0
   32104207 7980.0 15000.0  133.0  250.0    5.1 2000.0 1996.0  113.0
   32105206 9060.0 13920.0  151.0  232.0    5.2 2000.0 1996.0  113.0
   32106213 8340.0 14820.0  139.0  247.0    5.1 2000.0 1996.0  113.0
   32107221 9360.0 14280.0  156.0  238.0    5.2 2000.0 1996.0  113.0
   32108239 8520.0 13620.0  142.0  227.0    5.2 2000.0 1996.0  113.0
   32109253 8400.0 13260.0  140.0  221.0    5.2 2000.0 1996.0  113.0
   32110267 8400.0 15720.0  140.0  262.0    5.1 2000.0 1996.0  113.0
   32111263 8580.0 13620.0  143.0  227.0    5.2 2000.0 1995.0  113.0
   32112278 9780.0 14400.0  163.0  240.0    5.2 2000.0 1996.0  113.0
   32113293 7140.0 16020.0  119.0  267.0    4.9 2000.0 1996.0  113.0
   32114294 8580.0 13320.0  143.0  222.0    5.2 2000.0 1996.0  113.0
   32115306 9600.0 12660.0  160.0  211.0    5.3 2000.0 1996.0  113.0
   32116315 9300.0 15180.0  155.0  253.0    5.2 2000.0 1996.0  113.0
   32117316 9120.0 15840.0  152.0  264.0    5.1 2000.0 1996.0  113.0
   32118332 8520.0 15840.0  142.0  264.0    5.1 2000.0 1996.0  113.0
   32119337 8640.0 15180.0  144.0  253.0    5.1 2000.0 1996.0  113.0
   32120337 9000.0 16140.0  150.0  269.0    5.1 2000.0 1996.0  113.0
   32121353 7800.0 14520.0  130.0  242.0    5.1 2000.0 1996.0  113.0
   32122366 9180.0 13980.0  153.0  233.0    5.2 2000.0 1996.0  113.0
   32123389 8400.0 14220.0  140.0  237.0    5.1 2000.0 1996.0  113.0
   32124379 7800.0 14700.0  130.0  245.0    5.1 2000.0 1996.0  113.0
   32125393 9300.0 14460.0  155.0  241.0    5.2 2000.0 1996.0  113.0
   32126401 8460.0 15180.0  141.0  253.0    5.1 2000.0 1996.0  113.0
   32127417 8280.0 14580.0  138.0  243.0    5.1 2000.0 1996.0  113.0
   32128418 7320.0 15180.0  122.0  253.0    5.0 2000.0 1996.0  113.0
   32129424 8520.0 15600.0  142.0  260.0    5.1 2000.0 1996.0  113.0
   32130437 7440.0 14340.0  124.0  239.0    5.0 2000.0 1996.0  113.0
   32131454 10020.0 14460.0  167.0  241.0    5.2 2000.0 1996.0  113.0
   32132465 9360.0 13800.0  156.0  230.0    5.2 2000.0 1996.0  113.0
   32133471 8100.0 17400.0  135.0  290.0    5.0 2000.0 1996.0  113.0
   32134473 8940.0 13380.0  149.0  223.0    5.2 2000.0 1996.0  113.0
   32135490 9300.0 15540.0  155.0  259.0    5.1 2000.0 1996.0  113.0
   32136492 8520.0 13500.0  142.0  225.0    5.2 2000.0 1996.0  113.0
   32137492 8640.0 13920.0  144.0  232.0    5.2 2000.0 1996.0  113.0
   32138496 7740.0 14700.0  129.0  245.0    5.0 2000.0 1996.0  113.0
   32139509 8280.0 14640.0  138.0  244.0    5.1 2000.0 1996.0  113.0
   32140512 9600.0 14700.0  160.0  245.0    5.2 2000.0 1996.0  113.0
   32141544 9060.0 16020.0  151.0  267.0    5.1 2000.0 1996.0  112.0
   32142546 9840.0 14640.0  164.0  244.0    5.2 2000.0 1996.0  113.0
   32143549 7560.0 14880.0  126.0  248.0    5.0 2000.0 1996.0  112.0
   32144561 8880.0 14880.0  148.0  248.0    5.1 2000.0 1996.0  112.0
   32145573 10500.0 14820.0  175.0  247.0    5.3 2000.0 1996.0  112.0
   32146581 9120.0 13200.0  152.0  220.0    5.2 2000.0 1996.0  113.0
   32147589 10440.0 14400.0  174.0  240.0    5.3 2000.0 1996.0  112.0
   32148592 8580.0 15360.0  143.0  256.0    5.1 2000.0 1996.0  112.0
   32149605 9360.0 15120.0  156.0  252.0    5.2 2000.0 1996.0  113.0
   32150612 9300.0 15600.0  155.0  260.0    5.1 2000.0 1996.0  112.0
   32151622 9480.0 14400.0  158.0  240.0    5.2 2000.0 1996.0  112.0
   32152635 8700.0 12360.0  145.0  206.0    5.3 2000.0 1996.0  112.0
   32153637 10020.0 14640.0  167.0  244.0    5.2 2000.0 1996.0  112.0
   32154653 7920.0 14160.0  132.0  236.0    5.1 2000.0 1996.0  112.0
   32155669 8460.0 14580.0  141.0  243.0    5.1 2000.0 1996.0  112.0
   32156685 9420.0 15240.0  157.0  254.0    5.2 2000.0 1996.0  112.0
   32157687 9480.0 16740.0  158.0  279.0    5.1 2000.0 1996.0  112.0
   32158688 9120.0 16260.0  152.0  271.0    5.1 2000.0 1996.0  112.0
   32159690 7080.0 13320.0  118.0  222.0    5.1 2000.0 1996.0  112.0
   32160695 8640.0 13980.0  144.0  233.0    5.2 2000.0 1996.0  112.0
   32161703 9420.0 15840.0  157.0  264.0    5.1 2000.0 1996.0  112.0
   32162703 9360.0 13680.0  156.0  228.0    5.2 2000.0 1996.0  112.0
   32163718 8640.0 15540.0  144.0  259.0    5.1 2000.0 1996.0  112.0
   32164719 9960.0 14940.0  166.0  249.0    5.2 2000.0 1996.0  112.0
   32165720 9720.0 14100.0  162.0  235.0    5.2 2000.0 1996.0  112.0
   32166721 9300.0 13200.0  155.0  220.0    5.3 2000.0 1996.0  112.0
   32167735 9660.0 13260.0  161.0  221.0    5.3 2000.0 1996.0  112.0
   32168739 7860.0 14460.0  131.0  241.0    5.1 2000.0 1996.0  112.0
   32169749 9420.0 13200.0  157.0  220.0    5.3 2000.0 1996.0  112.0
   32170761 10140.0 12540.0  169.0  209.0    5.4 2000.0 1996.0  112.0
   32171770 8520.0 13920.0  142.0  232.0    5.1 2000.0 1995.0  112.0
   32172787 8160.0 15360.0  136.0  256.0    5.1 2000.0 1996.0  112.0
   32173801 9660.0 14940.0  161.0  249.0    5.2 2000.0 1996.0  112.0
   32174817 9540.0 14700.0  159.0  245.0    5.2 2000.0 1996.0  112.0
   32175827 10080.0 15060.0  168.0  251.0    5.2 2000.0 1996.0  112.0
   32176829 9120.0 16380.0  152.0  273.0    5.1 2000.0 1996.0  112.0
   32177836 7800.0 15840.0  130.0  264.0    5.0 2000.0 1995.0  112.0
   32178850 8580.0 15720.0  143.0  262.0    5.1 2000.0 1996.0  112.0
   32179858 9780.0 14100.0  163.0  235.0    5.2 2000.0 1996.0  112.0
   32180866 7860.0 13800.0  131.0  230.0    5.1 2000.0 1996.0  112.0
   32181873 9420.0 16260.0  157.0  271.0    5.1 2000.0 1996.0  112.0
   32182879 8340.0 13800.0  139.0  230.0    5.1 2000.0 1996.0  112.0
   32183878 9060.0 13680.0  151.0  228.0    5.2 2000.0 1996.0  112.0
   32184889 8520.0 15720.0  142.0  262.0    5.1 2000.0 1996.0  112.0
   32185892 8640.0 13860.0  144.0  231.0    5.2 2000.0 1996.0  112.0
   32186898 9300.0 14340.0  155.0  239.0    5.2 2000.0 1996.0  112.0
   32187901 9540.0 13560.0  159.0  226.0    5.3 2000.0 1996.0  112.0
   32188909 9540.0 13980.0  159.0  233.0    5.2 2000.0 1996.0  112.0
   32189915 8400.0 15840.0  140.0  264.0    5.1 2000.0 1996.0  112.0
   32190928 9720.0 14580.0  162.0  243.0    5.2 2000.0 1995.0  112.0
   32191943 10020.0 14160.0  167.0  236.0    5.3 2000.0 1996.0  112.0
   32192958 9060.0 12960.0  151.0  216.0    5.3 2000.0 1996.0  112.0
   32193974 9000.0 15480.0  150.0  258.0    5.1 2000.0 1995.0  112.0
