# 
~VERSION INFORMATION
     VERS.                              2.0:Версия формата LAS
     WRAP.                               NO:Режим одной строчки на временной отчет
~WELL INFORMATION
     STRT.ms                       29740351:Время первой записи в файле
     STOP.ms                       47053724:Время последней записи в файле
     STEP.ms                              0:Шаг времени, 0 - переменный шаг
     NULL.                          -999.25:Метка, нет значения
     DATE.                       28.04.2023:Дата каротажа
      DRV.                                 :Наименование драйвера прибора
     NAME.                          ННКТ(б):Название прибора
     SNUM.                                 :Серийный номер прибора
     FRMW.                                 :Версия прошивки на контроллере прибора
~CURVE INFORMATION
     TIME.ms                       {0,11:0}:Время, количество миллисекунд от начало суток
     NTNC.имп/мин                          :Счёт, ближний зонд ННКТ
     FTNC.у.е.                             :Счёт, дальний зонд ННКТ
     NTNL.имп/мин                          :Счёт нормированный на счёт в воде, ближний зонд ННКТ
     FTNL.у.е.                             :Счёт нормированный на счёт в воде, дальний зонд ННКТ
     TRNP.%                                :Пористость по водородосодержанию ННКТ
     UHVS.В                                :Установленное напряжение на высоковольтнике
     UHVM.В                                :Измеренное напряжение на высоковольтнике
       MT.°C                               :Температура
~OTHER INFORMATION


~A     TIME   NTNC   FTNC   NTNL   FTNL   TRNP   UHVS   UHVM     MT
# ...
   44592253 8640.0 14340.0  144.0  239.0    5.1 2000.0 1996.0   44.0
   44593274 7800.0 14760.0  130.0  246.0    5.0 2000.0 1996.0   44.0
   44594272 8880.0 13560.0  148.0  226.0    5.2 2000.0 1995.0   44.0
   44595274 8880.0 14040.0  148.0  234.0    5.2 2000.0 1995.0   44.0
   44596281 7920.0 16680.0  132.0  278.0    5.0 2000.0 1995.0   44.0
   44597283 7680.0 14460.0  128.0  241.0    5.1 2000.0 1995.0   44.0
   44598290 7500.0 14460.0  125.0  241.0    5.0 2000.0 1995.0   44.0
   44599306 10860.0 14400.0  181.0  240.0    5.3 2000.0 1995.0   44.0
   44600319 9120.0 13920.0  152.0  232.0    5.2 2000.0 1995.0   44.0
   44601325 8580.0 14340.0  143.0  239.0    5.1 2000.0 1996.0   44.0
   44602325 6480.0 15120.0  108.0  252.0    4.9 2000.0 1996.0   44.0
   44603333 8220.0 14220.0  137.0  237.0    5.1 2000.0 1996.0   44.0
   44604341 8880.0 14580.0  148.0  243.0    5.1 2000.0 1995.0   44.0
   44605363 7860.0 14760.0  131.0  246.0    5.1 2000.0 1995.0   44.0
   44606362 9420.0 14640.0  157.0  244.0    5.2 2000.0 1995.0   44.0
   44607375 8580.0 14760.0  143.0  246.0    5.1 2000.0 1995.0   44.0
   44608378 8940.0 15000.0  149.0  250.0    5.1 2000.0 1996.0   44.0
   44609390 9780.0 15420.0  163.0  257.0    5.2 2000.0 1995.0   44.0
   44610393 7620.0 13980.0  127.0  233.0    5.1 2000.0 1996.0   44.0
   44611409 8760.0 14280.0  146.0  238.0    5.2 2000.0 1995.0   44.0
   44612417 9300.0 14400.0  155.0  240.0    5.2 2000.0 1995.0   44.0
   44613419 8880.0 13860.0  148.0  231.0    5.2 2000.0 1996.0   44.0
   44614433 9120.0 14280.0  152.0  238.0    5.2 2000.0 1995.0   44.0
   44615431 7620.0 17700.0  127.0  295.0    4.9 2000.0 1995.0   44.0
   44616438 10500.0 15360.0  175.0  256.0    5.2 2000.0 1995.0   44.0
   44617445 8940.0 16320.0  149.0  272.0    5.1 2000.0 1995.0   44.0
   44618451 8220.0 14700.0  137.0  245.0    5.1 2000.0 1995.0   44.0
   44619464 8340.0 15360.0  139.0  256.0    5.1 2000.0 1995.0   44.0
   44620481 9060.0 13800.0  151.0  230.0    5.2 2000.0 1995.0   44.0
   44621482 8520.0 14760.0  142.0  246.0    5.1 2000.0 1996.0   44.0
   44622497 8880.0 14700.0  148.0  245.0    5.1 2000.0 1996.0   44.0
   44623498 7860.0 15720.0  131.0  262.0    5.0 2000.0 1995.0   44.0
   44624516 9060.0 15180.0  151.0  253.0    5.1 2000.0 1995.0   44.0
   44625520 9060.0 16320.0  151.0  272.0    5.1 2000.0 1995.0   43.0
   44626513 9180.0 15780.0  153.0  263.0    5.1 2000.0 1996.0   44.0
   44627520 8460.0 15660.0  141.0  261.0    5.1 2000.0 1996.0   44.0
   44628522 8700.0 14340.0  145.0  239.0    5.1 2000.0 1995.0   44.0
   44629530 10500.0 14220.0  175.0  237.0    5.3 2000.0 1996.0   44.0
   44630546 7320.0 13560.0  122.0  226.0    5.1 2000.0 1996.0   44.0
   44631546 9240.0 15300.0  154.0  255.0    5.1 2000.0 1996.0   44.0
   44632552 9600.0 16680.0  160.0  278.0    5.1 2000.0 1996.0   44.0
   44633564 8100.0 16680.0  135.0  278.0    5.0 2000.0 1995.0   43.0
   44634580 9600.0 15000.0  160.0  250.0    5.2 2000.0 1996.0   44.0
   44635596 8340.0 14640.0  139.0  244.0    5.1 2000.0 1996.0   44.0
   44636603 8820.0 15720.0  147.0  262.0    5.1 2000.0 1995.0   44.0
   44637609 8400.0 16920.0  140.0  282.0    5.0 2000.0 1996.0   44.0
   44638620 9360.0 14880.0  156.0  248.0    5.2 2000.0 1995.0   44.0
   44639635 8880.0 14520.0  148.0  242.0    5.1 2000.0 1995.0   44.0
   44640640 7620.0 13560.0  127.0  226.0    5.1 2000.0 1996.0   43.0
   44641643 8340.0 16380.0  139.0  273.0    5.0 2000.0 1995.0   43.0
   44642650 9120.0 15660.0  152.0  261.0    5.1 2000.0 1995.0   43.0
   44643658 8760.0 14940.0  146.0  249.0    5.1 2000.0 1995.0   44.0
   44644658 8820.0 13380.0  147.0  223.0    5.2 2000.0 1995.0   44.0
   44645670 8640.0 14940.0  144.0  249.0    5.1 2000.0 1996.0   43.0
   44646686 8280.0 15840.0  138.0  264.0    5.0 2000.0 1995.0   44.0
   44647700 8160.0 15300.0  136.0  255.0    5.1 2000.0 1995.0   43.0
   44648701 9120.0 13920.0  152.0  232.0    5.2 2000.0 1995.0   43.0
   44649703 8460.0 15840.0  141.0  264.0    5.1 2000.0 1995.0   43.0
   44650719 9060.0 14340.0  151.0  239.0    5.2 2000.0 1995.0   43.0
   44651720 8640.0 15180.0  144.0  253.0    5.1 2000.0 1996.0   43.0
   44652736 9000.0 15360.0  150.0  256.0    5.1 2000.0 1996.0   43.0
   44653749 8340.0 14940.0  139.0  249.0    5.1 2000.0 1996.0   43.0
   44654754 8700.0 16380.0  145.0  273.0    5.1 2000.0 1995.0   43.0
   44655755 9180.0 14580.0  153.0  243.0    5.2 2000.0 1995.0   43.0
   44656776 9000.0 15600.0  150.0  260.0    5.1 2000.0 1995.0   43.0
   44657777 9000.0 13800.0  150.0  230.0    5.2 2000.0 1995.0   43.0
   44658792 8340.0 15000.0  139.0  250.0    5.1 2000.0 1995.0   43.0
   44659786 7260.0 13860.0  121.0  231.0    5.0 2000.0 1995.0   43.0
   44660800 8820.0 15300.0  147.0  255.0    5.1 2000.0 1995.0   43.0
   44661802 8400.0 14760.0  140.0  246.0    5.1 2000.0 1996.0   43.0
   44662818 9900.0 15900.0  165.0  265.0    5.2 2000.0 1996.0   43.0
   44663827 10500.0 17040.0  175.0  284.0    5.2 2000.0 1995.0   43.0
   44664828 8700.0 16860.0  145.0  281.0    5.0 2000.0 1996.0   43.0
   44665827 8460.0 13740.0  141.0  229.0    5.2 2000.0 1995.0   43.0
   44666835 8040.0 14520.0  134.0  242.0    5.1 2000.0 1996.0   43.0
   44667846 7500.0 14580.0  125.0  243.0    5.0 2000.0 1995.0   43.0
   44668853 8100.0 15180.0  135.0  253.0    5.1 2000.0 1996.0   43.0
   44669862 9960.0 14340.0  166.0  239.0    5.3 2000.0 1995.0   43.0
   44670880 9060.0 15720.0  151.0  262.0    5.1 2000.0 1996.0   43.0
   44671881 8820.0 15540.0  147.0  259.0    5.1 2000.0 1995.0   43.0
   44672888 9840.0 14580.0  164.0  243.0    5.2 2000.0 1996.0   43.0
   44673892 7320.0 14760.0  122.0  246.0    5.0 2000.0 1996.0   43.0
   44674894 7740.0 15360.0  129.0  256.0    5.0 2000.0 1996.0   43.0
   44675911 6900.0 15120.0  115.0  252.0    5.0 2000.0 1995.0   43.0
   44676927 9540.0 14880.0  159.0  248.0    5.2 2000.0 1995.0   43.0
   44677937 9000.0 13560.0  150.0  226.0    5.2 2000.0 1996.0   43.0
   44678935 7080.0 14820.0  118.0  247.0    5.0 2000.0 1996.0   43.0
   44679941 8700.0 14760.0  145.0  246.0    5.1 2000.0 1996.0   43.0
   44680942 9480.0 15780.0  158.0  263.0    5.1 2000.0 1996.0   43.0
   44681947 8340.0 14700.0  139.0  245.0    5.1 2000.0 1996.0   43.0
   44682956 8340.0 15360.0  139.0  256.0    5.1 2000.0 1995.0   43.0
   44683971 8040.0 15600.0  134.0  260.0    5.0 2000.0 1995.0   43.0
   44684969 9420.0 16080.0  157.0  268.0    5.1 2000.0 1995.0   43.0
   44685968 8040.0 14280.0  134.0  238.0    5.1 2000.0 1996.0   43.0
   44686977 7800.0 15720.0  130.0  262.0    5.0 2000.0 1995.0   43.0
   44687987 7620.0 14220.0  127.0  237.0    5.1 2000.0 1995.0   43.0
   44688985 8880.0 13800.0  148.0  230.0    5.2 2000.0 1995.0   43.0
   44689988 9000.0 15000.0  150.0  250.0    5.1 2000.0 1995.0   43.0
   44691009 10380.0 14220.0  173.0  237.0    5.3 2000.0 1996.0   43.0
   44692006 7740.0 14520.0  129.0  242.0    5.1 2000.0 1996.0   43.0
   44693007 8640.0 15660.0  144.0  261.0    5.1 2000.0 1996.0   43.0
   44694016 8400.0 14280.0  140.0  238.0    5.1 2000.0 1995.0   43.0
   44695019 9180.0 13920.0  153.0  232.0    5.2 2000.0 1995.0   43.0
   44696034 9540.0 15960.0  159.0  266.0    5.1 2000.0 1996.0   43.0
   44697045 8100.0 16140.0  135.0  269.0    5.0 2000.0 1996.0   43.0
   44698060 9120.0 14220.0  152.0  237.0    5.2 2000.0 1996.0   43.0
   44699065 8100.0 16800.0  135.0  280.0    5.0 2000.0 1996.0   43.0
   44700077 9600.0 13860.0  160.0  231.0    5.2 2000.0 1995.0   43.0
   44701083 9960.0 15180.0  166.0  253.0    5.2 2000.0 1995.0   43.0
   44702077 9540.0 14460.0  159.0  241.0    5.2 2000.0 1995.0   43.0
   44703079 9420.0 14880.0  157.0  248.0    5.2 2000.0 1995.0   43.0
   44704087 8580.0 15120.0  143.0  252.0    5.1 2000.0 1996.0   43.0
   44705091 8820.0 15240.0  147.0  254.0    5.1 2000.0 1996.0   43.0
   44706096 8400.0 14760.0  140.0  246.0    5.1 2000.0 1995.0   43.0
   44707104 8820.0 15780.0  147.0  263.0    5.1 2000.0 1996.0   43.0
   44708112 8340.0 15120.0  139.0  252.0    5.1 2000.0 1995.0   43.0
