# 
~VERSION INFORMATION
     VERS.                              2.0:Версия формата LAS
     WRAP.                               NO:Режим одной строчки на временной отчет
~WELL INFORMATION
     STRT.ms                       29740351:Время первой записи в файле
     STOP.ms                       47053724:Время последней записи в файле
     STEP.ms                              0:Шаг времени, 0 - переменный шаг
     NULL.                          -999.25:Метка, нет значения
     DATE.                       28.04.2023:Дата каротажа
      DRV.                                 :Наименование драйвера прибора
     NAME.                          ННКТ(б):Название прибора
     SNUM.                                 :Серийный номер прибора
     FRMW.                                 :Версия прошивки на контроллере прибора
~CURVE INFORMATION
     TIME.ms                       {0,11:0}:Время, количество миллисекунд от начало суток
     NTNC.имп/мин                          :Счёт, ближний зонд ННКТ
     FTNC.у.е.                             :Счёт, дальний зонд ННКТ
     NTNL.имп/мин                          :Счёт нормированный на счёт в воде, ближний зонд ННКТ
     FTNL.у.е.                             :Счёт нормированный на счёт в воде, дальний зонд ННКТ
     TRNP.%                                :Пористость по водородосодержанию ННКТ
     UHVS.В                                :Установленное напряжение на высоковольтнике
     UHVM.В                                :Измеренное напряжение на высоковольтнике
       MT.°C                               :Температура
~OTHER INFORMATION


~A     TIME   NTNC   FTNC   NTNL   FTNL   TRNP   UHVS   UHVM     MT
# ...
   34299895 8520.0 15960.0  142.0  266.0    5.1 2000.0 1996.0   93.0
   34300900 8580.0 14460.0  143.0  241.0    5.1 2000.0 1996.0   93.0
   34301908 8880.0 14760.0  148.0  246.0    5.1 2000.0 1996.0   93.0
   34302922 9120.0 14160.0  152.0  236.0    5.2 2000.0 1996.0   93.0
   34303921 8400.0 14040.0  140.0  234.0    5.1 2000.0 1996.0   93.0
   34304933 8160.0 14220.0  136.0  237.0    5.1 2000.0 1996.0   93.0
   34305937 8520.0 14160.0  142.0  236.0    5.1 2000.0 1996.0   93.0
   34306950 9840.0 12780.0  164.0  213.0    5.3 2000.0 1996.0   93.0
   34307953 8640.0 16200.0  144.0  270.0    5.1 2000.0 1996.0   93.0
   34308963 7860.0 15300.0  131.0  255.0    5.0 2000.0 1996.0   93.0
   34309973 7800.0 14460.0  130.0  241.0    5.1 2000.0 1995.0   93.0
   34310973 9000.0 14100.0  150.0  235.0    5.2 2000.0 1996.0   93.0
   34311981 8160.0 14520.0  136.0  242.0    5.1 2000.0 1996.0   93.0
   34312988 8640.0 15300.0  144.0  255.0    5.1 2000.0 1996.0   93.0
   34313994 9960.0 14700.0  166.0  245.0    5.2 2000.0 1996.0   93.0
   34315006 9000.0 14160.0  150.0  236.0    5.2 2000.0 1996.0   93.0
   34316013 7080.0 15780.0  118.0  263.0    5.0 2000.0 1996.0   93.0
   34317018 8280.0 16020.0  138.0  267.0    5.0 2000.0 1996.0   93.0
   34318020 7920.0 16320.0  132.0  272.0    5.0 2000.0 1996.0   93.0
   34319032 8580.0 14700.0  143.0  245.0    5.1 2000.0 1996.0   93.0
   34320036 9120.0 13380.0  152.0  223.0    5.2 2000.0 1996.0   93.0
   34321044 8040.0 13620.0  134.0  227.0    5.1 2000.0 1996.0   93.0
   34322068 8820.0 15840.0  147.0  264.0    5.1 2000.0 1996.0   93.0
   34323077 7020.0 14880.0  117.0  248.0    5.0 2000.0 1996.0   93.0
   34324087 9120.0 14400.0  152.0  240.0    5.2 2000.0 1996.0   93.0
   34325098 9480.0 14760.0  158.0  246.0    5.2 2000.0 1996.0   93.0
   34326109 10860.0 15000.0  181.0  250.0    5.3 2000.0 1996.0   93.0
   34327109 8580.0 15180.0  143.0  253.0    5.1 2000.0 1996.0   93.0
   34328110 9960.0 16500.0  166.0  275.0    5.1 2000.0 1996.0   93.0
   34329123 8520.0 15180.0  142.0  253.0    5.1 2000.0 1996.0   93.0
   34330129 7980.0 14700.0  133.0  245.0    5.1 2000.0 1996.0   93.0
   34331143 9240.0 15960.0  154.0  266.0    5.1 2000.0 1996.0   93.0
   34332143 8880.0 15540.0  148.0  259.0    5.1 2000.0 1996.0   93.0
   34333163 8280.0 15480.0  138.0  258.0    5.1 2000.0 1996.0   93.0
   34334162 7920.0 15660.0  132.0  261.0    5.0 2000.0 1996.0   93.0
   34335169 8700.0 15360.0  145.0  256.0    5.1 2000.0 1996.0   93.0
   34336177 8820.0 14280.0  147.0  238.0    5.2 2000.0 1996.0   93.0
   34337194 8880.0 16020.0  148.0  267.0    5.1 2000.0 1996.0   93.0
   34338206 7560.0 12840.0  126.0  214.0    5.1 2000.0 1996.0   93.0
   34339207 8700.0 13800.0  145.0  230.0    5.2 2000.0 1996.0   93.0
   34340222 8160.0 14340.0  136.0  239.0    5.1 2000.0 1996.0   93.0
   34341225 8340.0 14700.0  139.0  245.0    5.1 2000.0 1996.0   93.0
   34342231 8640.0 14700.0  144.0  245.0    5.1 2000.0 1995.0   93.0
   34343242 8340.0 16020.0  139.0  267.0    5.0 2000.0 1996.0   93.0
   34344243 7920.0 14100.0  132.0  235.0    5.1 2000.0 1996.0   93.0
   34345261 8700.0 15300.0  145.0  255.0    5.1 2000.0 1996.0   92.0
   34346268 8580.0 14640.0  143.0  244.0    5.1 2000.0 1997.0   93.0
   34347282 9120.0 16440.0  152.0  274.0    5.1 2000.0 1996.0   93.0
   34348292 8040.0 15900.0  134.0  265.0    5.0 2000.0 1996.0   93.0
   34349305 8760.0 15000.0  146.0  250.0    5.1 2000.0 1996.0   93.0
   34350320 10020.0 15180.0  167.0  253.0    5.2 2000.0 1996.0   93.0
   34351329 7680.0 14520.0  128.0  242.0    5.0 2000.0 1996.0   93.0
   34352341 9540.0 14940.0  159.0  249.0    5.2 2000.0 1996.0   93.0
   34353358 8760.0 14640.0  146.0  244.0    5.1 2000.0 1996.0   93.0
   34354358 10260.0 16080.0  171.0  268.0    5.2 2000.0 1996.0   93.0
   34355370 8460.0 14280.0  141.0  238.0    5.1 2000.0 1996.0   92.0
   34356379 9060.0 14820.0  151.0  247.0    5.1 2000.0 1995.0   93.0
   34357385 9600.0 15240.0  160.0  254.0    5.2 2000.0 1996.0   92.0
   34358390 9000.0 14160.0  150.0  236.0    5.2 2000.0 1996.0   93.0
   34359393 8220.0 14700.0  137.0  245.0    5.1 2000.0 1996.0   92.0
   34360403 9060.0 14700.0  151.0  245.0    5.2 2000.0 1996.0   93.0
   34361403 9360.0 16200.0  156.0  270.0    5.1 2000.0 1996.0   92.0
   34362418 8160.0 15840.0  136.0  264.0    5.0 2000.0 1996.0   92.0
   34363432 8280.0 15360.0  138.0  256.0    5.1 2000.0 1996.0   93.0
   34364440 8760.0 15000.0  146.0  250.0    5.1 2000.0 1996.0   93.0
   34365448 9180.0 13740.0  153.0  229.0    5.2 2000.0 1996.0   93.0
   34366463 7140.0 13200.0  119.0  220.0    5.1 2000.0 1996.0   93.0
   34367479 9900.0 13200.0  165.0  220.0    5.3 2000.0 1996.0   92.0
   34368487 9660.0 13740.0  161.0  229.0    5.3 2000.0 1996.0   93.0
   34369498 7740.0 15000.0  129.0  250.0    5.0 2000.0 1996.0   93.0
   34370498 9720.0 13320.0  162.0  222.0    5.3 2000.0 1995.0   92.0
   34371500 8940.0 15720.0  149.0  262.0    5.1 2000.0 1995.0   92.0
   34372514 8040.0 13740.0  134.0  229.0    5.1 2000.0 1995.0   93.0
   34373518 9900.0 14820.0  165.0  247.0    5.2 2000.0 1996.0   92.0
   34374524 8580.0 15960.0  143.0  266.0    5.1 2000.0 1996.0   92.0
   34375542 8040.0 15420.0  134.0  257.0    5.0 2000.0 1996.0   92.0
   34376544 6480.0 15840.0  108.0  264.0    4.9 2000.0 1996.0   92.0
   34377556 7920.0 13800.0  132.0  230.0    5.1 2000.0 1996.0   92.0
   34378555 8460.0 15180.0  141.0  253.0    5.1 2000.0 1996.0   92.0
   34379556 9060.0 14880.0  151.0  248.0    5.1 2000.0 1996.0   92.0
   34380576 10560.0 14340.0  176.0  239.0    5.3 2000.0 1996.0   92.0
   34381574 8880.0 13320.0  148.0  222.0    5.2 2000.0 1996.0   92.0
   34382575 7920.0 14820.0  132.0  247.0    5.1 2000.0 1996.0   92.0
   34383591 9180.0 16800.0  153.0  280.0    5.1 2000.0 1996.0   92.0
   34384608 7860.0 14640.0  131.0  244.0    5.1 2000.0 1996.0   92.0
   34385610 9360.0 17280.0  156.0  288.0    5.1 2000.0 1996.0   92.0
   34386627 8820.0 13800.0  147.0  230.0    5.2 2000.0 1996.0   92.0
   34387634 8580.0 14580.0  143.0  243.0    5.1 2000.0 1996.0   92.0
   34388636 7980.0 15480.0  133.0  258.0    5.0 2000.0 1996.0   92.0
   34389644 7560.0 15540.0  126.0  259.0    5.0 2000.0 1996.0   92.0
   34390655 9120.0 15840.0  152.0  264.0    5.1 2000.0 1995.0   92.0
   34391655 8400.0 15660.0  140.0  261.0    5.1 2000.0 1996.0   92.0
   34392667 8640.0 16200.0  144.0  270.0    5.1 2000.0 1995.0   92.0
   34393669 9540.0 13260.0  159.0  221.0    5.3 2000.0 1996.0   92.0
   34394682 7800.0 15720.0  130.0  262.0    5.0 2000.0 1996.0   92.0
   34395690 8940.0 13620.0  149.0  227.0    5.2 2000.0 1997.0   92.0
   34396695 9000.0 13320.0  150.0  222.0    5.2 2000.0 1996.0   92.0
   34397692 9480.0 15300.0  158.0  255.0    5.2 2000.0 1996.0   92.0
   34398706 8580.0 15660.0  143.0  261.0    5.1 2000.0 1996.0   92.0
   34399710 9720.0 15420.0  162.0  257.0    5.2 2000.0 1996.0   92.0
   34400723 8400.0 14400.0  140.0  240.0    5.1 2000.0 1996.0   92.0
   34401738 8580.0 13200.0  143.0  220.0    5.2 2000.0 1996.0   92.0
   34402732 8520.0 15600.0  142.0  260.0    5.1 2000.0 1996.0   92.0
   34403743 8700.0 15480.0  145.0  258.0    5.1 2000.0 1996.0   92.0
   34404752 9000.0 15660.0  150.0  261.0    5.1 2000.0 1996.0   92.0
   34405761 7140.0 13680.0  119.0  228.0    5.0 2000.0 1996.0   92.0
   34406771 9420.0 15840.0  157.0  264.0    5.1 2000.0 1996.0   92.0
   34407779 9300.0 14220.0  155.0  237.0    5.2 2000.0 1996.0   92.0
   34408793 7800.0 15300.0  130.0  255.0    5.0 2000.0 1995.0   92.0
   34409811 7140.0 14340.0  119.0  239.0    5.0 2000.0 1996.0   92.0
   34410823 8880.0 13740.0  148.0  229.0    5.2 2000.0 1996.0   92.0
   34411825 8460.0 13380.0  141.0  223.0    5.2 2000.0 1996.0   92.0
   34412840 9720.0 15300.0  162.0  255.0    5.2 2000.0 1996.0   92.0
   34413849 9480.0 15600.0  158.0  260.0    5.1 2000.0 1996.0   92.0
   34414857 7920.0 13500.0  132.0  225.0    5.1 2000.0 1996.0   92.0
   34415863 8460.0 15360.0  141.0  256.0    5.1 2000.0 1996.0   92.0
