# 
~VERSION INFORMATION
     VERS.                              2.0:Версия формата LAS
     WRAP.                               NO:Режим одной строчки на временной отчет
~WELL INFORMATION
     STRT.ms                       29740351:Время первой записи в файле
     STOP.ms                       47053724:Время последней записи в файле
     STEP.ms                              0:Шаг времени, 0 - переменный шаг
     NULL.                          -999.25:Метка, нет значения
     DATE.                       28.04.2023:Дата каротажа
      DRV.                                 :Наименование драйвера прибора
     NAME.                          ННКТ(б):Название прибора
     SNUM.                                 :Серийный номер прибора
     FRMW.                                 :Версия прошивки на контроллере прибора
~CURVE INFORMATION
     TIME.ms                       {0,11:0}:Время, количество миллисекунд от начало суток
     NTNC.имп/мин                          :Счёт, ближний зонд ННКТ
     FTNC.у.е.                             :Счёт, дальний зонд ННКТ
     NTNL.имп/мин                          :Счёт нормированный на счёт в воде, ближний зонд ННКТ
     FTNL.у.е.                             :Счёт нормированный на счёт в воде, дальний зонд ННКТ
     TRNP.%                                :Пористость по водородосодержанию ННКТ
     UHVS.В                                :Установленное напряжение на высоковольтнике
     UHVM.В                                :Измеренное напряжение на высоковольтнике
       MT.°C                               :Температура
~OTHER INFORMATION


~A     TIME   NTNC   FTNC   NTNL   FTNL   TRNP   UHVS   UHVM     MT
# ...
   30909064 9000.0 16320.0  150.0  272.0    5.1 2000.0 1996.0  128.0
   30910073 8700.0 15120.0  145.0  252.0    5.1 2000.0 1996.0  128.0
   30911077 9000.0 13680.0  150.0  228.0    5.2 2000.0 1996.0  128.0
   30912078 8400.0 15420.0  140.0  257.0    5.1 2000.0 1996.0  128.0
   30913094 9180.0 15720.0  153.0  262.0    5.1 2000.0 1996.0  128.0
   30914107 9840.0 13740.0  164.0  229.0    5.3 2000.0 1996.0  128.0
   30915124 10200.0 14340.0  170.0  239.0    5.3 2000.0 1996.0  128.0
   30916122 9780.0 16140.0  163.0  269.0    5.1 2000.0 1996.0  128.0
   30917127 9540.0 15720.0  159.0  262.0    5.1 2000.0 1996.0  128.0
   30918130 9360.0 14160.0  156.0  236.0    5.2 2000.0 1996.0  128.0
   30919139 8100.0 15000.0  135.0  250.0    5.1 2000.0 1995.0  128.0
   30920145 8520.0 13440.0  142.0  224.0    5.2 2000.0 1996.0  128.0
   30921150 8880.0 14280.0  148.0  238.0    5.2 2000.0 1996.0  128.0
   30922159 8160.0 13920.0  136.0  232.0    5.1 2000.0 1996.0  128.0
   30923161 8520.0 14460.0  142.0  241.0    5.1 2000.0 1996.0  128.0
   30924168 10020.0 15840.0  167.0  264.0    5.2 2000.0 1996.0  128.0
   30925181 7620.0 13860.0  127.0  231.0    5.1 2000.0 1996.0  128.0
   30926190 10080.0 15720.0  168.0  262.0    5.2 2000.0 1996.0  128.0
   30927214 8400.0 13140.0  140.0  219.0    5.2 2000.0 1996.0  128.0
   30928214 9480.0 15480.0  158.0  258.0    5.2 2000.0 1996.0  128.0
   30929228 9300.0 16740.0  155.0  279.0    5.1 2000.0 1996.0  128.0
   30930238 9360.0 15900.0  156.0  265.0    5.1 2000.0 1996.0  128.0
   30931252 9240.0 13680.0  154.0  228.0    5.2 2000.0 1996.0  128.0
   30932262 9420.0 16920.0  157.0  282.0    5.1 2000.0 1996.0  128.0
   30933262 8760.0 13260.0  146.0  221.0    5.2 2000.0 1996.0  128.0
   30934280 10620.0 14640.0  177.0  244.0    5.3 2000.0 1996.0  128.0
   30935292 9360.0 13560.0  156.0  226.0    5.2 2000.0 1996.0  128.0
   30936300 7920.0 13020.0  132.0  217.0    5.1 2000.0 1996.0  128.0
   30937308 8940.0 15000.0  149.0  250.0    5.1 2000.0 1996.0  128.0
   30938311 9540.0 16320.0  159.0  272.0    5.1 2000.0 1996.0  127.0
   30939319 8640.0 15540.0  144.0  259.0    5.1 2000.0 1996.0  128.0
   30940320 7620.0 14640.0  127.0  244.0    5.0 2000.0 1996.0  128.0
   30941335 10680.0 15540.0  178.0  259.0    5.2 2000.0 1995.0  128.0
   30942339 9540.0 15600.0  159.0  260.0    5.1 2000.0 1996.0  128.0
   30943348 10320.0 15000.0  172.0  250.0    5.2 2000.0 1995.0  127.0
   30944354 9600.0 14760.0  160.0  246.0    5.2 2000.0 1995.0  128.0
   30945361 9660.0 14160.0  161.0  236.0    5.2 2000.0 1996.0  128.0
   30946375 10500.0 14400.0  175.0  240.0    5.3 2000.0 1996.0  128.0
   30947379 7320.0 15120.0  122.0  252.0    5.0 2000.0 1996.0  128.0
   30948384 9420.0 16740.0  157.0  279.0    5.1 2000.0 1996.0  127.0
   30949393 8820.0 12720.0  147.0  212.0    5.2 2000.0 1996.0  128.0
   30950401 9720.0 15180.0  162.0  253.0    5.2 2000.0 1996.0  128.0
   30951397 8280.0 14640.0  138.0  244.0    5.1 2000.0 1996.0  127.0
   30952405 9060.0 13560.0  151.0  226.0    5.2 2000.0 1995.0  128.0
   30953406 10440.0 13980.0  174.0  233.0    5.3 2000.0 1996.0  127.0
   30954414 9480.0 14640.0  158.0  244.0    5.2 2000.0 1996.0  128.0
   30955420 8640.0 14940.0  144.0  249.0    5.1 2000.0 1996.0  127.0
   30956421 9540.0 15240.0  159.0  254.0    5.2 2000.0 1996.0  127.0
   30957424 8880.0 14580.0  148.0  243.0    5.1 2000.0 1996.0  128.0
   30958439 9960.0 15120.0  166.0  252.0    5.2 2000.0 1996.0  127.0
   30959446 7980.0 15540.0  133.0  259.0    5.0 2000.0 1996.0  127.0
   30960455 9780.0 15360.0  163.0  256.0    5.2 2000.0 1996.0  127.0
   30961456 8880.0 13200.0  148.0  220.0    5.2 2000.0 1996.0  127.0
   30962459 8940.0 14520.0  149.0  242.0    5.2 2000.0 1996.0  127.0
   30963461 9660.0 14280.0  161.0  238.0    5.2 2000.0 1996.0  128.0
   30964462 10080.0 15180.0  168.0  253.0    5.2 2000.0 1996.0  128.0
   30965467 9180.0 13200.0  153.0  220.0    5.3 2000.0 1996.0  127.0
   30966469 8820.0 13560.0  147.0  226.0    5.2 2000.0 1996.0  127.0
   30967471 9120.0 15060.0  152.0  251.0    5.1 2000.0 1996.0  127.0
   30968472 9300.0 14760.0  155.0  246.0    5.2 2000.0 1996.0  127.0
   30969478 8520.0 14700.0  142.0  245.0    5.1 2000.0 1996.0  127.0
   30970487 9360.0 13920.0  156.0  232.0    5.2 2000.0 1996.0  127.0
   30971488 9480.0 14700.0  158.0  245.0    5.2 2000.0 1996.0  127.0
   30972494 8040.0 13020.0  134.0  217.0    5.2 2000.0 1996.0  127.0
   30973495 9060.0 14820.0  151.0  247.0    5.1 2000.0 1996.0  127.0
   30974511 8880.0 16140.0  148.0  269.0    5.1 2000.0 1996.0  127.0
   30975512 9060.0 15240.0  151.0  254.0    5.1 2000.0 1996.0  127.0
   30976514 8400.0 15000.0  140.0  250.0    5.1 2000.0 1996.0  127.0
   30977528 9480.0 15300.0  158.0  255.0    5.2 2000.0 1996.0  127.0
   30978536 8460.0 14340.0  141.0  239.0    5.1 2000.0 1996.0  127.0
   30979529 9900.0 14640.0  165.0  244.0    5.2 2000.0 1996.0  127.0
   30980542 8040.0 14580.0  134.0  243.0    5.1 2000.0 1996.0  127.0
   30981557 9780.0 15060.0  163.0  251.0    5.2 2000.0 1996.0  127.0
   30982558 7200.0 13800.0  120.0  230.0    5.0 2000.0 1996.0  127.0
   30983561 10020.0 15000.0  167.0  250.0    5.2 2000.0 1996.0  127.0
   30984576 8340.0 14160.0  139.0  236.0    5.1 2000.0 1996.0  127.0
   30985584 9540.0 14700.0  159.0  245.0    5.2 2000.0 1996.0  127.0
   30986592 8220.0 14940.0  137.0  249.0    5.1 2000.0 1996.0  127.0
   30987596 9840.0 14940.0  164.0  249.0    5.2 2000.0 1996.0  127.0
   30988605 9060.0 13560.0  151.0  226.0    5.2 2000.0 1996.0  127.0
   30989621 9000.0 13980.0  150.0  233.0    5.2 2000.0 1996.0  127.0
   30990624 8700.0 13200.0  145.0  220.0    5.2 2000.0 1996.0  127.0
   30991634 8640.0 15540.0  144.0  259.0    5.1 2000.0 1996.0  127.0
   30992643 10020.0 15000.0  167.0  250.0    5.2 2000.0 1996.0  127.0
   30993655 9000.0 15000.0  150.0  250.0    5.1 2000.0 1996.0  127.0
   30994670 8880.0 14820.0  148.0  247.0    5.1 2000.0 1996.0  127.0
   30995674 8520.0 14700.0  142.0  245.0    5.1 2000.0 1996.0  127.0
   30996695 9660.0 14520.0  161.0  242.0    5.2 2000.0 1996.0  127.0
   30997701 8400.0 13800.0  140.0  230.0    5.1 2000.0 1996.0  127.0
   30998706 9240.0 15480.0  154.0  258.0    5.1 2000.0 1996.0  127.0
   30999717 9180.0 15840.0  153.0  264.0    5.1 2000.0 1996.0  127.0
   31000724 8820.0 14520.0  147.0  242.0    5.1 2000.0 1996.0  127.0
   31001733 10200.0 14820.0  170.0  247.0    5.2 2000.0 1996.0  127.0
   31002743 8400.0 15000.0  140.0  250.0    5.1 2000.0 1996.0  127.0
   31003750 9000.0 15240.0  150.0  254.0    5.1 2000.0 1996.0  127.0
   31004759 9840.0 13680.0  164.0  228.0    5.3 2000.0 1996.0  127.0
   31005766 9600.0 14640.0  160.0  244.0    5.2 2000.0 1996.0  127.0
   31006774 10200.0 15600.0  170.0  260.0    5.2 2000.0 1996.0  127.0
   31007785 8280.0 13920.0  138.0  232.0    5.1 2000.0 1996.0  127.0
   31008796 9600.0 15660.0  160.0  261.0    5.2 2000.0 1996.0  127.0
   31009804 9480.0 13260.0  158.0  221.0    5.3 2000.0 1996.0  127.0
   31010812 8880.0 16260.0  148.0  271.0    5.1 2000.0 1996.0  127.0
   31011820 9600.0 14520.0  160.0  242.0    5.2 2000.0 1996.0  127.0
   31012833 9120.0 14400.0  152.0  240.0    5.2 2000.0 1996.0  127.0
   31013849 8340.0 13680.0  139.0  228.0    5.1 2000.0 1996.0  127.0
   31014873 8700.0 14460.0  145.0  241.0    5.1 2000.0 1996.0  127.0
   31015879 7920.0 15600.0  132.0  260.0    5.0 2000.0 1996.0  127.0
   31016879 8520.0 14280.0  142.0  238.0    5.1 2000.0 1996.0  127.0
   31017893 9660.0 12900.0  161.0  215.0    5.3 2000.0 1996.0  127.0
   31018908 9480.0 13860.0  158.0  231.0    5.2 2000.0 1996.0  127.0
   31019918 7680.0 15000.0  128.0  250.0    5.0 2000.0 1996.0  127.0
   31020911 10920.0 14100.0  182.0  235.0    5.3 2000.0 1996.0  127.0
   31021924 8700.0 14640.0  145.0  244.0    5.1 2000.0 1996.0  127.0
   31022940 9420.0 15000.0  157.0  250.0    5.2 2000.0 1996.0  127.0
   31023948 9660.0 13320.0  161.0  222.0    5.3 2000.0 1996.0  127.0
   31024949 9300.0 15060.0  155.0  251.0    5.2 2000.0 1996.0  127.0
