# 
~VERSION INFORMATION
     VERS.                              2.0:Версия формата LAS
     WRAP.                               NO:Режим одной строчки на временной отчет
~WELL INFORMATION
     STRT.ms                       29740351:Время первой записи в файле
     STOP.ms                       47053724:Время последней записи в файле
     STEP.ms                              0:Шаг времени, 0 - переменный шаг
     NULL.                          -999.25:Метка, нет значения
     DATE.                       28.04.2023:Дата каротажа
      DRV.                                 :Наименование драйвера прибора
     NAME.                          ННКТ(б):Название прибора
     SNUM.                                 :Серийный номер прибора
     FRMW.                                 :Версия прошивки на контроллере прибора
~CURVE INFORMATION
     TIME.ms                       {0,11:0}:Время, количество миллисекунд от начало суток
     NTNC.имп/мин                          :Счёт, ближний зонд ННКТ
     FTNC.у.е.                             :Счёт, дальний зонд ННКТ
     NTNL.имп/мин                          :Счёт нормированный на счёт в воде, ближний зонд ННКТ
     FTNL.у.е.                             :Счёт нормированный на счёт в воде, дальний зонд ННКТ
     TRNP.%                                :Пористость по водородосодержанию ННКТ
     UHVS.В                                :Установленное напряжение на высоковольтнике
     UHVM.В                                :Измеренное напряжение на высоковольтнике
       MT.°C                               :Температура
~OTHER INFORMATION


~A     TIME   NTNC   FTNC   NTNL   FTNL   TRNP   UHVS   UHVM     MT
# ...
   38860525 7980.0 14940.0  133.0  249.0    5.1 2000.0 1996.0   67.0
   38861526 9120.0 14880.0  152.0  248.0    5.2 2000.0 1996.0   67.0
   38862534 8520.0 16320.0  142.0  272.0    5.0 2000.0 1996.0   67.0
   38863551 8640.0 14340.0  144.0  239.0    5.1 2000.0 1996.0   67.0
   38864568 7980.0 13860.0  133.0  231.0    5.1 2000.0 1996.0   67.0
   38865574 7920.0 15360.0  132.0  256.0    5.0 2000.0 1996.0   67.0
   38866577 7920.0 14460.0  132.0  241.0    5.1 2000.0 1996.0   67.0
   38867578 9660.0 14400.0  161.0  240.0    5.2 2000.0 1995.0   67.0
   38868587 7920.0 12660.0  132.0  211.0    5.2 2000.0 1995.0   67.0
   38869583 9480.0 14220.0  158.0  237.0    5.2 2000.0 1996.0   67.0
   38870595 7920.0 15240.0  132.0  254.0    5.0 2000.0 1996.0   67.0
   38871600 8340.0 15480.0  139.0  258.0    5.1 2000.0 1996.0   67.0
   38872606 7920.0 14280.0  132.0  238.0    5.1 2000.0 1996.0   67.0
   38873608 7920.0 14820.0  132.0  247.0    5.1 2000.0 1996.0   67.0
   38874623 7260.0 14100.0  121.0  235.0    5.0 2000.0 1996.0   67.0
   38875637 8460.0 15660.0  141.0  261.0    5.1 2000.0 1995.0   67.0
   38876638 9120.0 15000.0  152.0  250.0    5.1 2000.0 1996.0   67.0
   38877639 8460.0 14400.0  141.0  240.0    5.1 2000.0 1996.0   67.0
   38878652 9300.0 14820.0  155.0  247.0    5.2 2000.0 1996.0   67.0
   38879671 9780.0 14820.0  163.0  247.0    5.2 2000.0 1996.0   67.0
   38880671 9600.0 14400.0  160.0  240.0    5.2 2000.0 1995.0   67.0
   38881678 7260.0 14520.0  121.0  242.0    5.0 2000.0 1996.0   67.0
   38882694 8400.0 15060.0  140.0  251.0    5.1 2000.0 1996.0   67.0
   38883696 7860.0 14760.0  131.0  246.0    5.1 2000.0 1996.0   67.0
   38884719 8400.0 16020.0  140.0  267.0    5.0 2000.0 1996.0   67.0
   38885721 9420.0 14100.0  157.0  235.0    5.2 2000.0 1996.0   67.0
   38886723 7920.0 13800.0  132.0  230.0    5.1 2000.0 1996.0   67.0
   38887733 7980.0 14880.0  133.0  248.0    5.1 2000.0 1996.0   67.0
   38888741 9120.0 14760.0  152.0  246.0    5.2 2000.0 1996.0   67.0
   38889757 8760.0 16080.0  146.0  268.0    5.1 2000.0 1996.0   67.0
   38890770 8760.0 14700.0  146.0  245.0    5.1 2000.0 1996.0   67.0
   38891781 8460.0 15420.0  141.0  257.0    5.1 2000.0 1996.0   67.0
   38892796 8460.0 13740.0  141.0  229.0    5.2 2000.0 1996.0   67.0
   38893810 8760.0 14580.0  146.0  243.0    5.1 2000.0 1996.0   67.0
   38894811 9780.0 14580.0  163.0  243.0    5.2 2000.0 1996.0   67.0
   38895819 8160.0 14760.0  136.0  246.0    5.1 2000.0 1996.0   67.0
   38896821 7920.0 14520.0  132.0  242.0    5.1 2000.0 1996.0   67.0
   38897828 9720.0 14760.0  162.0  246.0    5.2 2000.0 1996.0   67.0
   38898835 7500.0 14820.0  125.0  247.0    5.0 2000.0 1996.0   67.0
   38899843 9660.0 15600.0  161.0  260.0    5.2 2000.0 1996.0   67.0
   38900859 7680.0 12300.0  128.0  205.0    5.2 2000.0 1996.0   67.0
   38901876 8880.0 13560.0  148.0  226.0    5.2 2000.0 1996.0   67.0
   38902888 8400.0 15420.0  140.0  257.0    5.1 2000.0 1996.0   67.0
   38903901 9360.0 15600.0  156.0  260.0    5.1 2000.0 1996.0   67.0
   38904915 8400.0 15000.0  140.0  250.0    5.1 2000.0 1996.0   67.0
   38905934 8700.0 13860.0  145.0  231.0    5.2 2000.0 1996.0   67.0
   38906939 9900.0 14460.0  165.0  241.0    5.2 2000.0 1996.0   67.0
   38907955 8700.0 17340.0  145.0  289.0    5.0 2000.0 1996.0   67.0
   38908959 9780.0 14760.0  163.0  246.0    5.2 2000.0 1996.0   67.0
   38909975 8820.0 13980.0  147.0  233.0    5.2 2000.0 1996.0   67.0
   38910983 7920.0 15000.0  132.0  250.0    5.0 2000.0 1996.0   67.0
   38911993 9240.0 14400.0  154.0  240.0    5.2 2000.0 1996.0   67.0
   38913001 9180.0 14820.0  153.0  247.0    5.2 2000.0 1996.0   67.0
   38914010 7800.0 14220.0  130.0  237.0    5.1 2000.0 1996.0   67.0
   38915025 9840.0 13200.0  164.0  220.0    5.3 2000.0 1996.0   67.0
   38916029 9180.0 14340.0  153.0  239.0    5.2 2000.0 1996.0   67.0
   38917036 10020.0 15720.0  167.0  262.0    5.2 2000.0 1996.0   67.0
   38918052 8340.0 13860.0  139.0  231.0    5.1 2000.0 1996.0   67.0
   38919059 8520.0 15000.0  142.0  250.0    5.1 2000.0 1996.0   67.0
   38920066 8940.0 15900.0  149.0  265.0    5.1 2000.0 1996.0   67.0
   38921076 9360.0 14460.0  156.0  241.0    5.2 2000.0 1996.0   67.0
   38922089 7740.0 15600.0  129.0  260.0    5.0 2000.0 1996.0   67.0
   38923099 7980.0 15240.0  133.0  254.0    5.0 2000.0 1996.0   67.0
   38924115 7320.0 14580.0  122.0  243.0    5.0 2000.0 1996.0   67.0
   38925120 8940.0 16200.0  149.0  270.0    5.1 2000.0 1996.0   67.0
   38926127 7680.0 14580.0  128.0  243.0    5.0 2000.0 1996.0   67.0
   38927134 7980.0 14580.0  133.0  243.0    5.1 2000.0 1996.0   67.0
   38928148 7980.0 13800.0  133.0  230.0    5.1 2000.0 1996.0   67.0
   38929150 9720.0 13500.0  162.0  225.0    5.3 2000.0 1996.0   67.0
   38930159 9360.0 14160.0  156.0  236.0    5.2 2000.0 1996.0   67.0
   38931173 8460.0 15540.0  141.0  259.0    5.1 2000.0 1996.0   67.0
   38932187 9600.0 16080.0  160.0  268.0    5.1 2000.0 1996.0   67.0
   38933192 7980.0 15300.0  133.0  255.0    5.0 2000.0 1996.0   67.0
   38934197 9120.0 14940.0  152.0  249.0    5.1 2000.0 1996.0   67.0
   38935213 7620.0 14940.0  127.0  249.0    5.0 2000.0 1996.0   67.0
   38936221 7920.0 14460.0  132.0  241.0    5.1 2000.0 1996.0   67.0
   38937223 8940.0 13140.0  149.0  219.0    5.2 2000.0 1996.0   67.0
   38938239 8580.0 14520.0  143.0  242.0    5.1 2000.0 1996.0   67.0
   38939255 9000.0 15480.0  150.0  258.0    5.1 2000.0 1996.0   67.0
   38940266 8400.0 16020.0  140.0  267.0    5.0 2000.0 1996.0   67.0
   38941272 10560.0 16260.0  176.0  271.0    5.2 2000.0 1996.0   67.0
   38942288 8100.0 14100.0  135.0  235.0    5.1 2000.0 1996.0   67.0
   38943295 8280.0 13200.0  138.0  220.0    5.2 2000.0 1996.0   67.0
   38944303 7740.0 16740.0  129.0  279.0    5.0 2000.0 1996.0   67.0
   38945306 8940.0 12900.0  149.0  215.0    5.2 2000.0 1996.0   67.0
   38946312 7800.0 16080.0  130.0  268.0    5.0 2000.0 1996.0   67.0
   38947328 9120.0 15180.0  152.0  253.0    5.1 2000.0 1996.0   67.0
   38948343 7800.0 14580.0  130.0  243.0    5.1 2000.0 1996.0   67.0
   38949348 8760.0 13680.0  146.0  228.0    5.2 2000.0 1996.0   67.0
   38950357 8040.0 15720.0  134.0  262.0    5.0 2000.0 1996.0   67.0
   38951359 7500.0 15540.0  125.0  259.0    5.0 2000.0 1996.0   67.0
   38952376 7620.0 13680.0  127.0  228.0    5.1 2000.0 1996.0   67.0
   38953375 8700.0 16320.0  145.0  272.0    5.1 2000.0 1996.0   67.0
   38954391 7980.0 14820.0  133.0  247.0    5.1 2000.0 1996.0   67.0
   38955393 8580.0 14820.0  143.0  247.0    5.1 2000.0 1996.0   67.0
   38956399 7920.0 15900.0  132.0  265.0    5.0 2000.0 1996.0   67.0
   38957400 9060.0 15300.0  151.0  255.0    5.1 2000.0 1996.0   67.0
   38958409 8040.0 14400.0  134.0  240.0    5.1 2000.0 1996.0   67.0
   38959418 8160.0 15720.0  136.0  262.0    5.0 2000.0 1996.0   67.0
   38960424 8040.0 14400.0  134.0  240.0    5.1 2000.0 1996.0   67.0
   38961441 9600.0 15660.0  160.0  261.0    5.2 2000.0 1996.0   67.0
   38962447 8880.0 13440.0  148.0  224.0    5.2 2000.0 1996.0   67.0
   38963464 8220.0 16680.0  137.0  278.0    5.0 2000.0 1996.0   67.0
   38964473 8100.0 14700.0  135.0  245.0    5.1 2000.0 1996.0   67.0
   38965487 9360.0 14640.0  156.0  244.0    5.2 2000.0 1996.0   67.0
   38966492 9000.0 15420.0  150.0  257.0    5.1 2000.0 1996.0   67.0
   38967509 9240.0 16380.0  154.0  273.0    5.1 2000.0 1996.0   67.0
   38968510 8700.0 15120.0  145.0  252.0    5.1 2000.0 1996.0   67.0
   38969518 9420.0 14520.0  157.0  242.0    5.2 2000.0 1996.0   67.0
   38970530 10080.0 14280.0  168.0  238.0    5.3 2000.0 1996.0   67.0
   38971537 8520.0 15420.0  142.0  257.0    5.1 2000.0 1996.0   67.0
   38972541 7740.0 12960.0  129.0  216.0    5.1 2000.0 1996.0   67.0
   38973558 9480.0 15240.0  158.0  254.0    5.2 2000.0 1996.0   67.0
   38974571 7980.0 15540.0  133.0  259.0    5.0 2000.0 1996.0   67.0
   38975582 8220.0 16980.0  137.0  283.0    5.0 2000.0 1996.0   67.0
   38976588 8160.0 14940.0  136.0  249.0    5.1 2000.0 1996.0   67.0
