# 
~VERSION INFORMATION
     VERS.                              2.0:Версия формата LAS
     WRAP.                               NO:Режим одной строчки на временной отчет
~WELL INFORMATION
     STRT.ms                       55825463:Время первой записи в файле
     STOP.ms                      124781941:Время последней записи в файле
     STEP.ms                              0:Шаг времени, 0 - переменный шаг
     NULL.                          -999.25:Метка, нет значения
     DATE.                       09.09.2023:Дата каротажа
      DRV.                                 :Наименование драйвера прибора
     NAME.                             ГГКП:Название прибора
     SNUM.                         23613001:Серийный номер прибора
     FRMW.                         0.23.8.4:Версия прошивки на контроллере прибора
~CURVE INFORMATION
     TIME.ms                       {0,11:0}:Время, количество миллисекунд от начало суток
       MT.°C                               :Температура
      TFG.°                                :Гравитационный поворот
      RSD.имп./сек                         :Счёт, ближний зонд ГГКП
      RLD.имп./сек                         :Счёт, дальний зонд ГГКП
     RHOB.кг/м3                            :Плотность
   HCRHOB.g/cm3                            :Плотность, у.е.
     ADCS.mV                               :Измеренное напряжение порога компараторапо ближнему зонду
     ADCL.mV                               :Измеренное напряжение порога компараторапо дальнему зонду
    THLDS.mV                               :Выставленный порог компараторапо ближнему зонду
    THLDL.mV                               :Выставленный порог компараторапо дальнему зонду
    GRUHV.В                                :Напряжение на высоковольтнике Гамма
~OTHER INFORMATION


~A     TIME     MT    TFG    RSD    RLD   RHOB HCRHOB   ADCS   ADCL  THLDS  THLDL  GRUHV
# ...
   87922921  141.0  120.0 1963.0 1996.0  500.0    0.0    0.0    0.0  300.0  250.0 1400.0
   87926923  141.0  120.0 1906.0 2001.0  500.0    0.0    0.0    0.0  300.0  250.0 1400.0
   87930925  141.0  120.0 1957.0 1996.0  500.0    0.0    0.0    0.0  300.0  250.0 1400.0
   87934926  141.0  120.0 1947.0 1997.0  500.0    0.0    0.0    0.0  300.0  250.0 1400.0
   87938926  141.0  120.0 1865.0 2043.0  500.0    0.0    0.0    0.0  300.0  250.0 1400.0
   87942927  141.0  120.0 1954.0 2005.0  500.0    0.0    0.0    0.0  300.0  250.0 1400.0
   87946932  141.0  120.0 1933.0 2024.0  500.0    0.0    0.0    0.0  300.0  250.0 1400.0
   87950933  141.0  120.0 1924.0 2056.0  500.0    0.0    0.0    0.0  300.0  250.0 1400.0
   87954947  141.0  120.0 1946.0 2016.0  500.0    0.0    0.0    0.0  300.0  250.0 1400.0
   87958953  141.0  120.0 1928.0 2028.0  500.0    0.0    0.0    0.0  300.0  250.0 1400.0
   87962953  141.0  120.0 1960.0 1976.0  500.0    0.0    0.0    0.0  300.0  250.0 1400.0
   87966958  141.0  120.0 1945.0 2016.0  500.0    0.0    0.0    0.0  300.0  250.0 1400.0
   87970960  141.0  120.0 1954.0 2034.0  500.0    0.0    0.0    0.0  300.0  250.0 1400.0
   87974963  141.0  120.0 1962.0 2012.0  500.0    0.0    0.0    0.0  300.0  250.0 1400.0
   87978965  141.0  120.0 1960.0 2030.0  500.0    0.0    0.0    0.0  300.0  250.0 1400.0
   87982985  141.0  120.0 1922.0 2028.0  500.0    0.0    0.0    0.0  300.0  250.0 1400.0
   87986977  141.0  120.0 1963.0 2015.0  500.0    0.0    0.0    0.0  300.0  250.0 1400.0
   87990987  141.0  120.0 1935.0 2069.0  500.0    0.0    0.0    0.0  300.0  250.0 1400.0
   87994988  141.0  120.0 1931.0 2004.0  500.0    0.0    0.0    0.0  300.0  250.0 1400.0
   87998990  141.0  120.0 1956.0 2046.0  500.0    0.0    0.0    0.0  300.0  250.0 1400.0
   88002992  141.0  120.0 1947.0 2015.0  500.0    0.0    0.0    0.0  300.0  250.0 1400.0
   88007004  141.0  120.0 1956.0 2023.0  500.0    0.0    0.0    0.0  300.0  250.0 1400.0
   88011009  141.0  120.0 1966.0 1993.0  500.0    0.0    0.0    0.0  300.0  250.0 1400.0
   88015019  141.0  120.0 1922.0 1982.0  500.0    0.0    0.0    0.0  300.0  250.0 1400.0
   88019027  141.0  120.0 1952.0 1982.0  500.0    0.0    0.0    0.0  300.0  250.0 1400.0
   88023036  141.0  120.0 1971.0 2011.0  500.0    0.0    0.0    0.0  300.0  250.0 1400.0
   88027049  141.0  120.0 1936.0 2013.0  500.0    0.0    0.0    0.0  300.0  250.0 1400.0
   88031053  141.0  120.0 1936.0 2010.0  500.0    0.0    0.0    0.0  300.0  250.0 1400.0
   88035063  141.0  120.0 1941.0 1976.0  500.0    0.0    0.0    0.0  300.0  250.0 1400.0
   88039071  141.0  120.0 1954.0 2008.0  500.0    0.0    0.0    0.0  300.0  250.0 1400.0
   88043086  141.0  120.0 1913.0 2025.0  500.0    0.0    0.0    0.0  300.0  250.0 1400.0
   88047093  141.0  120.0 1953.0 2011.0  500.0    0.0    0.0    0.0  300.0  250.0 1400.0
   88051102  141.0  120.0 1959.0 2010.0  500.0    0.0    0.0    0.0  300.0  250.0 1400.0
   88055106  141.0  120.0 1931.0 2004.0  500.0    0.0    0.0    0.0  300.0  250.0 1400.0
   88059117  141.0  120.0 1929.0 1996.0  500.0    0.0    0.0    0.0  300.0  250.0 1400.0
   88063126  141.0  120.0 1932.0 2016.0  500.0    0.0    0.0    0.0  300.0  250.0 1400.0
   88067126  141.0  120.0 1937.0 2040.0  500.0    0.0    0.0    0.0  300.0  250.0 1400.0
   88071131  141.0  120.0 1959.0 2011.0  500.0    0.0    0.0    0.0  300.0  250.0 1400.0
   88075143  141.0  120.0 1945.0 1987.0  500.0    0.0    0.0    0.0  300.0  250.0 1400.0
   88079147  141.0  120.0 1944.0 2043.0  500.0    0.0    0.0    0.0  300.0  250.0 1400.0
   88083162  141.0  120.0 1952.0 2017.0  500.0    0.0    0.0    0.0  300.0  250.0 1400.0
   88087161  141.0  120.0 1947.0 2040.0  500.0    0.0    0.0    0.0  300.0  250.0 1400.0
   88091171  141.0  120.0 1948.0 2027.0  500.0    0.0    0.0    0.0  300.0  250.0 1400.0
   88095181  141.0  120.0 1932.0 2013.0  500.0    0.0    0.0    0.0  300.0  250.0 1400.0
   88099190  141.0  120.0 1937.0 1971.0  500.0    0.0    0.0    0.0  300.0  250.0 1400.0
   88103203  141.0  120.0 1959.0 2014.0  500.0    0.0    0.0    0.0  300.0  250.0 1400.0
   88107213  141.0  120.0 1955.0 2011.0  500.0    0.0    0.0    0.0  300.0  250.0 1400.0
   88111226  141.0  120.0 1925.0 2057.0  500.0    0.0    0.0    0.0  300.0  250.0 1400.0
   88115226  141.0  120.0 1918.0 2012.0  500.0    0.0    0.0    0.0  300.0  250.0 1400.0
   88119236  141.0  120.0 1976.0 2015.0  500.0    0.0    0.0    0.0  300.0  250.0 1400.0
   88123241  141.0  120.0 1980.0 1997.0  500.0    0.0    0.0    0.0  300.0  250.0 1400.0
   88127244  141.0  120.0 1894.0 2016.0  500.0    0.0    0.0    0.0  300.0  250.0 1400.0
   88131249  141.0  120.0 1952.0 1989.0  500.0    0.0    0.0    0.0  300.0  250.0 1400.0
   88135258  141.0  120.0 1939.0 2009.0  500.0    0.0    0.0    0.0  300.0  250.0 1400.0
   88139268  141.0  120.0 1880.0 2023.0  500.0    0.0    0.0    0.0  300.0  250.0 1400.0
   88143269  141.0  120.0 1970.0 2008.0  500.0    0.0    0.0    0.0  300.0  250.0 1400.0
   88147284  141.0  120.0 1964.0 2020.0  500.0    0.0    0.0    0.0  300.0  250.0 1400.0
   88151298  141.0  120.0 1910.0 2042.0  500.0    0.0    0.0    0.0  300.0  250.0 1400.0
   88155284  141.0  120.0 1956.0 2002.0  500.0    0.0    0.0    0.0  300.0  250.0 1400.0
   88159289  141.0  120.0 1931.0 2018.0  500.0    0.0    0.0    0.0  300.0  250.0 1400.0
   88163304  141.0  120.0 1971.0 1998.0  500.0    0.0    0.0    0.0  300.0  250.0 1400.0
   88167315  141.0  120.0 1950.0 2020.0  500.0    0.0    0.0    0.0  300.0  250.0 1400.0
   88171340  141.0  120.0 1948.0 2037.0  500.0    0.0    0.0    0.0  300.0  250.0 1400.0
   88175341  141.0  120.0 1914.0 2045.0  500.0    0.0    0.0    0.0  300.0  250.0 1400.0
   88179349  141.0  120.0 1943.0 2033.0  500.0    0.0    0.0    0.0  300.0  250.0 1400.0
   88183360  141.0  120.0 1918.0 1996.0  500.0    0.0    0.0    0.0  300.0  250.0 1400.0
   88187369  141.0  120.0 1959.0 2060.0  500.0    0.0    0.0    0.0  300.0  250.0 1400.0
   88191371  141.0  120.0 1907.0 2043.0  500.0    0.0    0.0    0.0  300.0  250.0 1400.0
   88195380  141.0  120.0 1967.0 2039.0  500.0    0.0    0.0    0.0  300.0  250.0 1400.0
   88199385  141.0  120.0 1940.0 2049.0  500.0    0.0    0.0    0.0  300.0  250.0 1400.0
   88203385  141.0  120.0 1957.0 2016.0  500.0    0.0    0.0    0.0  300.0  250.0 1400.0
   88207386  141.0  120.0 1923.0 2008.0  500.0    0.0    0.0    0.0  300.0  250.0 1400.0
   88211399  141.0  120.0 1934.0 2001.0  500.0    0.0    0.0    0.0  300.0  250.0 1400.0
   88215401  141.0  120.0 1940.0 2005.0  500.0    0.0    0.0    0.0  300.0  250.0 1400.0
   88219408  141.0  120.0 1959.0 2039.0  500.0    0.0    0.0    0.0  300.0  250.0 1400.0
   88223418  141.0  120.0 1952.0 1983.0  500.0    0.0    0.0    0.0  300.0  250.0 1400.0
   88227425  141.0  120.0 1950.0 2010.0  500.0    0.0    0.0    0.0  300.0  250.0 1400.0
   88231438  141.0  120.0 1929.0 2042.0  500.0    0.0    0.0    0.0  300.0  250.0 1400.0
   88235444  141.0  120.0 1935.0 2052.0  500.0    0.0    0.0    0.0  300.0  250.0 1400.0
   88239445  141.0  120.0 1958.0 2016.0  500.0    0.0    0.0    0.0  300.0  250.0 1400.0
   88243461  141.0  120.0 1943.0 2063.0  500.0    0.0    0.0    0.0  300.0  250.0 1400.0
   88247472  142.0  120.0 1918.0 2030.0  500.0    0.0    0.0    0.0  300.0  250.0 1400.0
   88251474  141.0  120.0 1908.0 2040.0  500.0    0.0    0.0    0.0  300.0  250.0 1400.0
   88255487  141.0  120.0 1909.0 2011.0  500.0    0.0    0.0    0.0  300.0  250.0 1400.0
   88259500  141.0  120.0 1936.0 2031.0  500.0    0.0    0.0    0.0  300.0  250.0 1400.0
   88263502  141.0  120.0 1927.0 2055.0  500.0    0.0    0.0    0.0  300.0  250.0 1400.0
   88267509  141.0  120.0 1919.0 2012.0  500.0    0.0    0.0    0.0  300.0  250.0 1400.0
   88271524  141.0  120.0 1956.0 2000.0  500.0    0.0    0.0    0.0  300.0  250.0 1400.0
   88275529  141.0  120.0 1923.0 2009.0  500.0    0.0    0.0    0.0  300.0  250.0 1400.0
   88279542  141.0  120.0 1949.0 2039.0  500.0    0.0    0.0    0.0  300.0  250.0 1400.0
