# 
~VERSION INFORMATION
     VERS.                              2.0:Версия формата LAS
     WRAP.                               NO:Режим одной строчки на временной отчет
~WELL INFORMATION
     STRT.ms                       55825463:Время первой записи в файле
     STOP.ms                      124781941:Время последней записи в файле
     STEP.ms                              0:Шаг времени, 0 - переменный шаг
     NULL.                          -999.25:Метка, нет значения
     DATE.                       09.09.2023:Дата каротажа
      DRV.                                 :Наименование драйвера прибора
     NAME.                             ГГКП:Название прибора
     SNUM.                         23613001:Серийный номер прибора
     FRMW.                         0.23.8.4:Версия прошивки на контроллере прибора
~CURVE INFORMATION
     TIME.ms                       {0,11:0}:Время, количество миллисекунд от начало суток
       MT.°C                               :Температура
      TFG.°                                :Гравитационный поворот
      RSD.имп./сек                         :Счёт, ближний зонд ГГКП
      RLD.имп./сек                         :Счёт, дальний зонд ГГКП
     RHOB.кг/м3                            :Плотность
   HCRHOB.g/cm3                            :Плотность, у.е.
     ADCS.mV                               :Измеренное напряжение порога компараторапо ближнему зонду
     ADCL.mV                               :Измеренное напряжение порога компараторапо дальнему зонду
    THLDS.mV                               :Выставленный порог компараторапо ближнему зонду
    THLDL.mV                               :Выставленный порог компараторапо дальнему зонду
    GRUHV.В                                :Напряжение на высоковольтнике Гамма
~OTHER INFORMATION


~A     TIME     MT    TFG    RSD    RLD   RHOB HCRHOB   ADCS   ADCL  THLDS  THLDL  GRUHV
# ...
   60513722   42.0  118.0 1899.0 1980.0  500.0    0.0    0.0    0.0  300.0  250.0 1400.0
   60517733   42.0  118.0 1957.0 2027.0  500.0    0.0    0.0    0.0  300.0  250.0 1400.0
   60521735   42.0  118.0 1963.0 1973.0  500.0    0.0    0.0    0.0  300.0  250.0 1400.0
   60525743   42.0  118.0 1881.0 2001.0  500.0    0.0    0.0    0.0  300.0  250.0 1400.0
   60529750   42.0  118.0 1917.0 2014.0  500.0    0.0    0.0    0.0  300.0  250.0 1400.0
   60533753   42.0  118.0 1961.0 1988.0  500.0    0.0    0.0    0.0  300.0  250.0 1400.0
   60537758   42.0  118.0 1874.0 2013.0  500.0    0.0    0.0    0.0  300.0  250.0 1400.0
   60541758   42.0  118.0 1920.0 1992.0  500.0    0.0    0.0    0.0  300.0  250.0 1400.0
   60545763   42.0  118.0 1954.0 2002.0  500.0    0.0    0.0    0.0  300.0  250.0 1400.0
   60549766   42.0  118.0 1992.0 1998.0  500.0    0.0    0.0    0.0  300.0  250.0 1400.0
   60553766   42.0  118.0 1959.0 2014.0  500.0    0.0    0.0    0.0  300.0  250.0 1400.0
   60557767   42.0  118.0 1966.0 1973.0  500.0    0.0    0.0    0.0  300.0  250.0 1400.0
   60561767   42.0  118.0 1967.0 2014.0  500.0    0.0    0.0    0.0  300.0  250.0 1400.0
   60565773   42.0  118.0 1921.0 2016.0  500.0    0.0    0.0    0.0  300.0  250.0 1400.0
   60569780   42.0  118.0 1940.0 2019.0  500.0    0.0    0.0    0.0  300.0  250.0 1400.0
   60573791   42.0  118.0 1948.0 1974.0  500.0    0.0    0.0    0.0  300.0  250.0 1400.0
   60577792   42.0  118.0 1958.0 2014.0  500.0    0.0    0.0    0.0  300.0  250.0 1400.0
   60581808   42.0  118.0 1980.0 2018.0  500.0    0.0    0.0    0.0  300.0  250.0 1400.0
   60585815   42.0  118.0 1928.0 2011.0  500.0    0.0    0.0    0.0  300.0  250.0 1400.0
   60589818   42.0  118.0 1954.0 1983.0  500.0    0.0    0.0    0.0  300.0  250.0 1400.0
   60593830   42.0  118.0 1952.0 1963.0  500.0    0.0    0.0    0.0  300.0  250.0 1400.0
   60597839   42.0  118.0 1943.0 1988.0  500.0    0.0    0.0    0.0  300.0  250.0 1400.0
   60601854   42.0  118.0 1925.0 2005.0  500.0    0.0    0.0    0.0  300.0  250.0 1400.0
   60605871   42.0  118.0 1919.0 1949.0  500.0    0.0    0.0    0.0  300.0  250.0 1400.0
   60609870   42.0  118.0 1935.0 2018.0  500.0    0.0    0.0    0.0  300.0  250.0 1400.0
   60613878   42.0  118.0 1915.0 1992.0  500.0    0.0    0.0    0.0  300.0  250.0 1400.0
   60617885   42.0  118.0 1917.0 2020.0  500.0    0.0    0.0    0.0  300.0  250.0 1400.0
   60621900   42.0  118.0 1954.0 1997.0  500.0    0.0    0.0    0.0  300.0  250.0 1400.0
   60625921   42.0  118.0 1950.0 1991.0  500.0    0.0    0.0    0.0  300.0  250.0 1400.0
   60629919   42.0  118.0 1923.0 2017.0  500.0    0.0    0.0    0.0  300.0  250.0 1400.0
   60633929   42.0  118.0 1895.0 2033.0  500.0    0.0    0.0    0.0  300.0  250.0 1400.0
   60637944   42.0  118.0 1937.0 2007.0  500.0    0.0    0.0    0.0  300.0  250.0 1400.0
   60641947   42.0  118.0 1964.0 1970.0  500.0    0.0    0.0    0.0  300.0  250.0 1400.0
   60645963   42.0  118.0 1909.0 1989.0  500.0    0.0    0.0    0.0  300.0  250.0 1400.0
   60649978   42.0  118.0 1974.0 2003.0  500.0    0.0    0.0    0.0  300.0  250.0 1400.0
   60653991   42.0  118.0 1930.0 1995.0  500.0    0.0    0.0    0.0  300.0  250.0 1400.0
   60658007   42.0  118.0 1948.0 2019.0  500.0    0.0    0.0    0.0  300.0  250.0 1400.0
   60662002   42.0  118.0 1951.0 1986.0  500.0    0.0    0.0    0.0  300.0  250.0 1400.0
   60666006   42.0  118.0 1942.0 1974.0  500.0    0.0    0.0    0.0  300.0  250.0 1400.0
   60670009   42.0  118.0 1932.0 1973.0  500.0    0.0    0.0    0.0  300.0  250.0 1400.0
   60674019   42.0  118.0 1938.0 2005.0  500.0    0.0    0.0    0.0  300.0  250.0 1400.0
   60678020   42.0  118.0 1929.0 2003.0  500.0    0.0    0.0    0.0  300.0  250.0 1400.0
   60682034   42.0  118.0 1956.0 1999.0  500.0    0.0    0.0    0.0  300.0  250.0 1400.0
   60686039   42.0  118.0 1940.0 2004.0  500.0    0.0    0.0    0.0  300.0  250.0 1400.0
   60690039   42.0  118.0 1967.0 1898.0  500.0    0.0    0.0    0.0  300.0  250.0 1400.0
   60694053   42.0  118.0 1922.0 2016.0  500.0    0.0    0.0    0.0  300.0  250.0 1400.0
   60698053   42.0  118.0 1939.0 1992.0  500.0    0.0    0.0    0.0  300.0  250.0 1400.0
   60702065   42.0  118.0 1942.0 2033.0  500.0    0.0    0.0    0.0  300.0  250.0 1400.0
   60706065   42.0  118.0 1904.0 1984.0  500.0    0.0    0.0    0.0  300.0  250.0 1400.0
   60710069   42.0  118.0 1945.0 2014.0  500.0    0.0    0.0    0.0  300.0  250.0 1400.0
   60714079   42.0  118.0 1918.0 1990.0  500.0    0.0    0.0    0.0  300.0  250.0 1400.0
   60718081   42.0  118.0 1943.0 1981.0  500.0    0.0    0.0    0.0  300.0  250.0 1400.0
   60722088   42.0  118.0 1938.0 1968.0  500.0    0.0    0.0    0.0  300.0  250.0 1400.0
   60726099   42.0  118.0 1933.0 2011.0  500.0    0.0    0.0    0.0  300.0  250.0 1400.0
   60730112   42.0  118.0 1919.0 1993.0  500.0    0.0    0.0    0.0  300.0  250.0 1400.0
   60734129   42.0  118.0 1952.0 2030.0  500.0    0.0    0.0    0.0  300.0  250.0 1400.0
   60738136   42.0  118.0 1915.0 1994.0  500.0    0.0    0.0    0.0  300.0  250.0 1400.0
   60742147   42.0  118.0 1979.0 1987.0  500.0    0.0    0.0    0.0  300.0  250.0 1400.0
   60746151   42.0  118.0 1933.0 2017.0  500.0    0.0    0.0    0.0  300.0  250.0 1400.0
   60750165   42.0  118.0 1910.0 2030.0  500.0    0.0    0.0    0.0  300.0  250.0 1400.0
   60754168   42.0  118.0 1941.0 2005.0  500.0    0.0    0.0    0.0  300.0  250.0 1400.0
   60758177   42.0  118.0 1941.0 2008.0  500.0    0.0    0.0    0.0  300.0  250.0 1400.0
   60762188   42.0  118.0 1970.0 1970.0  500.0    0.0    0.0    0.0  300.0  250.0 1400.0
   60766189   42.0  118.0 1949.0 1946.0  500.0    0.0    0.0    0.0  300.0  250.0 1400.0
   60770197   42.0  118.0 1916.0 2018.0  500.0    0.0    0.0    0.0  300.0  250.0 1400.0
   60774212   42.0  118.0 1917.0 2011.0  500.0    0.0    0.0    0.0  300.0  250.0 1400.0
   60778227   42.0  118.0 1906.0 1984.0  500.0    0.0    0.0    0.0  300.0  250.0 1400.0
   60782228   42.0  118.0 1892.0 1985.0  500.0    0.0    0.0    0.0  300.0  250.0 1400.0
   60786236   42.0  118.0 1947.0 2000.0  500.0    0.0    0.0    0.0  300.0  250.0 1400.0
   60790251   42.0  118.0 1919.0 1977.0  500.0    0.0    0.0    0.0  300.0  250.0 1400.0
   60794266   42.0  118.0 1940.0 1998.0  500.0    0.0    0.0    0.0  300.0  250.0 1400.0
   60798274   42.0  118.0 1979.0 1963.0  500.0    0.0    0.0    0.0  300.0  250.0 1400.0
   60802284   42.0  118.0 1905.0 1989.0  500.0    0.0    0.0    0.0  300.0  250.0 1400.0
   60806297   42.0  118.0 1948.0 1985.0  500.0    0.0    0.0    0.0  300.0  250.0 1400.0
   60810311   42.0  118.0 1944.0 1972.0  500.0    0.0    0.0    0.0  300.0  250.0 1400.0
   60814324   42.0  118.0 1955.0 1962.0  500.0    0.0    0.0    0.0  300.0  250.0 1400.0
   60818324   42.0  118.0 1980.0 2024.0  500.0    0.0    0.0    0.0  300.0  250.0 1400.0
   60822337   42.0  118.0 1945.0 2037.0  500.0    0.0    0.0    0.0  300.0  250.0 1400.0
   60826343   42.0  118.0 1957.0 2019.0  500.0    0.0    0.0    0.0  300.0  250.0 1400.0
   60830350   42.0  118.0 1910.0 1969.0  500.0    0.0    0.0    0.0  300.0  250.0 1400.0
   60834353   42.0  118.0 1885.0 1976.0  500.0    0.0    0.0    0.0  300.0  250.0 1400.0
   60838357   42.0  118.0 1937.0 1995.0  500.0    0.0    0.0    0.0  300.0  250.0 1400.0
   60842359   42.0  118.0 1925.0 1997.0  500.0    0.0    0.0    0.0  300.0  250.0 1400.0
   60846362   42.0  118.0 1910.0 1974.0  500.0    0.0    0.0    0.0  300.0  250.0 1400.0
   60850362   42.0  118.0 1926.0 1970.0  500.0    0.0    0.0    0.0  300.0  250.0 1400.0
   60854362   42.0  118.0 1939.0 1986.0  500.0    0.0    0.0    0.0  300.0  250.0 1400.0
   60858367   42.0  118.0 1963.0 2011.0  500.0    0.0    0.0    0.0  300.0  250.0 1400.0
   60862382   42.0  118.0 1908.0 1992.0  500.0    0.0    0.0    0.0  300.0  250.0 1400.0
   60866391   42.0  118.0 1945.0 1979.0  500.0    0.0    0.0    0.0  300.0  250.0 1400.0
   60870400   42.0  118.0 1931.0 1997.0  500.0    0.0    0.0    0.0  300.0  250.0 1400.0
