# 
~VERSION INFORMATION
     VERS.                              2.0:Версия формата LAS
     WRAP.                               NO:Режим одной строчки на временной отчет
~WELL INFORMATION
     STRT.ms                       55825463:Время первой записи в файле
     STOP.ms                      124781941:Время последней записи в файле
     STEP.ms                              0:Шаг времени, 0 - переменный шаг
     NULL.                          -999.25:Метка, нет значения
     DATE.                       09.09.2023:Дата каротажа
      DRV.                                 :Наименование драйвера прибора
     NAME.                             ГГКП:Название прибора
     SNUM.                         23613001:Серийный номер прибора
     FRMW.                         0.23.8.4:Версия прошивки на контроллере прибора
~CURVE INFORMATION
     TIME.ms                       {0,11:0}:Время, количество миллисекунд от начало суток
       MT.°C                               :Температура
      TFG.°                                :Гравитационный поворот
      RSD.имп./сек                         :Счёт, ближний зонд ГГКП
      RLD.имп./сек                         :Счёт, дальний зонд ГГКП
     RHOB.кг/м3                            :Плотность
   HCRHOB.g/cm3                            :Плотность, у.е.
     ADCS.mV                               :Измеренное напряжение порога компараторапо ближнему зонду
     ADCL.mV                               :Измеренное напряжение порога компараторапо дальнему зонду
    THLDS.mV                               :Выставленный порог компараторапо ближнему зонду
    THLDL.mV                               :Выставленный порог компараторапо дальнему зонду
    GRUHV.В                                :Напряжение на высоковольтнике Гамма
~OTHER INFORMATION


~A     TIME     MT    TFG    RSD    RLD   RHOB HCRHOB   ADCS   ADCL  THLDS  THLDL  GRUHV
# ...
  110642084  150.0  122.0 1955.0 2097.0  500.0    0.0    0.0    0.0  300.0  250.0 1400.0
  110646084  151.0  122.0 1970.0 2094.0  500.0    0.0    0.0    0.0  300.0  250.0 1400.0
  110650096  151.0  122.0 1933.0 2052.0  500.0    0.0    0.0    0.0  300.0  250.0 1400.0
  110654098  151.0  122.0 1957.0 2040.0  500.0    0.0    0.0    0.0  300.0  250.0 1400.0
  110658109  150.0  122.0 1983.0 2085.0  500.0    0.0    0.0    0.0  300.0  250.0 1400.0
  110662112  151.0  122.0 1945.0 2063.0  500.0    0.0    0.0    0.0  300.0  250.0 1400.0
  110666112  151.0  122.0 1981.0 2099.0  500.0    0.0    0.0    0.0  300.0  250.0 1400.0
  110670126  151.0  122.0 1966.0 2059.0  500.0    0.0    0.0    0.0  300.0  250.0 1400.0
  110674141  151.0  122.0 1964.0 2086.0  500.0    0.0    0.0    0.0  300.0  250.0 1400.0
  110678141  151.0  122.0 1945.0 2078.0  500.0    0.0    0.0    0.0  300.0  250.0 1400.0
  110682144  151.0  122.0 1997.0 2065.0  500.0    0.0    0.0    0.0  300.0  250.0 1400.0
  110686151  151.0  122.0 1980.0 2072.0  500.0    0.0    0.0    0.0  300.0  250.0 1400.0
  110690159  151.0  122.0 1996.0 2071.0  500.0    0.0    0.0    0.0  300.0  250.0 1400.0
  110694165  151.0  122.0 1965.0 2086.0  500.0    0.0    0.0    0.0  300.0  250.0 1400.0
  110698166  151.0  122.0 1938.0 2040.0  500.0    0.0    0.0    0.0  300.0  250.0 1400.0
  110702169  151.0  122.0 1948.0 2088.0  500.0    0.0    0.0    0.0  300.0  250.0 1400.0
  110706175  151.0  122.0 1965.0 2117.0  500.0    0.0    0.0    0.0  300.0  250.0 1400.0
  110710190  151.0  122.0 1945.0 2053.0  500.0    0.0    0.0    0.0  300.0  250.0 1400.0
  110714195  151.0  122.0 1995.0 2068.0  500.0    0.0    0.0    0.0  300.0  250.0 1400.0
  110718211  151.0  122.0 2022.0 2090.0  500.0    0.0    0.0    0.0  300.0  250.0 1400.0
  110722214  151.0  122.0 1939.0 2056.0  500.0    0.0    0.0    0.0  300.0  250.0 1400.0
  110726228  151.0  122.0 1947.0 2086.0  500.0    0.0    0.0    0.0  300.0  250.0 1400.0
  110730232  151.0  122.0 1927.0 2057.0  500.0    0.0    0.0    0.0  300.0  250.0 1400.0
  110734242  151.0  122.0 1988.0 2069.0  500.0    0.0    0.0    0.0  300.0  250.0 1400.0
  110738253  151.0  122.0 1970.0 2084.0  500.0    0.0    0.0    0.0  300.0  250.0 1400.0
  110742263  151.0  122.0 1995.0 2104.0  500.0    0.0    0.0    0.0  300.0  250.0 1400.0
  110746268  151.0  122.0 1936.0 2108.0  500.0    0.0    0.0    0.0  300.0  250.0 1400.0
  110750280  151.0  122.0 1976.0 2080.0  500.0    0.0    0.0    0.0  300.0  250.0 1400.0
  110754284  151.0  122.0 1988.0 2058.0  500.0    0.0    0.0    0.0  300.0  250.0 1400.0
  110758292  151.0  122.0 1985.0 2052.0  500.0    0.0    0.0    0.0  300.0  250.0 1400.0
  110762296  151.0  122.0 1981.0 2077.0  500.0    0.0    0.0    0.0  300.0  250.0 1400.0
  110766297  151.0  122.0 1998.0 2065.0  500.0    0.0    0.0    0.0  300.0  250.0 1400.0
  110770309  151.0  122.0 1993.0 2106.0  500.0    0.0    0.0    0.0  300.0  250.0 1400.0
  110774329  151.0  122.0 1992.0 2091.0  500.0    0.0    0.0    0.0  300.0  250.0 1400.0
  110778338  151.0  122.0 1935.0 2049.0  500.0    0.0    0.0    0.0  300.0  250.0 1400.0
  110782347  151.0  122.0 1980.0 2043.0  500.0    0.0    0.0    0.0  300.0  250.0 1400.0
  110786353  151.0  122.0 1953.0 2058.0  500.0    0.0    0.0    0.0  300.0  250.0 1400.0
  110790393  150.0  122.0 1972.0 2106.0  500.0    0.0    0.0    0.0  300.0  250.0 1400.0
  110794369  151.0  122.0 1963.0 2071.0  500.0    0.0    0.0    0.0  300.0  250.0 1400.0
  110798369  151.0  122.0 1957.0 2079.0  500.0    0.0    0.0    0.0  300.0  250.0 1400.0
  110802385  151.0  122.0 1929.0 2073.0  500.0    0.0    0.0    0.0  300.0  250.0 1400.0
  110806398  150.0  122.0 1972.0 2049.0  500.0    0.0    0.0    0.0  300.0  250.0 1400.0
  110810407  151.0  122.0 1985.0 2061.0  500.0    0.0    0.0    0.0  300.0  250.0 1400.0
  110814413  151.0  122.0 1978.0 2018.0  500.0    0.0    0.0    0.0  300.0  250.0 1400.0
  110818416  151.0  122.0 1974.0 2065.0  500.0    0.0    0.0    0.0  300.0  250.0 1400.0
  110822422  151.0  122.0 1990.0 2097.0  500.0    0.0    0.0    0.0  300.0  250.0 1400.0
  110826423  151.0  122.0 1999.0 2088.0  500.0    0.0    0.0    0.0  300.0  250.0 1400.0
  110830431  151.0  122.0 1975.0 2070.0  500.0    0.0    0.0    0.0  300.0  250.0 1400.0
  110834433  151.0  122.0 2005.0 2053.0  500.0    0.0    0.0    0.0  300.0  250.0 1400.0
  110838434  151.0  122.0 2023.0 2073.0  500.0    0.0    0.0    0.0  300.0  250.0 1400.0
  110842437  151.0  122.0 1981.0 2080.0  500.0    0.0    0.0    0.0  300.0  250.0 1400.0
  110846442  151.0  122.0 1957.0 2079.0  500.0    0.0    0.0    0.0  300.0  250.0 1400.0
  110850447  151.0  122.0 1990.0 2050.0  500.0    0.0    0.0    0.0  300.0  250.0 1400.0
  110854453  151.0  122.0 1977.0 2060.0  500.0    0.0    0.0    0.0  300.0  250.0 1400.0
  110858460  151.0  122.0 2006.0 2067.0  500.0    0.0    0.0    0.0  300.0  250.0 1400.0
  110862469  151.0  122.0 1980.0 2073.0  500.0    0.0    0.0    0.0  300.0  250.0 1400.0
  110866483  151.0  122.0 1986.0 2061.0  500.0    0.0    0.0    0.0  300.0  250.0 1400.0
  110870500  151.0  122.0 1968.0 2078.0  500.0    0.0    0.0    0.0  300.0  250.0 1400.0
  110874502  151.0  122.0 1979.0 2074.0  500.0    0.0    0.0    0.0  300.0  250.0 1400.0
  110878505  151.0  122.0 1956.0 2088.0  500.0    0.0    0.0    0.0  300.0  250.0 1400.0
  110882512  150.0  122.0 1978.0 2059.0  500.0    0.0    0.0    0.0  300.0  250.0 1400.0
  110886523  151.0  122.0 1980.0 2124.0  500.0    0.0    0.0    0.0  300.0  250.0 1400.0
  110890523  151.0  122.0 1985.0 2063.0  500.0    0.0    0.0    0.0  300.0  250.0 1400.0
  110894531  151.0  122.0 2007.0 2060.0  500.0    0.0    0.0    0.0  300.0  250.0 1400.0
  110898540  151.0  122.0 1969.0 2046.0  500.0    0.0    0.0    0.0  300.0  250.0 1400.0
  110902551  151.0  122.0 1969.0 2072.0  500.0    0.0    0.0    0.0  300.0  250.0 1400.0
  110906567  151.0  122.0 1957.0 2082.0  500.0    0.0    0.0    0.0  300.0  250.0 1400.0
  110910567  151.0  122.0 1979.0 2042.0  500.0    0.0    0.0    0.0  300.0  250.0 1400.0
  110914581  151.0  122.0 1951.0 2081.0  500.0    0.0    0.0    0.0  300.0  250.0 1400.0
  110918598  151.0  122.0 1944.0 2065.0  500.0    0.0    0.0    0.0  300.0  250.0 1400.0
  110922597  151.0  122.0 1923.0 2058.0  500.0    0.0    0.0    0.0  300.0  250.0 1400.0
  110926609  151.0  122.0 1972.0 2082.0  500.0    0.0    0.0    0.0  300.0  250.0 1400.0
  110930623  151.0  122.0 1980.0 2089.0  500.0    0.0    0.0    0.0  300.0  250.0 1400.0
  110934637  151.0  122.0 1963.0 2059.0  500.0    0.0    0.0    0.0  300.0  250.0 1400.0
  110938637  150.0  122.0 1953.0 2048.0  500.0    0.0    0.0    0.0  300.0  250.0 1400.0
  110942641  151.0  122.0 1965.0 2118.0  500.0    0.0    0.0    0.0  300.0  250.0 1400.0
  110946641  151.0  122.0 1955.0 2048.0  500.0    0.0    0.0    0.0  300.0  250.0 1400.0
  110950642  151.0  122.0 1974.0 2039.0  500.0    0.0    0.0    0.0  300.0  250.0 1400.0
  110954648  151.0  122.0 2010.0 2034.0  500.0    0.0    0.0    0.0  300.0  250.0 1400.0
  110958652  151.0  122.0 1959.0 2072.0  500.0    0.0    0.0    0.0  300.0  250.0 1400.0
  110962654  151.0  122.0 1998.0 2081.0  500.0    0.0    0.0    0.0  300.0  250.0 1400.0
  110966659  151.0  122.0 1965.0 2068.0  500.0    0.0    0.0    0.0  300.0  250.0 1400.0
  110970672  151.0  122.0 1974.0 2091.0  500.0    0.0    0.0    0.0  300.0  250.0 1400.0
  110974681  151.0  122.0 1957.0 2080.0  500.0    0.0    0.0    0.0  300.0  250.0 1400.0
  110978695  151.0  122.0 2000.0 2065.0  500.0    0.0    0.0    0.0  300.0  250.0 1400.0
  110982705  151.0  122.0 1978.0 2062.0  500.0    0.0    0.0    0.0  300.0  250.0 1400.0
  110986712  151.0  122.0 1996.0 2027.0  500.0    0.0    0.0    0.0  300.0  250.0 1400.0
  110990719  151.0  122.0 1969.0 2047.0  500.0    0.0    0.0    0.0  300.0  250.0 1400.0
  110994732  151.0  122.0 2001.0 2063.0  500.0    0.0    0.0    0.0  300.0  250.0 1400.0
  110998737  151.0  122.0 1993.0 2084.0  500.0    0.0    0.0    0.0  300.0  250.0 1400.0
