# 
~VERSION INFORMATION
     VERS.                              2.0:Версия формата LAS
     WRAP.                               NO:Режим одной строчки на временной отчет
~WELL INFORMATION
     STRT.ms                       55825463:Время первой записи в файле
     STOP.ms                      124781941:Время последней записи в файле
     STEP.ms                              0:Шаг времени, 0 - переменный шаг
     NULL.                          -999.25:Метка, нет значения
     DATE.                       09.09.2023:Дата каротажа
      DRV.                                 :Наименование драйвера прибора
     NAME.                             ГГКП:Название прибора
     SNUM.                         23613001:Серийный номер прибора
     FRMW.                         0.23.8.4:Версия прошивки на контроллере прибора
~CURVE INFORMATION
     TIME.ms                       {0,11:0}:Время, количество миллисекунд от начало суток
       MT.°C                               :Температура
      TFG.°                                :Гравитационный поворот
      RSD.имп./сек                         :Счёт, ближний зонд ГГКП
      RLD.имп./сек                         :Счёт, дальний зонд ГГКП
     RHOB.кг/м3                            :Плотность
   HCRHOB.g/cm3                            :Плотность, у.е.
     ADCS.mV                               :Измеренное напряжение порога компараторапо ближнему зонду
     ADCL.mV                               :Измеренное напряжение порога компараторапо дальнему зонду
    THLDS.mV                               :Выставленный порог компараторапо ближнему зонду
    THLDL.mV                               :Выставленный порог компараторапо дальнему зонду
    GRUHV.В                                :Напряжение на высоковольтнике Гамма
~OTHER INFORMATION


~A     TIME     MT    TFG    RSD    RLD   RHOB HCRHOB   ADCS   ADCL  THLDS  THLDL  GRUHV
   55825463   35.0  118.0 1966.0 2007.0  500.0    0.0    0.0    0.0  300.0  250.0 1400.0
   55829454   35.0  118.0 1909.0 1979.0  500.0    0.0    0.0    0.0  300.0  250.0 1400.0
   55833471   35.0  118.0 1953.0 1994.0  500.0    0.0    0.0    0.0  300.0  250.0 1400.0
   55837463   35.0  118.0 1922.0 1986.0  500.0    0.0    0.0    0.0  300.0  250.0 1400.0
   55841467   35.0  118.0 1902.0 1998.0  500.0    0.0    0.0    0.0  300.0  250.0 1400.0
   55845472   35.0  118.0 1936.0 1980.0  500.0    0.0    0.0    0.0  300.0  250.0 1400.0
   55849487   35.0  118.0 1887.0 1987.0  500.0    0.0    0.0    0.0  300.0  250.0 1400.0
   55853503   36.0  118.0 1932.0 2004.0  500.0    0.0    0.0    0.0  300.0  250.0 1400.0
   55857515   36.0  118.0 1917.0 1995.0  500.0    0.0    0.0    0.0  300.0  250.0 1400.0
   55861519   36.0  118.0 1922.0 1964.0  500.0    0.0    0.0    0.0  300.0  250.0 1400.0
   55865549   36.0  118.0 1945.0 1974.0  500.0    0.0    0.0    0.0  300.0  250.0 1400.0
   55869550   36.0  118.0 1937.0 1985.0  500.0    0.0    0.0    0.0  300.0  250.0 1400.0
   55873537   36.0  118.0 1938.0 1983.0  500.0    0.0    0.0    0.0  300.0  250.0 1400.0
   55877557   36.0  118.0 1916.0 2010.0  500.0    0.0    0.0    0.0  300.0  250.0 1400.0
   55881557   36.0  118.0 1892.0 1988.0  500.0    0.0    0.0    0.0  300.0  250.0 1400.0
   55885565   36.0  118.0 1946.0 2015.0  500.0    0.0    0.0    0.0  300.0  250.0 1400.0
   55889567   36.0  118.0 1921.0 1981.0  500.0    0.0    0.0    0.0  300.0  250.0 1400.0
   55893574   36.0  118.0 1945.0 1999.0  500.0    0.0    0.0    0.0  300.0  250.0 1400.0
   55897590   36.0  118.0 1921.0 1986.0  500.0    0.0    0.0    0.0  300.0  250.0 1400.0
   55901594   36.0  118.0 1893.0 2003.0  500.0    0.0    0.0    0.0  300.0  250.0 1400.0
   55905595   36.0  118.0 1928.0 1989.0  500.0    0.0    0.0    0.0  300.0  250.0 1400.0
   55909603   36.0  118.0 1911.0 1956.0  500.0    0.0    0.0    0.0  300.0  250.0 1400.0
   55913621   36.0  118.0 1929.0 2008.0  500.0    0.0    0.0    0.0  300.0  250.0 1400.0
   55917620   36.0  118.0 1928.0 2037.0  500.0    0.0    0.0    0.0  300.0  250.0 1400.0
   55921620   36.0  118.0 1914.0 2009.0  500.0    0.0    0.0    0.0  300.0  250.0 1400.0
   55925631   36.0  118.0 1909.0 2011.0  500.0    0.0    0.0    0.0  300.0  250.0 1400.0
   55929643   36.0  118.0 1932.0 1949.0  500.0    0.0    0.0    0.0  300.0  250.0 1400.0
   55933649   36.0  118.0 1957.0 1993.0  500.0    0.0    0.0    0.0  300.0  250.0 1400.0
   55937667   36.0  118.0 1961.0 1967.0  500.0    0.0    0.0    0.0  300.0  250.0 1400.0
   55941668   36.0  118.0 1887.0 2033.0  500.0    0.0    0.0    0.0  300.0  250.0 1400.0
   55945668   36.0  118.0 1917.0 1999.0  500.0    0.0    0.0    0.0  300.0  250.0 1400.0
   55949670   36.0  118.0 1891.0 1984.0  500.0    0.0    0.0    0.0  300.0  250.0 1400.0
   55953669   36.0  118.0 1924.0 1979.0  500.0    0.0    0.0    0.0  300.0  250.0 1400.0
   55957675   36.0  118.0 1947.0 2004.0  500.0    0.0    0.0    0.0  300.0  250.0 1400.0
   55963271   36.0  118.0 1912.0 1998.0  500.0    0.0    0.0    0.0  300.0  250.0 1400.0
   55965677   36.0  118.0 1968.0 1974.0  500.0    0.0    0.0    0.0  300.0  250.0 1400.0
   55969689   36.0  118.0 1931.0 2030.0  500.0    0.0    0.0    0.0  300.0  250.0 1400.0
   55973689   36.0  118.0 1913.0 1955.0  500.0    0.0    0.0    0.0  300.0  250.0 1400.0
   55977691   36.0  118.0 1917.0 2003.0  500.0    0.0    0.0    0.0  300.0  250.0 1400.0
   55981698   36.0  118.0 1962.0 2001.0  500.0    0.0    0.0    0.0  300.0  250.0 1400.0
   55985699   36.0  118.0 1949.0 2000.0  500.0    0.0    0.0    0.0  300.0  250.0 1400.0
   55989702   36.0  118.0 1910.0 2011.0  500.0    0.0    0.0    0.0  300.0  250.0 1400.0
   55993705   36.0  118.0 1943.0 1995.0  500.0    0.0    0.0    0.0  300.0  250.0 1400.0
   55997719   36.0  118.0 1961.0 2053.0  500.0    0.0    0.0    0.0  300.0  250.0 1400.0
   56001733   36.0  118.0 1907.0 1987.0  500.0    0.0    0.0    0.0  300.0  250.0 1400.0
   56005745   37.0  118.0 1892.0 2046.0  500.0    0.0    0.0    0.0  300.0  250.0 1400.0
   56009751   36.0  118.0 1940.0 2019.0  500.0    0.0    0.0    0.0  300.0  250.0 1400.0
   56013755   37.0  118.0 1958.0 2018.0  500.0    0.0    0.0    0.0  300.0  250.0 1400.0
   56017769   37.0  118.0 1933.0 1970.0  500.0    0.0    0.0    0.0  300.0  250.0 1400.0
   56021799   37.0  118.0 1899.0 2029.0  500.0    0.0    0.0    0.0  300.0  250.0 1400.0
   56025791   37.0  118.0 1926.0 1988.0  500.0    0.0    0.0    0.0  300.0  250.0 1400.0
   56029806   37.0  118.0 1959.0 2017.0  500.0    0.0    0.0    0.0  300.0  250.0 1400.0
   56033814   37.0  118.0 1974.0 2008.0  500.0    0.0    0.0    0.0  300.0  250.0 1400.0
   56037822   37.0  118.0 1932.0 1989.0  500.0    0.0    0.0    0.0  300.0  250.0 1400.0
   56041821   37.0  118.0 1933.0 1985.0  500.0    0.0    0.0    0.0  300.0  250.0 1400.0
   56045835   37.0  118.0 1958.0 1968.0  500.0    0.0    0.0    0.0  300.0  250.0 1400.0
   56049839   37.0  118.0 1918.0 1997.0  500.0    0.0    0.0    0.0  300.0  250.0 1400.0
   56053831   37.0  118.0 1904.0 1955.0  500.0    0.0    0.0    0.0  300.0  250.0 1400.0
   56057829   37.0  118.0 1934.0 1981.0  500.0    0.0    0.0    0.0  300.0  250.0 1400.0
   56061829   37.0  118.0 1914.0 1971.0  500.0    0.0    0.0    0.0  300.0  250.0 1400.0
   56065831   37.0  118.0 1888.0 1987.0  500.0    0.0    0.0    0.0  300.0  250.0 1400.0
   56069873   37.0  118.0 1974.0 1969.0  500.0    0.0    0.0    0.0  300.0  250.0 1400.0
   56073849   37.0  118.0 1931.0 2028.0  500.0    0.0    0.0    0.0  300.0  250.0 1400.0
   56077878   37.0  118.0 1960.0 1994.0  500.0    0.0    0.0    0.0  300.0  250.0 1400.0
   56081895   37.0  118.0 1923.0 1995.0  500.0    0.0    0.0    0.0  300.0  250.0 1400.0
   56085897   37.0  118.0 1934.0 1994.0  500.0    0.0    0.0    0.0  300.0  250.0 1400.0
   56089902   37.0  118.0 1946.0 2009.0  500.0    0.0    0.0    0.0  300.0  250.0 1400.0
   56093902   37.0  118.0 1950.0 1992.0  500.0    0.0    0.0    0.0  300.0  250.0 1400.0
   56097904   37.0  118.0 1908.0 1997.0  500.0    0.0    0.0    0.0  300.0  250.0 1400.0
   56101903   37.0  118.0 1937.0 2018.0  500.0    0.0    0.0    0.0  300.0  250.0 1400.0
   56105899   37.0  118.0 1912.0 2000.0  500.0    0.0    0.0    0.0  300.0  250.0 1400.0
   56109930   37.0  118.0 1958.0 2014.0  500.0    0.0    0.0    0.0  300.0  250.0 1400.0
   56113943   37.0  118.0 1910.0 2007.0  500.0    0.0    0.0    0.0  300.0  250.0 1400.0
   56117957   37.0  118.0 1977.0 2006.0  500.0    0.0    0.0    0.0  300.0  250.0 1400.0
   56121970   37.0  118.0 1922.0 1992.0  500.0    0.0    0.0    0.0  300.0  250.0 1400.0
   56125972   37.0  118.0 1939.0 1994.0  500.0    0.0    0.0    0.0  300.0  250.0 1400.0
   56129980   37.0  118.0 1902.0 1964.0  500.0    0.0    0.0    0.0  300.0  250.0 1400.0
   56133990   37.0  118.0 1883.0 2017.0  500.0    0.0    0.0    0.0  300.0  250.0 1400.0
   56138002   37.0  118.0 1907.0 1987.0  500.0    0.0    0.0    0.0  300.0  250.0 1400.0
   56142008   37.0  118.0 1921.0 1963.0  500.0    0.0    0.0    0.0  300.0  250.0 1400.0
   56146010   37.0  118.0 1894.0 1973.0  500.0    0.0    0.0    0.0  300.0  250.0 1400.0
   56150023   37.0  118.0 1932.0 1969.0  500.0    0.0    0.0    0.0  300.0  250.0 1400.0
   56154034   37.0  118.0 1934.0 2006.0  500.0    0.0    0.0    0.0  300.0  250.0 1400.0
   56158034   37.0  118.0 1915.0 2009.0  500.0    0.0    0.0    0.0  300.0  250.0 1400.0
   56162048   37.0  118.0 1933.0 1996.0  500.0    0.0    0.0    0.0  300.0  250.0 1400.0
   56166061   37.0  118.0 1932.0 1996.0  500.0    0.0    0.0    0.0  300.0  250.0 1400.0
   56170064   37.0  118.0 1907.0 2015.0  500.0    0.0    0.0    0.0  300.0  250.0 1400.0
   56174074   37.0  118.0 1933.0 2024.0  500.0    0.0    0.0    0.0  300.0  250.0 1400.0
   56178061   37.0  118.0 1915.0 1995.0  500.0    0.0    0.0    0.0  300.0  250.0 1400.0
   56182062   37.0  118.0 1917.0 1974.0  500.0    0.0    0.0    0.0  300.0  250.0 1400.0
