# 
~VERSION INFORMATION
     VERS.                              2.0:Версия формата LAS
     WRAP.                               NO:Режим одной строчки на временной отчет
~WELL INFORMATION
     STRT.ms                       55825463:Время первой записи в файле
     STOP.ms                      124781941:Время последней записи в файле
     STEP.ms                              0:Шаг времени, 0 - переменный шаг
     NULL.                          -999.25:Метка, нет значения
     DATE.                       09.09.2023:Дата каротажа
      DRV.                                 :Наименование драйвера прибора
     NAME.                             ГГКП:Название прибора
     SNUM.                         23613001:Серийный номер прибора
     FRMW.                         0.23.8.4:Версия прошивки на контроллере прибора
~CURVE INFORMATION
     TIME.ms                       {0,11:0}:Время, количество миллисекунд от начало суток
       MT.°C                               :Температура
      TFG.°                                :Гравитационный поворот
      RSD.имп./сек                         :Счёт, ближний зонд ГГКП
      RLD.имп./сек                         :Счёт, дальний зонд ГГКП
     RHOB.кг/м3                            :Плотность
   HCRHOB.g/cm3                            :Плотность, у.е.
     ADCS.mV                               :Измеренное напряжение порога компараторапо ближнему зонду
     ADCL.mV                               :Измеренное напряжение порога компараторапо дальнему зонду
    THLDS.mV                               :Выставленный порог компараторапо ближнему зонду
    THLDL.mV                               :Выставленный порог компараторапо дальнему зонду
    GRUHV.В                                :Напряжение на высоковольтнике Гамма
~OTHER INFORMATION


~A     TIME     MT    TFG    RSD    RLD   RHOB HCRHOB   ADCS   ADCL  THLDS  THLDL  GRUHV
# ...
   83234535  131.0  118.0 1924.0 2038.0  500.0    0.0    0.0    0.0  300.0  250.0 1400.0
   83238546  132.0  118.0 1908.0 1981.0  500.0    0.0    0.0    0.0  300.0  250.0 1400.0
   83242555  132.0  118.0 1877.0 1966.0  500.0    0.0    0.0    0.0  300.0  250.0 1400.0
   83246567  132.0  118.0 1938.0 1992.0  500.0    0.0    0.0    0.0  300.0  250.0 1400.0
   83250582  132.0  118.0 1935.0 1989.0  500.0    0.0    0.0    0.0  300.0  250.0 1400.0
   83254580  131.0  118.0 1911.0 1977.0  500.0    0.0    0.0    0.0  300.0  250.0 1400.0
   83258585  131.0  118.0 1888.0 2019.0  500.0    0.0    0.0    0.0  300.0  250.0 1400.0
   83262598  131.0  118.0 1922.0 1988.0  500.0    0.0    0.0    0.0  300.0  250.0 1400.0
   83266620  132.0  118.0 1900.0 2000.0  500.0    0.0    0.0    0.0  300.0  250.0 1400.0
   83270612  132.0  118.0 1917.0 2024.0  500.0    0.0    0.0    0.0  300.0  250.0 1400.0
   83274627  132.0  118.0 1897.0 2013.0  500.0    0.0    0.0    0.0  300.0  250.0 1400.0
   83278642  132.0  118.0 1920.0 1990.0  500.0    0.0    0.0    0.0  300.0  250.0 1400.0
   83282645  132.0  118.0 1904.0 1979.0  500.0    0.0    0.0    0.0  300.0  250.0 1400.0
   83286659  131.0  118.0 1901.0 2012.0  500.0    0.0    0.0    0.0  300.0  250.0 1400.0
   83290672  132.0  118.0 1896.0 2005.0  500.0    0.0    0.0    0.0  300.0  250.0 1400.0
   83294687  132.0  118.0 1895.0 1970.0  500.0    0.0    0.0    0.0  300.0  250.0 1400.0
   83298692  132.0  118.0 1898.0 1962.0  500.0    0.0    0.0    0.0  300.0  250.0 1400.0
   83302703  131.0  118.0 1917.0 1966.0  500.0    0.0    0.0    0.0  300.0  250.0 1400.0
   83306722  132.0  118.0 1939.0 1980.0  500.0    0.0    0.0    0.0  300.0  250.0 1400.0
   83310708  132.0  118.0 1902.0 1979.0  500.0    0.0    0.0    0.0  300.0  250.0 1400.0
   83314710  132.0  118.0 1904.0 1983.0  500.0    0.0    0.0    0.0  300.0  250.0 1400.0
   83318718  132.0  118.0 1917.0 1988.0  500.0    0.0    0.0    0.0  300.0  250.0 1400.0
   83322720  132.0  118.0 1955.0 1995.0  500.0    0.0    0.0    0.0  300.0  250.0 1400.0
   83326730  132.0  118.0 1925.0 1993.0  500.0    0.0    0.0    0.0  300.0  250.0 1400.0
   83330743  132.0  118.0 1887.0 1970.0  500.0    0.0    0.0    0.0  300.0  250.0 1400.0
   83334753  132.0  118.0 1930.0 1976.0  500.0    0.0    0.0    0.0  300.0  250.0 1400.0
   83338764  132.0  118.0 1911.0 1969.0  500.0    0.0    0.0    0.0  300.0  250.0 1400.0
   83342776  132.0  118.0 1920.0 1993.0  500.0    0.0    0.0    0.0  300.0  250.0 1400.0
   83346785  132.0  118.0 1898.0 2006.0  500.0    0.0    0.0    0.0  300.0  250.0 1400.0
   83350785  132.0  118.0 1935.0 1976.0  500.0    0.0    0.0    0.0  300.0  250.0 1400.0
   83354800  132.0  118.0 1912.0 2011.0  500.0    0.0    0.0    0.0  300.0  250.0 1400.0
   83358806  132.0  118.0 1891.0 2001.0  500.0    0.0    0.0    0.0  300.0  250.0 1400.0
   83362815  132.0  118.0 1931.0 1948.0  500.0    0.0    0.0    0.0  300.0  250.0 1400.0
   83366831  132.0  118.0 1938.0 2011.0  500.0    0.0    0.0    0.0  300.0  250.0 1400.0
   83370847  132.0  118.0 1893.0 2032.0  500.0    0.0    0.0    0.0  300.0  250.0 1400.0
   83374853  132.0  118.0 1935.0 1973.0  500.0    0.0    0.0    0.0  300.0  250.0 1400.0
   83378867  132.0  118.0 1921.0 1956.0  500.0    0.0    0.0    0.0  300.0  250.0 1400.0
   83382868  131.0  118.0 1909.0 1985.0  500.0    0.0    0.0    0.0  300.0  250.0 1400.0
   83386882  132.0  118.0 1887.0 2015.0  500.0    0.0    0.0    0.0  300.0  250.0 1400.0
   83390889  132.0  118.0 1945.0 2002.0  500.0    0.0    0.0    0.0  300.0  250.0 1400.0
   83394889  132.0  118.0 1919.0 1972.0  500.0    0.0    0.0    0.0  300.0  250.0 1400.0
   83398889  132.0  118.0 1914.0 1987.0  500.0    0.0    0.0    0.0  300.0  250.0 1400.0
   83402903  132.0  118.0 1912.0 1997.0  500.0    0.0    0.0    0.0  300.0  250.0 1400.0
   83406903  132.0  118.0 1880.0 1994.0  500.0    0.0    0.0    0.0  300.0  250.0 1400.0
   83410911  132.0  118.0 1909.0 1975.0  500.0    0.0    0.0    0.0  300.0  250.0 1400.0
   83414912  132.0  118.0 1930.0 1985.0  500.0    0.0    0.0    0.0  300.0  250.0 1400.0
   83418917  132.0  118.0 1899.0 2027.0  500.0    0.0    0.0    0.0  300.0  250.0 1400.0
   83422922  132.0  118.0 1895.0 2022.0  500.0    0.0    0.0    0.0  300.0  250.0 1400.0
   83426931  132.0  118.0 1931.0 1970.0  500.0    0.0    0.0    0.0  300.0  250.0 1400.0
   83430931  132.0  118.0 1913.0 1994.0  500.0    0.0    0.0    0.0  300.0  250.0 1400.0
   83434934  132.0  118.0 1912.0 1961.0  500.0    0.0    0.0    0.0  300.0  250.0 1400.0
   83438949  132.0  118.0 1904.0 2035.0  500.0    0.0    0.0    0.0  300.0  250.0 1400.0
   83442962  132.0  118.0 1970.0 1990.0  500.0    0.0    0.0    0.0  300.0  250.0 1400.0
   83446972  132.0  118.0 1873.0 2050.0  500.0    0.0    0.0    0.0  300.0  250.0 1400.0
   83450985  132.0  118.0 1905.0 2005.0  500.0    0.0    0.0    0.0  300.0  250.0 1400.0
   83454997  132.0  118.0 1914.0 1999.0  500.0    0.0    0.0    0.0  300.0  250.0 1400.0
   83459005  132.0  118.0 1893.0 2009.0  500.0    0.0    0.0    0.0  300.0  250.0 1400.0
   83463015  132.0  118.0 1923.0 1980.0  500.0    0.0    0.0    0.0  300.0  250.0 1400.0
   83467025  132.0  118.0 1892.0 1989.0  500.0    0.0    0.0    0.0  300.0  250.0 1400.0
   83471021  132.0  118.0 1890.0 1996.0  500.0    0.0    0.0    0.0  300.0  250.0 1400.0
   83475023  132.0  118.0 1887.0 2004.0  500.0    0.0    0.0    0.0  300.0  250.0 1400.0
   83479037  132.0  118.0 1941.0 2017.0  500.0    0.0    0.0    0.0  300.0  250.0 1400.0
   83483049  132.0  118.0 1915.0 1983.0  500.0    0.0    0.0    0.0  300.0  250.0 1400.0
   83487056  132.0  118.0 1903.0 2005.0  500.0    0.0    0.0    0.0  300.0  250.0 1400.0
   83491057  132.0  118.0 1957.0 2009.0  500.0    0.0    0.0    0.0  300.0  250.0 1400.0
   83495072  132.0  118.0 1936.0 1985.0  500.0    0.0    0.0    0.0  300.0  250.0 1400.0
   83499081  132.0  118.0 1892.0 1977.0  500.0    0.0    0.0    0.0  300.0  250.0 1400.0
   83503096  132.0  118.0 1886.0 1973.0  500.0    0.0    0.0    0.0  300.0  250.0 1400.0
   83507103  132.0  118.0 1893.0 2023.0  500.0    0.0    0.0    0.0  300.0  250.0 1400.0
   83511105  132.0  118.0 1950.0 1983.0  500.0    0.0    0.0    0.0  300.0  250.0 1400.0
   83515112  133.0  118.0 1930.0 1979.0  500.0    0.0    0.0    0.0  300.0  250.0 1400.0
   83519113  132.0  118.0 1916.0 1978.0  500.0    0.0    0.0    0.0  300.0  250.0 1400.0
   83523115  132.0  118.0 1922.0 1984.0  500.0    0.0    0.0    0.0  300.0  250.0 1400.0
   83527118  132.0  118.0 1963.0 1977.0  500.0    0.0    0.0    0.0  300.0  250.0 1400.0
   83531135  132.0  118.0 1919.0 1950.0  500.0    0.0    0.0    0.0  300.0  250.0 1400.0
   83535135  132.0  118.0 1925.0 2001.0  500.0    0.0    0.0    0.0  300.0  250.0 1400.0
   83539159  132.0  118.0 1925.0 2017.0  500.0    0.0    0.0    0.0  300.0  250.0 1400.0
   83543169  132.0  118.0 1915.0 2007.0  500.0    0.0    0.0    0.0  300.0  250.0 1400.0
   83547165  132.0  118.0 1939.0 1997.0  500.0    0.0    0.0    0.0  300.0  250.0 1400.0
   83551166  132.0  118.0 1903.0 1998.0  500.0    0.0    0.0    0.0  300.0  250.0 1400.0
   83555166  132.0  118.0 1929.0 1952.0  500.0    0.0    0.0    0.0  300.0  250.0 1400.0
   83559174  132.0  118.0 1922.0 1983.0  500.0    0.0    0.0    0.0  300.0  250.0 1400.0
   83563183  132.0  118.0 1887.0 1965.0  500.0    0.0    0.0    0.0  300.0  250.0 1400.0
   83567196  132.0  118.0 1906.0 1981.0  500.0    0.0    0.0    0.0  300.0  250.0 1400.0
   83571208  133.0  118.0 1932.0 1998.0  500.0    0.0    0.0    0.0  300.0  250.0 1400.0
   83575210  132.0  118.0 1926.0 1985.0  500.0    0.0    0.0    0.0  300.0  250.0 1400.0
   83579221  133.0  118.0 1922.0 1981.0  500.0    0.0    0.0    0.0  300.0  250.0 1400.0
   83583227  132.0  118.0 1930.0 2006.0  500.0    0.0    0.0    0.0  300.0  250.0 1400.0
   83587237  132.0  118.0 1928.0 1984.0  500.0    0.0    0.0    0.0  300.0  250.0 1400.0
   83591240  132.0  118.0 1887.0 2005.0  500.0    0.0    0.0    0.0  300.0  250.0 1400.0
