# 
~VERSION INFORMATION
     VERS.                              2.0:Версия формата LAS
     WRAP.                               NO:Режим одной строчки на временной отчет
~WELL INFORMATION
     STRT.ms                       55825463:Время первой записи в файле
     STOP.ms                      124781941:Время последней записи в файле
     STEP.ms                              0:Шаг времени, 0 - переменный шаг
     NULL.                          -999.25:Метка, нет значения
     DATE.                       09.09.2023:Дата каротажа
      DRV.                                 :Наименование драйвера прибора
     NAME.                             ГГКП:Название прибора
     SNUM.                         23613001:Серийный номер прибора
     FRMW.                         0.23.8.4:Версия прошивки на контроллере прибора
~CURVE INFORMATION
     TIME.ms                       {0,11:0}:Время, количество миллисекунд от начало суток
       MT.°C                               :Температура
      TFG.°                                :Гравитационный поворот
      RSD.имп./сек                         :Счёт, ближний зонд ГГКП
      RLD.имп./сек                         :Счёт, дальний зонд ГГКП
     RHOB.кг/м3                            :Плотность
   HCRHOB.g/cm3                            :Плотность, у.е.
     ADCS.mV                               :Измеренное напряжение порога компараторапо ближнему зонду
     ADCL.mV                               :Измеренное напряжение порога компараторапо дальнему зонду
    THLDS.mV                               :Выставленный порог компараторапо ближнему зонду
    THLDL.mV                               :Выставленный порог компараторапо дальнему зонду
    GRUHV.В                                :Напряжение на высоковольтнике Гамма
~OTHER INFORMATION


~A     TIME     MT    TFG    RSD    RLD   RHOB HCRHOB   ADCS   ADCL  THLDS  THLDL  GRUHV
# ...
  124345180  151.0  122.0 1961.0 2063.0  500.0    0.0    0.0    0.0  300.0  250.0 1400.0
  124349187  151.0  122.0 1990.0 2047.0  500.0    0.0    0.0    0.0  300.0  250.0 1400.0
  124353198  151.0  122.0 1969.0 2064.0  500.0    0.0    0.0    0.0  300.0  250.0 1400.0
  124357206  151.0  122.0 1938.0 2022.0  500.0    0.0    0.0    0.0  300.0  250.0 1400.0
  124361219  151.0  122.0 1957.0 2107.0  500.0    0.0    0.0    0.0  300.0  250.0 1400.0
  124365228  151.0  122.0 1919.0 2055.0  500.0    0.0    0.0    0.0  300.0  250.0 1400.0
  124369219  151.0  122.0 1975.0 2053.0  500.0    0.0    0.0    0.0  300.0  250.0 1400.0
  124373249  151.0  122.0 1947.0 2070.0  500.0    0.0    0.0    0.0  300.0  250.0 1400.0
  124377249  151.0  122.0 1941.0 2070.0  500.0    0.0    0.0    0.0  300.0  250.0 1400.0
  124381257  151.0  122.0 1987.0 2085.0  500.0    0.0    0.0    0.0  300.0  250.0 1400.0
  124385269  151.0  122.0 1959.0 2024.0  500.0    0.0    0.0    0.0  300.0  250.0 1400.0
  124389284  151.0  122.0 1985.0 2063.0  500.0    0.0    0.0    0.0  300.0  250.0 1400.0
  124393285  151.0  122.0 1982.0 2033.0  500.0    0.0    0.0    0.0  300.0  250.0 1400.0
  124397287  151.0  122.0 1956.0 2060.0  500.0    0.0    0.0    0.0  300.0  250.0 1400.0
  124401287  151.0  122.0 1969.0 2076.0  500.0    0.0    0.0    0.0  300.0  250.0 1400.0
  124405296  151.0  122.0 1951.0 2089.0  500.0    0.0    0.0    0.0  300.0  250.0 1400.0
  124409305  151.0  122.0 1965.0 2061.0  500.0    0.0    0.0    0.0  300.0  250.0 1400.0
  124413311  151.0  122.0 1955.0 2068.0  500.0    0.0    0.0    0.0  300.0  250.0 1400.0
  124417312  151.0  122.0 1942.0 2057.0  500.0    0.0    0.0    0.0  300.0  250.0 1400.0
  124421323  151.0  122.0 1962.0 2056.0  500.0    0.0    0.0    0.0  300.0  250.0 1400.0
  124425325  151.0  122.0 1941.0 2067.0  500.0    0.0    0.0    0.0  300.0  250.0 1400.0
  124429328  151.0  122.0 1963.0 2076.0  500.0    0.0    0.0    0.0  300.0  250.0 1400.0
  124433338  151.0  122.0 1966.0 2079.0  500.0    0.0    0.0    0.0  300.0  250.0 1400.0
  124437351  151.0  122.0 1971.0 2053.0  500.0    0.0    0.0    0.0  300.0  250.0 1400.0
  124441359  151.0  122.0 1971.0 2090.0  500.0    0.0    0.0    0.0  300.0  250.0 1400.0
  124445370  151.0  122.0 1959.0 2068.0  500.0    0.0    0.0    0.0  300.0  250.0 1400.0
  124449374  151.0  122.0 1922.0 2105.0  500.0    0.0    0.0    0.0  300.0  250.0 1400.0
  124453366  151.0  122.0 1925.0 2050.0  500.0    0.0    0.0    0.0  300.0  250.0 1400.0
  124457383  151.0  122.0 1962.0 2119.0  500.0    0.0    0.0    0.0  300.0  250.0 1400.0
  124461399  151.0  122.0 1936.0 2123.0  500.0    0.0    0.0    0.0  300.0  250.0 1400.0
  124465401  151.0  122.0 1968.0 2059.0  500.0    0.0    0.0    0.0  300.0  250.0 1400.0
  124469400  151.0  122.0 1963.0 2061.0  500.0    0.0    0.0    0.0  300.0  250.0 1400.0
  124473402  151.0  122.0 1977.0 2088.0  500.0    0.0    0.0    0.0  300.0  250.0 1400.0
  124477406  151.0  122.0 1988.0 2098.0  500.0    0.0    0.0    0.0  300.0  250.0 1400.0
  124481420  151.0  122.0 1973.0 2043.0  500.0    0.0    0.0    0.0  300.0  250.0 1400.0
  124485436  151.0  122.0 1939.0 2060.0  500.0    0.0    0.0    0.0  300.0  250.0 1400.0
  124489446  151.0  122.0 1976.0 2055.0  500.0    0.0    0.0    0.0  300.0  250.0 1400.0
  124493446  151.0  122.0 1978.0 2062.0  500.0    0.0    0.0    0.0  300.0  250.0 1400.0
  124497454  151.0  122.0 1968.0 2053.0  500.0    0.0    0.0    0.0  300.0  250.0 1400.0
  124501457  151.0  122.0 1964.0 2063.0  500.0    0.0    0.0    0.0  300.0  250.0 1400.0
  124505457  151.0  122.0 1971.0 2077.0  500.0    0.0    0.0    0.0  300.0  250.0 1400.0
  124509462  151.0  122.0 1962.0 2044.0  500.0    0.0    0.0    0.0  300.0  250.0 1400.0
  124513475  151.0  122.0 1930.0 2026.0  500.0    0.0    0.0    0.0  300.0  250.0 1400.0
  124517487  151.0  122.0 1944.0 2076.0  500.0    0.0    0.0    0.0  300.0  250.0 1400.0
  124521502  151.0  122.0 1915.0 2074.0  500.0    0.0    0.0    0.0  300.0  250.0 1400.0
  124525514  151.0  122.0 1927.0 2103.0  500.0    0.0    0.0    0.0  300.0  250.0 1400.0
  124529518  151.0  122.0 1992.0 2049.0  500.0    0.0    0.0    0.0  300.0  250.0 1400.0
  124533517  151.0  122.0 1969.0 2065.0  500.0    0.0    0.0    0.0  300.0  250.0 1400.0
  124537526  151.0  122.0 1971.0 2067.0  500.0    0.0    0.0    0.0  300.0  250.0 1400.0
  124541551  151.0  122.0 1968.0 2081.0  500.0    0.0    0.0    0.0  300.0  250.0 1400.0
  124545547  151.0  122.0 1965.0 2061.0  500.0    0.0    0.0    0.0  300.0  250.0 1400.0
  124549556  151.0  122.0 1964.0 2096.0  500.0    0.0    0.0    0.0  300.0  250.0 1400.0
  124553567  151.0  122.0 1968.0 2057.0  500.0    0.0    0.0    0.0  300.0  250.0 1400.0
  124557581  151.0  122.0 1952.0 2096.0  500.0    0.0    0.0    0.0  300.0  250.0 1400.0
  124561585  151.0  122.0 1955.0 2070.0  500.0    0.0    0.0    0.0  300.0  250.0 1400.0
  124565596  151.0  122.0 1985.0 2061.0  500.0    0.0    0.0    0.0  300.0  250.0 1400.0
  124569596  151.0  122.0 1963.0 2060.0  500.0    0.0    0.0    0.0  300.0  250.0 1400.0
  124573600  151.0  122.0 1953.0 2068.0  500.0    0.0    0.0    0.0  300.0  250.0 1400.0
  124577613  151.0  122.0 1964.0 2039.0  500.0    0.0    0.0    0.0  300.0  250.0 1400.0
  124581624  151.0  122.0 1971.0 2073.0  500.0    0.0    0.0    0.0  300.0  250.0 1400.0
  124585636  151.0  122.0 1957.0 2089.0  500.0    0.0    0.0    0.0  300.0  250.0 1400.0
  124589642  151.0  122.0 1935.0 2065.0  500.0    0.0    0.0    0.0  300.0  250.0 1400.0
  124593649  151.0  122.0 1972.0 2077.0  500.0    0.0    0.0    0.0  300.0  250.0 1400.0
  124597656  151.0  122.0 1934.0 2071.0  500.0    0.0    0.0    0.0  300.0  250.0 1400.0
  124601664  151.0  122.0 1985.0 2060.0  500.0    0.0    0.0    0.0  300.0  250.0 1400.0
  124605668  151.0  122.0 1955.0 2051.0  500.0    0.0    0.0    0.0  300.0  250.0 1400.0
  124609669  151.0  122.0 1968.0 2070.0  500.0    0.0    0.0    0.0  300.0  250.0 1400.0
  124613676  151.0  122.0 1988.0 2051.0  500.0    0.0    0.0    0.0  300.0  250.0 1400.0
  124617677  151.0  122.0 1979.0 2071.0  500.0    0.0    0.0    0.0  300.0  250.0 1400.0
  124621693  151.0  122.0 1968.0 2041.0  500.0    0.0    0.0    0.0  300.0  250.0 1400.0
  124625697  151.0  122.0 1963.0 2044.0  500.0    0.0    0.0    0.0  300.0  250.0 1400.0
  124629699  151.0  122.0 1933.0 2081.0  500.0    0.0    0.0    0.0  300.0  250.0 1400.0
  124633705  151.0  122.0 2007.0 2092.0  500.0    0.0    0.0    0.0  300.0  250.0 1400.0
  124637710  151.0  122.0 1936.0 2051.0  500.0    0.0    0.0    0.0  300.0  250.0 1400.0
  124641712  151.0  122.0 1990.0 2058.0  500.0    0.0    0.0    0.0  300.0  250.0 1400.0
  124645725  151.0  122.0 1959.0 2078.0  500.0    0.0    0.0    0.0  300.0  250.0 1400.0
  124649737  151.0  122.0 1934.0 2063.0  500.0    0.0    0.0    0.0  300.0  250.0 1400.0
  124653740  151.0  122.0 1968.0 2094.0  500.0    0.0    0.0    0.0  300.0  250.0 1400.0
  124657748  151.0  122.0 1932.0 2050.0  500.0    0.0    0.0    0.0  300.0  250.0 1400.0
  124661751  151.0  122.0 1940.0 2065.0  500.0    0.0    0.0    0.0  300.0  250.0 1400.0
  124665762  151.0  122.0 1948.0 2074.0  500.0    0.0    0.0    0.0  300.0  250.0 1400.0
  124669768  151.0  122.0 1961.0 2076.0  500.0    0.0    0.0    0.0  300.0  250.0 1400.0
  124673768  151.0  122.0 1936.0 2056.0  500.0    0.0    0.0    0.0  300.0  250.0 1400.0
  124677775  151.0  122.0 1956.0 2048.0  500.0    0.0    0.0    0.0  300.0  250.0 1400.0
  124681778  151.0  122.0 1978.0 2078.0  500.0    0.0    0.0    0.0  300.0  250.0 1400.0
  124685782  151.0  122.0 1972.0 2098.0  500.0    0.0    0.0    0.0  300.0  250.0 1400.0
  124689786  151.0  122.0 1946.0 2059.0  500.0    0.0    0.0    0.0  300.0  250.0 1400.0
  124693805  151.0  122.0 1950.0 2084.0  500.0    0.0    0.0    0.0  300.0  250.0 1400.0
  124697804  151.0  122.0 1924.0 2090.0  500.0    0.0    0.0    0.0  300.0  250.0 1400.0
  124701813  151.0  122.0 1945.0 2095.0  500.0    0.0    0.0    0.0  300.0  250.0 1400.0
