# 
~VERSION INFORMATION
     VERS.                              2.0:Версия формата LAS
     WRAP.                               NO:Режим одной строчки на временной отчет
~WELL INFORMATION
     STRT.ms                       55825463:Время первой записи в файле
     STOP.ms                      124781941:Время последней записи в файле
     STEP.ms                              0:Шаг времени, 0 - переменный шаг
     NULL.                          -999.25:Метка, нет значения
     DATE.                       09.09.2023:Дата каротажа
      DRV.                                 :Наименование драйвера прибора
     NAME.                             ГГКП:Название прибора
     SNUM.                         23613001:Серийный номер прибора
     FRMW.                         0.23.8.4:Версия прошивки на контроллере прибора
~CURVE INFORMATION
     TIME.ms                       {0,11:0}:Время, количество миллисекунд от начало суток
       MT.°C                               :Температура
      TFG.°                                :Гравитационный поворот
      RSD.имп./сек                         :Счёт, ближний зонд ГГКП
      RLD.имп./сек                         :Счёт, дальний зонд ГГКП
     RHOB.кг/м3                            :Плотность
   HCRHOB.g/cm3                            :Плотность, у.е.
     ADCS.mV                               :Измеренное напряжение порога компараторапо ближнему зонду
     ADCL.mV                               :Измеренное напряжение порога компараторапо дальнему зонду
    THLDS.mV                               :Выставленный порог компараторапо ближнему зонду
    THLDL.mV                               :Выставленный порог компараторапо дальнему зонду
    GRUHV.В                                :Напряжение на высоковольтнике Гамма
~OTHER INFORMATION


~A     TIME     MT    TFG    RSD    RLD   RHOB HCRHOB   ADCS   ADCL  THLDS  THLDL  GRUHV
# ...
   74218123   83.0  116.0 1991.0 1960.0  500.0    0.0    0.0    0.0  300.0  250.0 1400.0
   74222134   83.0  116.0 1999.0 2014.0  500.0    0.0    0.0    0.0  300.0  250.0 1400.0
   74226141   83.0  116.0 1890.0 2024.0  500.0    0.0    0.0    0.0  300.0  250.0 1400.0
   74230156   83.0  116.0 1907.0 2023.0  500.0    0.0    0.0    0.0  300.0  250.0 1400.0
   74234156   83.0  116.0 1941.0 2009.0  500.0    0.0    0.0    0.0  300.0  250.0 1400.0
   74238167   83.0  116.0 1924.0 1966.0  500.0    0.0    0.0    0.0  300.0  250.0 1400.0
   74242185   83.0  116.0 1945.0 2009.0  500.0    0.0    0.0    0.0  300.0  250.0 1400.0
   74246197   83.0  116.0 1912.0 1990.0  500.0    0.0    0.0    0.0  300.0  250.0 1400.0
   74250202   83.0  116.0 1946.0 1995.0  500.0    0.0    0.0    0.0  300.0  250.0 1400.0
   74254211   83.0  116.0 1932.0 2013.0  500.0    0.0    0.0    0.0  300.0  250.0 1400.0
   74258212   83.0  116.0 1966.0 1974.0  500.0    0.0    0.0    0.0  300.0  250.0 1400.0
   74262216   83.0  116.0 1962.0 1997.0  500.0    0.0    0.0    0.0  300.0  250.0 1400.0
   74266230   83.0  116.0 1932.0 2018.0  500.0    0.0    0.0    0.0  300.0  250.0 1400.0
   74270244   83.0  116.0 1942.0 2019.0  500.0    0.0    0.0    0.0  300.0  250.0 1400.0
   74274245   83.0  116.0 1954.0 2014.0  500.0    0.0    0.0    0.0  300.0  250.0 1400.0
   74278256   83.0  116.0 1958.0 1981.0  500.0    0.0    0.0    0.0  300.0  250.0 1400.0
   74282257   83.0  116.0 1924.0 2029.0  500.0    0.0    0.0    0.0  300.0  250.0 1400.0
   74286258   83.0  116.0 1919.0 1960.0  500.0    0.0    0.0    0.0  300.0  250.0 1400.0
   74290274   83.0  116.0 1923.0 2009.0  500.0    0.0    0.0    0.0  300.0  250.0 1400.0
   74294287   83.0  116.0 1961.0 2018.0  500.0    0.0    0.0    0.0  300.0  250.0 1400.0
   74298292   83.0  116.0 1937.0 1972.0  500.0    0.0    0.0    0.0  300.0  250.0 1400.0
   74302292   83.0  116.0 1947.0 1981.0  500.0    0.0    0.0    0.0  300.0  250.0 1400.0
   74306304   83.0  116.0 1911.0 1992.0  500.0    0.0    0.0    0.0  300.0  250.0 1400.0
   74310309   83.0  116.0 1903.0 1999.0  500.0    0.0    0.0    0.0  300.0  250.0 1400.0
   74314320   83.0  116.0 1945.0 1968.0  500.0    0.0    0.0    0.0  300.0  250.0 1400.0
   74318334   83.0  116.0 1914.0 2025.0  500.0    0.0    0.0    0.0  300.0  250.0 1400.0
   74322336   83.0  116.0 1910.0 1994.0  500.0    0.0    0.0    0.0  300.0  250.0 1400.0
   74326344   83.0  116.0 1944.0 1958.0  500.0    0.0    0.0    0.0  300.0  250.0 1400.0
   74330345   84.0  116.0 1926.0 1994.0  500.0    0.0    0.0    0.0  300.0  250.0 1400.0
   74334347   84.0  116.0 1950.0 1989.0  500.0    0.0    0.0    0.0  300.0  250.0 1400.0
   74338346   84.0  116.0 1891.0 2042.0  500.0    0.0    0.0    0.0  300.0  250.0 1400.0
   74342357   84.0  116.0 1894.0 1946.0  500.0    0.0    0.0    0.0  300.0  250.0 1400.0
   74346361   84.0  116.0 1927.0 2015.0  500.0    0.0    0.0    0.0  300.0  250.0 1400.0
   74350370   84.0  116.0 1957.0 2007.0  500.0    0.0    0.0    0.0  300.0  250.0 1400.0
   74354385   84.0  116.0 1931.0 2005.0  500.0    0.0    0.0    0.0  300.0  250.0 1400.0
   74358400   84.0  116.0 1970.0 1975.0  500.0    0.0    0.0    0.0  300.0  250.0 1400.0
   74362401   84.0  116.0 1904.0 1990.0  500.0    0.0    0.0    0.0  300.0  250.0 1400.0
   74366409   84.0  116.0 1949.0 2017.0  500.0    0.0    0.0    0.0  300.0  250.0 1400.0
   74370425   84.0  116.0 1952.0 1995.0  500.0    0.0    0.0    0.0  300.0  250.0 1400.0
   74374433   84.0  116.0 1941.0 2020.0  500.0    0.0    0.0    0.0  300.0  250.0 1400.0
   74378442   84.0  116.0 1923.0 2008.0  500.0    0.0    0.0    0.0  300.0  250.0 1400.0
   74382456   84.0  116.0 1915.0 1994.0  500.0    0.0    0.0    0.0  300.0  250.0 1400.0
   74386469   84.0  116.0 1933.0 1984.0  500.0    0.0    0.0    0.0  300.0  250.0 1400.0
   74390475   84.0  116.0 1934.0 1952.0  500.0    0.0    0.0    0.0  300.0  250.0 1400.0
   74394483   84.0  116.0 1946.0 1999.0  500.0    0.0    0.0    0.0  300.0  250.0 1400.0
   74398489   84.0  116.0 1932.0 1972.0  500.0    0.0    0.0    0.0  300.0  250.0 1400.0
   74402490   84.0  116.0 1953.0 1964.0  500.0    0.0    0.0    0.0  300.0  250.0 1400.0
   74406491   84.0  116.0 1953.0 1991.0  500.0    0.0    0.0    0.0  300.0  250.0 1400.0
   74410502   84.0  116.0 1952.0 1981.0  500.0    0.0    0.0    0.0  300.0  250.0 1400.0
   74414515   84.0  116.0 1946.0 1956.0  500.0    0.0    0.0    0.0  300.0  250.0 1400.0
   74418515   84.0  116.0 1960.0 1978.0  500.0    0.0    0.0    0.0  300.0  250.0 1400.0
   74422515   84.0  116.0 1957.0 1947.0  500.0    0.0    0.0    0.0  300.0  250.0 1400.0
   74426527   84.0  116.0 1923.0 1968.0  500.0    0.0    0.0    0.0  300.0  250.0 1400.0
   74430534   84.0  116.0 1925.0 2027.0  500.0    0.0    0.0    0.0  300.0  250.0 1400.0
   74434534   84.0  116.0 1943.0 2022.0  500.0    0.0    0.0    0.0  300.0  250.0 1400.0
   74438542   85.0  116.0 1926.0 1949.0  500.0    0.0    0.0    0.0  300.0  250.0 1400.0
   74442541   85.0  116.0 1947.0 2019.0  500.0    0.0    0.0    0.0  300.0  250.0 1400.0
   74446542   85.0  116.0 1940.0 1971.0  500.0    0.0    0.0    0.0  300.0  250.0 1400.0
   74450552   85.0  116.0 1965.0 2012.0  500.0    0.0    0.0    0.0  300.0  250.0 1400.0
   74454559   85.0  116.0 1930.0 2010.0  500.0    0.0    0.0    0.0  300.0  250.0 1400.0
   74458560   85.0  116.0 1958.0 1998.0  500.0    0.0    0.0    0.0  300.0  250.0 1400.0
   74462561   85.0  116.0 1975.0 1966.0  500.0    0.0    0.0    0.0  300.0  250.0 1400.0
   74466568   85.0  116.0 1917.0 1988.0  500.0    0.0    0.0    0.0  300.0  250.0 1400.0
   74470569   85.0  116.0 1932.0 2003.0  500.0    0.0    0.0    0.0  300.0  250.0 1400.0
   74474565   85.0  116.0 1907.0 2018.0  500.0    0.0    0.0    0.0  300.0  250.0 1400.0
   74478581   85.0  116.0 1933.0 1997.0  500.0    0.0    0.0    0.0  300.0  250.0 1400.0
   74482595   85.0  116.0 1977.0 2030.0  500.0    0.0    0.0    0.0  300.0  250.0 1400.0
   74486596   85.0  116.0 1982.0 2015.0  500.0    0.0    0.0    0.0  300.0  250.0 1400.0
   74490605   85.0  116.0 1912.0 1988.0  500.0    0.0    0.0    0.0  300.0  250.0 1400.0
   74494613   85.0  116.0 1942.0 1960.0  500.0    0.0    0.0    0.0  300.0  250.0 1400.0
   74498615   85.0  116.0 1926.0 1992.0  500.0    0.0    0.0    0.0  300.0  250.0 1400.0
   74502627   85.0  116.0 1933.0 1974.0  500.0    0.0    0.0    0.0  300.0  250.0 1400.0
   74506634   85.0  116.0 1938.0 1966.0  500.0    0.0    0.0    0.0  300.0  250.0 1400.0
   74510649   85.0  116.0 1947.0 2014.0  500.0    0.0    0.0    0.0  300.0  250.0 1400.0
   74514657   85.0  116.0 1904.0 2008.0  500.0    0.0    0.0    0.0  300.0  250.0 1400.0
   74518672   85.0  116.0 1955.0 1946.0  500.0    0.0    0.0    0.0  300.0  250.0 1400.0
   74522677   85.0  116.0 1946.0 1971.0  500.0    0.0    0.0    0.0  300.0  250.0 1400.0
   74526684   85.0  116.0 1919.0 1985.0  500.0    0.0    0.0    0.0  300.0  250.0 1400.0
   74530697   85.0  116.0 1980.0 1941.0  500.0    0.0    0.0    0.0  300.0  250.0 1400.0
   74534705   85.0  116.0 1931.0 2031.0  500.0    0.0    0.0    0.0  300.0  250.0 1400.0
   74538713   86.0  116.0 1936.0 1995.0  500.0    0.0    0.0    0.0  300.0  250.0 1400.0
   74542714   86.0  116.0 1964.0 1966.0  500.0    0.0    0.0    0.0  300.0  250.0 1400.0
   74546729   85.0  116.0 1948.0 1994.0  500.0    0.0    0.0    0.0  300.0  250.0 1400.0
   74550742   86.0  116.0 1924.0 1999.0  500.0    0.0    0.0    0.0  300.0  250.0 1400.0
   74554743   86.0  116.0 1946.0 1973.0  500.0    0.0    0.0    0.0  300.0  250.0 1400.0
   74558751   86.0  116.0 1925.0 2015.0  500.0    0.0    0.0    0.0  300.0  250.0 1400.0
   74562753   86.0  116.0 1932.0 2010.0  500.0    0.0    0.0    0.0  300.0  250.0 1400.0
   74566758   86.0  116.0 1922.0 1977.0  500.0    0.0    0.0    0.0  300.0  250.0 1400.0
   74570758   86.0  116.0 1905.0 2009.0  500.0    0.0    0.0    0.0  300.0  250.0 1400.0
   74574769   86.0  116.0 1959.0 2007.0  500.0    0.0    0.0    0.0  300.0  250.0 1400.0
