# 
~VERSION INFORMATION
     VERS.                              2.0:Версия формата LAS
     WRAP.                               NO:Режим одной строчки на временной отчет
~WELL INFORMATION
     STRT.ms                       55825463:Время первой записи в файле
     STOP.ms                      124781941:Время последней записи в файле
     STEP.ms                              0:Шаг времени, 0 - переменный шаг
     NULL.                          -999.25:Метка, нет значения
     DATE.                       09.09.2023:Дата каротажа
      DRV.                                 :Наименование драйвера прибора
     NAME.                             ГГКП:Название прибора
     SNUM.                         23613001:Серийный номер прибора
     FRMW.                         0.23.8.4:Версия прошивки на контроллере прибора
~CURVE INFORMATION
     TIME.ms                       {0,11:0}:Время, количество миллисекунд от начало суток
       MT.°C                               :Температура
      TFG.°                                :Гравитационный поворот
      RSD.имп./сек                         :Счёт, ближний зонд ГГКП
      RLD.имп./сек                         :Счёт, дальний зонд ГГКП
     RHOB.кг/м3                            :Плотность
   HCRHOB.g/cm3                            :Плотность, у.е.
     ADCS.mV                               :Измеренное напряжение порога компараторапо ближнему зонду
     ADCL.mV                               :Измеренное напряжение порога компараторапо дальнему зонду
    THLDS.mV                               :Выставленный порог компараторапо ближнему зонду
    THLDL.mV                               :Выставленный порог компараторапо дальнему зонду
    GRUHV.В                                :Напряжение на высоковольтнике Гамма
~OTHER INFORMATION


~A     TIME     MT    TFG    RSD    RLD   RHOB HCRHOB   ADCS   ADCL  THLDS  THLDL  GRUHV
# ...
   69529560   42.0  118.0 1931.0 2008.0  500.0    0.0    0.0    0.0  300.0  250.0 1400.0
   69533559   42.0  118.0 1893.0 1990.0  500.0    0.0    0.0    0.0  300.0  250.0 1400.0
   69537559   42.0  118.0 1953.0 1954.0  500.0    0.0    0.0    0.0  300.0  250.0 1400.0
   69541559   42.0  118.0 1935.0 1960.0  500.0    0.0    0.0    0.0  300.0  250.0 1400.0
   69545565   42.0  118.0 1921.0 2010.0  500.0    0.0    0.0    0.0  300.0  250.0 1400.0
   69549566   42.0  118.0 1963.0 1988.0  500.0    0.0    0.0    0.0  300.0  250.0 1400.0
   69553566   42.0  118.0 1910.0 2012.0  500.0    0.0    0.0    0.0  300.0  250.0 1400.0
   69557566   42.0  118.0 1909.0 1984.0  500.0    0.0    0.0    0.0  300.0  250.0 1400.0
   69561566   42.0  118.0 1938.0 2043.0  500.0    0.0    0.0    0.0  300.0  250.0 1400.0
   69565567   42.0  118.0 1913.0 1980.0  500.0    0.0    0.0    0.0  300.0  250.0 1400.0
   69569568   42.0  118.0 1916.0 1989.0  500.0    0.0    0.0    0.0  300.0  250.0 1400.0
   69573576   42.0  118.0 1919.0 1994.0  500.0    0.0    0.0    0.0  300.0  250.0 1400.0
   69577576   42.0  118.0 1916.0 1937.0  500.0    0.0    0.0    0.0  300.0  250.0 1400.0
   69581577   42.0  118.0 1905.0 1970.0  500.0    0.0    0.0    0.0  300.0  250.0 1400.0
   69585588   42.0  118.0 1906.0 1990.0  500.0    0.0    0.0    0.0  300.0  250.0 1400.0
   69589604   42.0  118.0 1888.0 2006.0  500.0    0.0    0.0    0.0  300.0  250.0 1400.0
   69593618   42.0  118.0 1905.0 1980.0  500.0    0.0    0.0    0.0  300.0  250.0 1400.0
   69597641   42.0  118.0 1901.0 2001.0  500.0    0.0    0.0    0.0  300.0  250.0 1400.0
   69601629   43.0  118.0 1936.0 1973.0  500.0    0.0    0.0    0.0  300.0  250.0 1400.0
   69605630   42.0  118.0 1922.0 1990.0  500.0    0.0    0.0    0.0  300.0  250.0 1400.0
   69609645   43.0  118.0 1910.0 1983.0  500.0    0.0    0.0    0.0  300.0  250.0 1400.0
   69613649   43.0  118.0 1932.0 2011.0  500.0    0.0    0.0    0.0  300.0  250.0 1400.0
   69617655   43.0  118.0 1935.0 2005.0  500.0    0.0    0.0    0.0  300.0  250.0 1400.0
   69621661   43.0  118.0 1932.0 2045.0  500.0    0.0    0.0    0.0  300.0  250.0 1400.0
   69625674   43.0  118.0 1932.0 1955.0  500.0    0.0    0.0    0.0  300.0  250.0 1400.0
   69629689   43.0  118.0 1925.0 2000.0  500.0    0.0    0.0    0.0  300.0  250.0 1400.0
   69633704   43.0  118.0 1893.0 1979.0  500.0    0.0    0.0    0.0  300.0  250.0 1400.0
   69637719   43.0  118.0 1887.0 1919.0  500.0    0.0    0.0    0.0  300.0  250.0 1400.0
   69641722   43.0  118.0 1934.0 1980.0  500.0    0.0    0.0    0.0  300.0  250.0 1400.0
   69645732   43.0  118.0 1938.0 2020.0  500.0    0.0    0.0    0.0  300.0  250.0 1400.0
   69649743   43.0  118.0 1931.0 1981.0  500.0    0.0    0.0    0.0  300.0  250.0 1400.0
   69653753   43.0  118.0 1891.0 1993.0  500.0    0.0    0.0    0.0  300.0  250.0 1400.0
   69657757   43.0  118.0 1928.0 1988.0  500.0    0.0    0.0    0.0  300.0  250.0 1400.0
   69661765   43.0  118.0 1883.0 1997.0  500.0    0.0    0.0    0.0  300.0  250.0 1400.0
   69665780   43.0  118.0 1883.0 1971.0  500.0    0.0    0.0    0.0  300.0  250.0 1400.0
   69669795   43.0  118.0 1920.0 1973.0  500.0    0.0    0.0    0.0  300.0  250.0 1400.0
   69673802   43.0  118.0 1911.0 1994.0  500.0    0.0    0.0    0.0  300.0  250.0 1400.0
   69677808   43.0  118.0 1915.0 2001.0  500.0    0.0    0.0    0.0  300.0  250.0 1400.0
   69681815   43.0  118.0 1879.0 1939.0  500.0    0.0    0.0    0.0  300.0  250.0 1400.0
   69685815   43.0  118.0 1965.0 1993.0  500.0    0.0    0.0    0.0  300.0  250.0 1400.0
   69689844   43.0  118.0 1890.0 1996.0  500.0    0.0    0.0    0.0  300.0  250.0 1400.0
   69693832   43.0  118.0 1912.0 1983.0  500.0    0.0    0.0    0.0  300.0  250.0 1400.0
   69697838   43.0  118.0 1937.0 1973.0  500.0    0.0    0.0    0.0  300.0  250.0 1400.0
   69701844   43.0  118.0 1880.0 1972.0  500.0    0.0    0.0    0.0  300.0  250.0 1400.0
   69705845   43.0  118.0 1936.0 1989.0  500.0    0.0    0.0    0.0  300.0  250.0 1400.0
   69709854   43.0  118.0 1914.0 1979.0  500.0    0.0    0.0    0.0  300.0  250.0 1400.0
   69713869   43.0  118.0 1929.0 1967.0  500.0    0.0    0.0    0.0  300.0  250.0 1400.0
   69717881   43.0  118.0 1888.0 1955.0  500.0    0.0    0.0    0.0  300.0  250.0 1400.0
   69721894   43.0  118.0 1885.0 1968.0  500.0    0.0    0.0    0.0  300.0  250.0 1400.0
   69725903   43.0  118.0 1911.0 1981.0  500.0    0.0    0.0    0.0  300.0  250.0 1400.0
   69729917   43.0  118.0 1909.0 1960.0  500.0    0.0    0.0    0.0  300.0  250.0 1400.0
   69733932   43.0  118.0 1888.0 1971.0  500.0    0.0    0.0    0.0  300.0  250.0 1400.0
   69737943   43.0  118.0 1921.0 1986.0  500.0    0.0    0.0    0.0  300.0  250.0 1400.0
   69741952   43.0  118.0 1939.0 1955.0  500.0    0.0    0.0    0.0  300.0  250.0 1400.0
   69745956   43.0  118.0 1913.0 1993.0  500.0    0.0    0.0    0.0  300.0  250.0 1400.0
   69749961   43.0  118.0 1942.0 1941.0  500.0    0.0    0.0    0.0  300.0  250.0 1400.0
   69753976   43.0  118.0 1922.0 1995.0  500.0    0.0    0.0    0.0  300.0  250.0 1400.0
   69757985   43.0  118.0 1936.0 1974.0  500.0    0.0    0.0    0.0  300.0  250.0 1400.0
   69761999   43.0  118.0 1890.0 2009.0  500.0    0.0    0.0    0.0  300.0  250.0 1400.0
   69766008   43.0  118.0 1890.0 2002.0  500.0    0.0    0.0    0.0  300.0  250.0 1400.0
   69770017   43.0  118.0 1926.0 2004.0  500.0    0.0    0.0    0.0  300.0  250.0 1400.0
   69774017   43.0  118.0 1862.0 1962.0  500.0    0.0    0.0    0.0  300.0  250.0 1400.0
   69778028   43.0  118.0 1919.0 1927.0  500.0    0.0    0.0    0.0  300.0  250.0 1400.0
   69782034   43.0  118.0 1921.0 2014.0  500.0    0.0    0.0    0.0  300.0  250.0 1400.0
   69786034   43.0  118.0 1931.0 2006.0  500.0    0.0    0.0    0.0  300.0  250.0 1400.0
   69790035   43.0  118.0 1936.0 1995.0  500.0    0.0    0.0    0.0  300.0  250.0 1400.0
   69794042   43.0  118.0 1917.0 1972.0  500.0    0.0    0.0    0.0  300.0  250.0 1400.0
   69798042   43.0  118.0 1929.0 1960.0  500.0    0.0    0.0    0.0  300.0  250.0 1400.0
   69802051   44.0  118.0 1873.0 1975.0  500.0    0.0    0.0    0.0  300.0  250.0 1400.0
   69806059   44.0  118.0 1929.0 1957.0  500.0    0.0    0.0    0.0  300.0  250.0 1400.0
   69810069   44.0  118.0 1946.0 2024.0  500.0    0.0    0.0    0.0  300.0  250.0 1400.0
   69814079   44.0  118.0 1894.0 1974.0  500.0    0.0    0.0    0.0  300.0  250.0 1400.0
   69818083   44.0  118.0 1897.0 1958.0  500.0    0.0    0.0    0.0  300.0  250.0 1400.0
   69822084   44.0  118.0 1906.0 1973.0  500.0    0.0    0.0    0.0  300.0  250.0 1400.0
   69826099   44.0  118.0 1918.0 1970.0  500.0    0.0    0.0    0.0  300.0  250.0 1400.0
   69830103   44.0  118.0 1974.0 1959.0  500.0    0.0    0.0    0.0  300.0  250.0 1400.0
   69834108   44.0  118.0 1946.0 1982.0  500.0    0.0    0.0    0.0  300.0  250.0 1400.0
   69838112   44.0  118.0 1880.0 1981.0  500.0    0.0    0.0    0.0  300.0  250.0 1400.0
   69842116   44.0  118.0 1904.0 2006.0  500.0    0.0    0.0    0.0  300.0  250.0 1400.0
   69846119   44.0  118.0 1929.0 1978.0  500.0    0.0    0.0    0.0  300.0  250.0 1400.0
   69850130   44.0  118.0 1901.0 1995.0  500.0    0.0    0.0    0.0  300.0  250.0 1400.0
   69854133   44.0  118.0 1952.0 1990.0  500.0    0.0    0.0    0.0  300.0  250.0 1400.0
   69858143   44.0  118.0 1907.0 1976.0  500.0    0.0    0.0    0.0  300.0  250.0 1400.0
   69862150   44.0  118.0 1921.0 1983.0  500.0    0.0    0.0    0.0  300.0  250.0 1400.0
   69866159   44.0  118.0 1885.0 1990.0  500.0    0.0    0.0    0.0  300.0  250.0 1400.0
   69870161   44.0  118.0 1925.0 1980.0  500.0    0.0    0.0    0.0  300.0  250.0 1400.0
   69874172   44.0  118.0 1908.0 1963.0  500.0    0.0    0.0    0.0  300.0  250.0 1400.0
   69878185   44.0  118.0 1904.0 1966.0  500.0    0.0    0.0    0.0  300.0  250.0 1400.0
   69882198   44.0  118.0 1894.0 1993.0  500.0    0.0    0.0    0.0  300.0  250.0 1400.0
   69886213   44.0  118.0 1905.0 1962.0  500.0    0.0    0.0    0.0  300.0  250.0 1400.0
