# 
~VERSION INFORMATION
     VERS.                              2.0:Версия формата LAS
     WRAP.                               NO:Режим одной строчки на временной отчет
~WELL INFORMATION
     STRT.ms                       55825463:Время первой записи в файле
     STOP.ms                      124781941:Время последней записи в файле
     STEP.ms                              0:Шаг времени, 0 - переменный шаг
     NULL.                          -999.25:Метка, нет значения
     DATE.                       09.09.2023:Дата каротажа
      DRV.                                 :Наименование драйвера прибора
     NAME.                             ГГКП:Название прибора
     SNUM.                         23613001:Серийный номер прибора
     FRMW.                         0.23.8.4:Версия прошивки на контроллере прибора
~CURVE INFORMATION
     TIME.ms                       {0,11:0}:Время, количество миллисекунд от начало суток
       MT.°C                               :Температура
      TFG.°                                :Гравитационный поворот
      RSD.имп./сек                         :Счёт, ближний зонд ГГКП
      RLD.имп./сек                         :Счёт, дальний зонд ГГКП
     RHOB.кг/м3                            :Плотность
   HCRHOB.g/cm3                            :Плотность, у.е.
     ADCS.mV                               :Измеренное напряжение порога компараторапо ближнему зонду
     ADCL.mV                               :Измеренное напряжение порога компараторапо дальнему зонду
    THLDS.mV                               :Выставленный порог компараторапо ближнему зонду
    THLDL.mV                               :Выставленный порог компараторапо дальнему зонду
    GRUHV.В                                :Напряжение на высоковольтнике Гамма
~OTHER INFORMATION


~A     TIME     MT    TFG    RSD    RLD   RHOB HCRHOB   ADCS   ADCL  THLDS  THLDL  GRUHV
# ...
  119657646  151.0  122.0 1930.0 2088.0  500.0    0.0    0.0    0.0  300.0  250.0 1400.0
  119661653  151.0  122.0 1967.0 2051.0  500.0    0.0    0.0    0.0  300.0  250.0 1400.0
  119665662  151.0  122.0 1951.0 2079.0  500.0    0.0    0.0    0.0  300.0  250.0 1400.0
  119669675  151.0  122.0 1932.0 2060.0  500.0    0.0    0.0    0.0  300.0  250.0 1400.0
  119673680  151.0  122.0 1947.0 2056.0  500.0    0.0    0.0    0.0  300.0  250.0 1400.0
  119677690  151.0  122.0 1954.0 2059.0  500.0    0.0    0.0    0.0  300.0  250.0 1400.0
  119681702  151.0  122.0 1961.0 2051.0  500.0    0.0    0.0    0.0  300.0  250.0 1400.0
  119685713  151.0  122.0 1976.0 2099.0  500.0    0.0    0.0    0.0  300.0  250.0 1400.0
  119689726  151.0  122.0 1968.0 2030.0  500.0    0.0    0.0    0.0  300.0  250.0 1400.0
  119693740  151.0  122.0 1946.0 2082.0  500.0    0.0    0.0    0.0  300.0  250.0 1400.0
  119697748  151.0  122.0 1979.0 2053.0  500.0    0.0    0.0    0.0  300.0  250.0 1400.0
  119701754  151.0  122.0 1974.0 2076.0  500.0    0.0    0.0    0.0  300.0  250.0 1400.0
  119705768  151.0  122.0 1978.0 2076.0  500.0    0.0    0.0    0.0  300.0  250.0 1400.0
  119709767  151.0  122.0 1958.0 2083.0  500.0    0.0    0.0    0.0  300.0  250.0 1400.0
  119713780  151.0  122.0 1928.0 2052.0  500.0    0.0    0.0    0.0  300.0  250.0 1400.0
  119717788  151.0  122.0 1943.0 2072.0  500.0    0.0    0.0    0.0  300.0  250.0 1400.0
  119721789  151.0  122.0 1978.0 2084.0  500.0    0.0    0.0    0.0  300.0  250.0 1400.0
  119725792  151.0  122.0 1975.0 2006.0  500.0    0.0    0.0    0.0  300.0  250.0 1400.0
  119729800  151.0  122.0 1957.0 2047.0  500.0    0.0    0.0    0.0  300.0  250.0 1400.0
  119733812  151.0  122.0 1992.0 2067.0  500.0    0.0    0.0    0.0  300.0  250.0 1400.0
  119737822  151.0  122.0 1968.0 2087.0  500.0    0.0    0.0    0.0  300.0  250.0 1400.0
  119741834  151.0  122.0 1992.0 2090.0  500.0    0.0    0.0    0.0  300.0  250.0 1400.0
  119745840  151.0  122.0 1921.0 2065.0  500.0    0.0    0.0    0.0  300.0  250.0 1400.0
  119749839  151.0  122.0 1941.0 2061.0  500.0    0.0    0.0    0.0  300.0  250.0 1400.0
  119753841  151.0  122.0 1967.0 2065.0  500.0    0.0    0.0    0.0  300.0  250.0 1400.0
  119757845  151.0  122.0 1976.0 2055.0  500.0    0.0    0.0    0.0  300.0  250.0 1400.0
  119761847  151.0  122.0 1944.0 2067.0  500.0    0.0    0.0    0.0  300.0  250.0 1400.0
  119765854  151.0  122.0 1972.0 2073.0  500.0    0.0    0.0    0.0  300.0  250.0 1400.0
  119769862  151.0  122.0 1967.0 2061.0  500.0    0.0    0.0    0.0  300.0  250.0 1400.0
  119773876  151.0  122.0 1951.0 2083.0  500.0    0.0    0.0    0.0  300.0  250.0 1400.0
  119777890  151.0  122.0 1959.0 2093.0  500.0    0.0    0.0    0.0  300.0  250.0 1400.0
  119781893  151.0  122.0 1926.0 2049.0  500.0    0.0    0.0    0.0  300.0  250.0 1400.0
  119785894  151.0  122.0 1948.0 2080.0  500.0    0.0    0.0    0.0  300.0  250.0 1400.0
  119789896  151.0  122.0 1952.0 2079.0  500.0    0.0    0.0    0.0  300.0  250.0 1400.0
  119793896  151.0  122.0 1960.0 2057.0  500.0    0.0    0.0    0.0  300.0  250.0 1400.0
  119797896  151.0  122.0 1957.0 2028.0  500.0    0.0    0.0    0.0  300.0  250.0 1400.0
  119801905  151.0  122.0 1960.0 2067.0  500.0    0.0    0.0    0.0  300.0  250.0 1400.0
  119805922  151.0  122.0 1947.0 2086.0  500.0    0.0    0.0    0.0  300.0  250.0 1400.0
  119809924  151.0  122.0 1945.0 2046.0  500.0    0.0    0.0    0.0  300.0  250.0 1400.0
  119813916  151.0  122.0 1999.0 2107.0  500.0    0.0    0.0    0.0  300.0  250.0 1400.0
  119817922  151.0  122.0 1956.0 2103.0  500.0    0.0    0.0    0.0  300.0  250.0 1400.0
  119821931  151.0  122.0 1925.0 2058.0  500.0    0.0    0.0    0.0  300.0  250.0 1400.0
  119825940  151.0  122.0 1963.0 2079.0  500.0    0.0    0.0    0.0  300.0  250.0 1400.0
  119829948  151.0  122.0 1934.0 2108.0  500.0    0.0    0.0    0.0  300.0  250.0 1400.0
  119833954  151.0  122.0 1977.0 2058.0  500.0    0.0    0.0    0.0  300.0  250.0 1400.0
  119837960  151.0  122.0 1985.0 2062.0  500.0    0.0    0.0    0.0  300.0  250.0 1400.0
  119841961  151.0  122.0 1933.0 2050.0  500.0    0.0    0.0    0.0  300.0  250.0 1400.0
  119845962  151.0  122.0 2005.0 2110.0  500.0    0.0    0.0    0.0  300.0  250.0 1400.0
  119849964  151.0  122.0 1964.0 2056.0  500.0    0.0    0.0    0.0  300.0  250.0 1400.0
  119853972  151.0  122.0 1991.0 2049.0  500.0    0.0    0.0    0.0  300.0  250.0 1400.0
  119857988  151.0  122.0 1979.0 2053.0  500.0    0.0    0.0    0.0  300.0  250.0 1400.0
  119861994  151.0  122.0 1956.0 2101.0  500.0    0.0    0.0    0.0  300.0  250.0 1400.0
  119866006  151.0  122.0 1991.0 2071.0  500.0    0.0    0.0    0.0  300.0  250.0 1400.0
  119870015  151.0  122.0 2007.0 2083.0  500.0    0.0    0.0    0.0  300.0  250.0 1400.0
  119874021  151.0  122.0 1966.0 2077.0  500.0    0.0    0.0    0.0  300.0  250.0 1400.0
  119878030  151.0  122.0 1977.0 2072.0  500.0    0.0    0.0    0.0  300.0  250.0 1400.0
  119882039  151.0  122.0 1944.0 2044.0  500.0    0.0    0.0    0.0  300.0  250.0 1400.0
  119886041  151.0  122.0 1960.0 2083.0  500.0    0.0    0.0    0.0  300.0  250.0 1400.0
  119890050  151.0  122.0 1929.0 2108.0  500.0    0.0    0.0    0.0  300.0  250.0 1400.0
  119894054  151.0  122.0 1965.0 2061.0  500.0    0.0    0.0    0.0  300.0  250.0 1400.0
  119898068  151.0  122.0 1981.0 2079.0  500.0    0.0    0.0    0.0  300.0  250.0 1400.0
  119902084  151.0  122.0 1898.0 2047.0  500.0    0.0    0.0    0.0  300.0  250.0 1400.0
  119906096  151.0  122.0 1958.0 2109.0  500.0    0.0    0.0    0.0  300.0  250.0 1400.0
  119910110  151.0  122.0 1944.0 2075.0  500.0    0.0    0.0    0.0  300.0  250.0 1400.0
  119914122  151.0  122.0 1967.0 2112.0  500.0    0.0    0.0    0.0  300.0  250.0 1400.0
  119918137  151.0  122.0 1943.0 2092.0  500.0    0.0    0.0    0.0  300.0  250.0 1400.0
  119922152  151.0  122.0 1961.0 2079.0  500.0    0.0    0.0    0.0  300.0  250.0 1400.0
  119926164  151.0  122.0 1923.0 2070.0  500.0    0.0    0.0    0.0  300.0  250.0 1400.0
  119930165  151.0  122.0 1967.0 2065.0  500.0    0.0    0.0    0.0  300.0  250.0 1400.0
  119934169  151.0  122.0 1953.0 2052.0  500.0    0.0    0.0    0.0  300.0  250.0 1400.0
  119938180  151.0  122.0 1947.0 2063.0  500.0    0.0    0.0    0.0  300.0  250.0 1400.0
  119942179  151.0  122.0 1956.0 2060.0  500.0    0.0    0.0    0.0  300.0  250.0 1400.0
  119946190  151.0  122.0 1977.0 2069.0  500.0    0.0    0.0    0.0  300.0  250.0 1400.0
  119950198  151.0  122.0 1948.0 2042.0  500.0    0.0    0.0    0.0  300.0  250.0 1400.0
  119954205  151.0  122.0 1923.0 2052.0  500.0    0.0    0.0    0.0  300.0  250.0 1400.0
  119958218  151.0  122.0 1970.0 2018.0  500.0    0.0    0.0    0.0  300.0  250.0 1400.0
  119962224  151.0  122.0 1985.0 2074.0  500.0    0.0    0.0    0.0  300.0  250.0 1400.0
  119966239  151.0  122.0 1963.0 2108.0  500.0    0.0    0.0    0.0  300.0  250.0 1400.0
  119970242  151.0  122.0 1963.0 2111.0  500.0    0.0    0.0    0.0  300.0  250.0 1400.0
  119974252  151.0  122.0 2030.0 2089.0  500.0    0.0    0.0    0.0  300.0  250.0 1400.0
  119978255  151.0  122.0 1969.0 2077.0  500.0    0.0    0.0    0.0  300.0  250.0 1400.0
  119982270  151.0  122.0 1953.0 2069.0  500.0    0.0    0.0    0.0  300.0  250.0 1400.0
  119986279  151.0  122.0 1968.0 2102.0  500.0    0.0    0.0    0.0  300.0  250.0 1400.0
  119990280  151.0  122.0 1981.0 2079.0  500.0    0.0    0.0    0.0  300.0  250.0 1400.0
  119994284  151.0  122.0 1973.0 2065.0  500.0    0.0    0.0    0.0  300.0  250.0 1400.0
  119998289  151.0  122.0 1937.0 2046.0  500.0    0.0    0.0    0.0  300.0  250.0 1400.0
  120002291  151.0  122.0 1973.0 2027.0  500.0    0.0    0.0    0.0  300.0  250.0 1400.0
  120006292  151.0  122.0 1959.0 2049.0  500.0    0.0    0.0    0.0  300.0  250.0 1400.0
  120010308  151.0  122.0 1971.0 2080.0  500.0    0.0    0.0    0.0  300.0  250.0 1400.0
  120014322  151.0  122.0 1950.0 2059.0  500.0    0.0    0.0    0.0  300.0  250.0 1400.0
