# 
~VERSION INFORMATION
     VERS.                              2.0:Версия формата LAS
     WRAP.                               NO:Режим одной строчки на временной отчет
~WELL INFORMATION
     STRT.ms                       55825463:Время первой записи в файле
     STOP.ms                      124781941:Время последней записи в файле
     STEP.ms                              0:Шаг времени, 0 - переменный шаг
     NULL.                          -999.25:Метка, нет значения
     DATE.                       09.09.2023:Дата каротажа
      DRV.                                 :Наименование драйвера прибора
     NAME.                             ГГКП:Название прибора
     SNUM.                         23613001:Серийный номер прибора
     FRMW.                         0.23.8.4:Версия прошивки на контроллере прибора
~CURVE INFORMATION
     TIME.ms                       {0,11:0}:Время, количество миллисекунд от начало суток
       MT.°C                               :Температура
      TFG.°                                :Гравитационный поворот
      RSD.имп./сек                         :Счёт, ближний зонд ГГКП
      RLD.имп./сек                         :Счёт, дальний зонд ГГКП
     RHOB.кг/м3                            :Плотность
   HCRHOB.g/cm3                            :Плотность, у.е.
     ADCS.mV                               :Измеренное напряжение порога компараторапо ближнему зонду
     ADCL.mV                               :Измеренное напряжение порога компараторапо дальнему зонду
    THLDS.mV                               :Выставленный порог компараторапо ближнему зонду
    THLDL.mV                               :Выставленный порог компараторапо дальнему зонду
    GRUHV.В                                :Напряжение на высоковольтнике Гамма
~OTHER INFORMATION


~A     TIME     MT    TFG    RSD    RLD   RHOB HCRHOB   ADCS   ADCL  THLDS  THLDL  GRUHV
# ...
  101626504  150.0  122.0 1959.0 2067.0  500.0    0.0    0.0    0.0  300.0  250.0 1400.0
  101630504  150.0  122.0 1936.0 2084.0  500.0    0.0    0.0    0.0  300.0  250.0 1400.0
  101634504  150.0  122.0 1988.0 2052.0  500.0    0.0    0.0    0.0  300.0  250.0 1400.0
  101638514  150.0  122.0 2012.0 2057.0  500.0    0.0    0.0    0.0  300.0  250.0 1400.0
  101642518  150.0  122.0 1954.0 2033.0  500.0    0.0    0.0    0.0  300.0  250.0 1400.0
  101646534  150.0  122.0 1946.0 2029.0  500.0    0.0    0.0    0.0  300.0  250.0 1400.0
  101650546  149.0  122.0 2010.0 2047.0  500.0    0.0    0.0    0.0  300.0  250.0 1400.0
  101654558  150.0  122.0 1985.0 2032.0  500.0    0.0    0.0    0.0  300.0  250.0 1400.0
  101658560  150.0  122.0 1931.0 2096.0  500.0    0.0    0.0    0.0  300.0  250.0 1400.0
  101662568  150.0  122.0 1966.0 2048.0  500.0    0.0    0.0    0.0  300.0  250.0 1400.0
  101666581  150.0  122.0 1939.0 2058.0  500.0    0.0    0.0    0.0  300.0  250.0 1400.0
  101670581  150.0  122.0 1970.0 2048.0  500.0    0.0    0.0    0.0  300.0  250.0 1400.0
  101674584  150.0  122.0 1952.0 2065.0  500.0    0.0    0.0    0.0  300.0  250.0 1400.0
  101678587  150.0  122.0 1979.0 2091.0  500.0    0.0    0.0    0.0  300.0  250.0 1400.0
  101682587  150.0  122.0 1961.0 2028.0  500.0    0.0    0.0    0.0  300.0  250.0 1400.0
  101686595  150.0  122.0 1967.0 2042.0  500.0    0.0    0.0    0.0  300.0  250.0 1400.0
  101690595  150.0  122.0 1947.0 2094.0  500.0    0.0    0.0    0.0  300.0  250.0 1400.0
  101694605  150.0  122.0 2004.0 2061.0  500.0    0.0    0.0    0.0  300.0  250.0 1400.0
  101698614  150.0  122.0 1948.0 2062.0  500.0    0.0    0.0    0.0  300.0  250.0 1400.0
  101702615  150.0  122.0 1951.0 2056.0  500.0    0.0    0.0    0.0  300.0  250.0 1400.0
  101706627  149.0  122.0 1929.0 2035.0  500.0    0.0    0.0    0.0  300.0  250.0 1400.0
  101710637  150.0  122.0 1982.0 2026.0  500.0    0.0    0.0    0.0  300.0  250.0 1400.0
  101714648  150.0  122.0 1942.0 2084.0  500.0    0.0    0.0    0.0  300.0  250.0 1400.0
  101718655  150.0  122.0 1994.0 2046.0  500.0    0.0    0.0    0.0  300.0  250.0 1400.0
  101722656  150.0  122.0 1995.0 2084.0  500.0    0.0    0.0    0.0  300.0  250.0 1400.0
  101726659  150.0  122.0 1957.0 2078.0  500.0    0.0    0.0    0.0  300.0  250.0 1400.0
  101730671  150.0  122.0 1947.0 2032.0  500.0    0.0    0.0    0.0  300.0  250.0 1400.0
  101734680  150.0  122.0 1966.0 2050.0  500.0    0.0    0.0    0.0  300.0  250.0 1400.0
  101738681  150.0  122.0 1986.0 2059.0  500.0    0.0    0.0    0.0  300.0  250.0 1400.0
  101742691  150.0  122.0 1937.0 2052.0  500.0    0.0    0.0    0.0  300.0  250.0 1400.0
  101746705  150.0  122.0 1978.0 2069.0  500.0    0.0    0.0    0.0  300.0  250.0 1400.0
  101750708  150.0  122.0 1935.0 2067.0  500.0    0.0    0.0    0.0  300.0  250.0 1400.0
  101754721  150.0  122.0 1981.0 1993.0  500.0    0.0    0.0    0.0  300.0  250.0 1400.0
  101758723  149.0  122.0 1958.0 2041.0  500.0    0.0    0.0    0.0  300.0  250.0 1400.0
  101762738  150.0  122.0 1957.0 2049.0  500.0    0.0    0.0    0.0  300.0  250.0 1400.0
  101766739  150.0  122.0 1991.0 2082.0  500.0    0.0    0.0    0.0  300.0  250.0 1400.0
  101770748  150.0  122.0 1991.0 2071.0  500.0    0.0    0.0    0.0  300.0  250.0 1400.0
  101774751  150.0  122.0 1955.0 2041.0  500.0    0.0    0.0    0.0  300.0  250.0 1400.0
  101778759  150.0  122.0 1974.0 2041.0  500.0    0.0    0.0    0.0  300.0  250.0 1400.0
  101782766  150.0  122.0 1990.0 2098.0  500.0    0.0    0.0    0.0  300.0  250.0 1400.0
  101786775  149.0  122.0 1986.0 2033.0  500.0    0.0    0.0    0.0  300.0  250.0 1400.0
  101790784  150.0  122.0 1956.0 2070.0  500.0    0.0    0.0    0.0  300.0  250.0 1400.0
  101794785  150.0  122.0 1980.0 2066.0  500.0    0.0    0.0    0.0  300.0  250.0 1400.0
  101798800  150.0  122.0 1985.0 2016.0  500.0    0.0    0.0    0.0  300.0  250.0 1400.0
  101802803  150.0  122.0 1957.0 2057.0  500.0    0.0    0.0    0.0  300.0  250.0 1400.0
  101806810  150.0  122.0 1938.0 2074.0  500.0    0.0    0.0    0.0  300.0  250.0 1400.0
  101810811  150.0  122.0 1976.0 2082.0  500.0    0.0    0.0    0.0  300.0  250.0 1400.0
  101814816  150.0  122.0 2003.0 2009.0  500.0    0.0    0.0    0.0  300.0  250.0 1400.0
  101818816  150.0  122.0 1961.0 2095.0  500.0    0.0    0.0    0.0  300.0  250.0 1400.0
  101822816  150.0  122.0 1924.0 2061.0  500.0    0.0    0.0    0.0  300.0  250.0 1400.0
  101826821  150.0  122.0 1953.0 2057.0  500.0    0.0    0.0    0.0  300.0  250.0 1400.0
  101830821  150.0  122.0 2002.0 2038.0  500.0    0.0    0.0    0.0  300.0  250.0 1400.0
  101834829  150.0  122.0 1965.0 2088.0  500.0    0.0    0.0    0.0  300.0  250.0 1400.0
  101838829  150.0  122.0 2003.0 2048.0  500.0    0.0    0.0    0.0  300.0  250.0 1400.0
  101842836  150.0  122.0 1973.0 2056.0  500.0    0.0    0.0    0.0  300.0  250.0 1400.0
  101846838  150.0  122.0 1987.0 2028.0  500.0    0.0    0.0    0.0  300.0  250.0 1400.0
  101850847  150.0  122.0 1970.0 2052.0  500.0    0.0    0.0    0.0  300.0  250.0 1400.0
  101854859  150.0  122.0 1999.0 2066.0  500.0    0.0    0.0    0.0  300.0  250.0 1400.0
  101858870  150.0  122.0 2002.0 2094.0  500.0    0.0    0.0    0.0  300.0  250.0 1400.0
  101862878  150.0  122.0 2019.0 2041.0  500.0    0.0    0.0    0.0  300.0  250.0 1400.0
  101866879  150.0  122.0 1997.0 1994.0  500.0    0.0    0.0    0.0  300.0  250.0 1400.0
  101870898  150.0  122.0 1956.0 2114.0  500.0    0.0    0.0    0.0  300.0  250.0 1400.0
  101874899  150.0  122.0 1983.0 2085.0  500.0    0.0    0.0    0.0  300.0  250.0 1400.0
  101878915  150.0  122.0 1970.0 2069.0  500.0    0.0    0.0    0.0  300.0  250.0 1400.0
  101882919  150.0  122.0 1939.0 2065.0  500.0    0.0    0.0    0.0  300.0  250.0 1400.0
  101886927  150.0  122.0 1968.0 2031.0  500.0    0.0    0.0    0.0  300.0  250.0 1400.0
  101890937  150.0  122.0 1999.0 2039.0  500.0    0.0    0.0    0.0  300.0  250.0 1400.0
  101894939  150.0  122.0 1977.0 2077.0  500.0    0.0    0.0    0.0  300.0  250.0 1400.0
  101898954  150.0  122.0 1922.0 2051.0  500.0    0.0    0.0    0.0  300.0  250.0 1400.0
  101902965  150.0  122.0 1933.0 2072.0  500.0    0.0    0.0    0.0  300.0  250.0 1400.0
  101906969  150.0  122.0 1945.0 2085.0  500.0    0.0    0.0    0.0  300.0  250.0 1400.0
  101910973  150.0  122.0 2004.0 2031.0  500.0    0.0    0.0    0.0  300.0  250.0 1400.0
  101914987  150.0  122.0 1974.0 2056.0  500.0    0.0    0.0    0.0  300.0  250.0 1400.0
  101918996  150.0  122.0 1932.0 2061.0  500.0    0.0    0.0    0.0  300.0  250.0 1400.0
  101922998  150.0  122.0 1950.0 2061.0  500.0    0.0    0.0    0.0  300.0  250.0 1400.0
  101927001  150.0  122.0 1951.0 2059.0  500.0    0.0    0.0    0.0  300.0  250.0 1400.0
  101931003  150.0  122.0 1924.0 2072.0  500.0    0.0    0.0    0.0  300.0  250.0 1400.0
  101935006  150.0  122.0 1952.0 2061.0  500.0    0.0    0.0    0.0  300.0  250.0 1400.0
  101939006  150.0  122.0 1975.0 2052.0  500.0    0.0    0.0    0.0  300.0  250.0 1400.0
  101943010  150.0  122.0 1984.0 2076.0  500.0    0.0    0.0    0.0  300.0  250.0 1400.0
  101947023  150.0  122.0 1935.0 2057.0  500.0    0.0    0.0    0.0  300.0  250.0 1400.0
  101951027  150.0  122.0 1934.0 2055.0  500.0    0.0    0.0    0.0  300.0  250.0 1400.0
  101955034  150.0  122.0 1948.0 2040.0  500.0    0.0    0.0    0.0  300.0  250.0 1400.0
  101959047  150.0  122.0 1975.0 2100.0  500.0    0.0    0.0    0.0  300.0  250.0 1400.0
  101963050  150.0  122.0 1969.0 2009.0  500.0    0.0    0.0    0.0  300.0  250.0 1400.0
  101967065  150.0  122.0 1985.0 2055.0  500.0    0.0    0.0    0.0  300.0  250.0 1400.0
  101971065  150.0  122.0 1963.0 2080.0  500.0    0.0    0.0    0.0  300.0  250.0 1400.0
  101975073  150.0  122.0 1998.0 2065.0  500.0    0.0    0.0    0.0  300.0  250.0 1400.0
  101979081  150.0  122.0 1970.0 2049.0  500.0    0.0    0.0    0.0  300.0  250.0 1400.0
  101983085  150.0  122.0 1985.0 2071.0  500.0    0.0    0.0    0.0  300.0  250.0 1400.0
