# 
~VERSION INFORMATION
     VERS.                              2.0:Версия формата LAS
     WRAP.                               NO:Режим одной строчки на временной отчет
~WELL INFORMATION
     STRT.ms                       55825463:Время первой записи в файле
     STOP.ms                      124781941:Время последней записи в файле
     STEP.ms                              0:Шаг времени, 0 - переменный шаг
     NULL.                          -999.25:Метка, нет значения
     DATE.                       09.09.2023:Дата каротажа
      DRV.                                 :Наименование драйвера прибора
     NAME.                             ГГКП:Название прибора
     SNUM.                         23613001:Серийный номер прибора
     FRMW.                         0.23.8.4:Версия прошивки на контроллере прибора
~CURVE INFORMATION
     TIME.ms                       {0,11:0}:Время, количество миллисекунд от начало суток
       MT.°C                               :Температура
      TFG.°                                :Гравитационный поворот
      RSD.имп./сек                         :Счёт, ближний зонд ГГКП
      RLD.имп./сек                         :Счёт, дальний зонд ГГКП
     RHOB.кг/м3                            :Плотность
   HCRHOB.g/cm3                            :Плотность, у.е.
     ADCS.mV                               :Измеренное напряжение порога компараторапо ближнему зонду
     ADCL.mV                               :Измеренное напряжение порога компараторапо дальнему зонду
    THLDS.mV                               :Выставленный порог компараторапо ближнему зонду
    THLDL.mV                               :Выставленный порог компараторапо дальнему зонду
    GRUHV.В                                :Напряжение на высоковольтнике Гамма
~OTHER INFORMATION


~A     TIME     MT    TFG    RSD    RLD   RHOB HCRHOB   ADCS   ADCL  THLDS  THLDL  GRUHV
# ...
   92250598  146.0  120.0 1930.0 2019.0  500.0    0.0    0.0    0.0  300.0  250.0 1400.0
   92254590  146.0  120.0 1957.0 1997.0  500.0    0.0    0.0    0.0  300.0  250.0 1400.0
   92258596  145.0  120.0 2009.0 2036.0  500.0    0.0    0.0    0.0  300.0  250.0 1400.0
   92262597  146.0  120.0 1934.0 2044.0  500.0    0.0    0.0    0.0  300.0  250.0 1400.0
   92266610  146.0  120.0 1959.0 2028.0  500.0    0.0    0.0    0.0  300.0  250.0 1400.0
   92270613  146.0  120.0 1918.0 2042.0  500.0    0.0    0.0    0.0  300.0  250.0 1400.0
   92274625  146.0  120.0 1920.0 2011.0  500.0    0.0    0.0    0.0  300.0  250.0 1400.0
   92278636  146.0  120.0 1916.0 2026.0  500.0    0.0    0.0    0.0  300.0  250.0 1400.0
   92282651  146.0  120.0 1944.0 2088.0  500.0    0.0    0.0    0.0  300.0  250.0 1400.0
   92286663  146.0  120.0 1975.0 2000.0  500.0    0.0    0.0    0.0  300.0  250.0 1400.0
   92290679  146.0  120.0 1967.0 2030.0  500.0    0.0    0.0    0.0  300.0  250.0 1400.0
   92294681  145.0  120.0 1969.0 2021.0  500.0    0.0    0.0    0.0  300.0  250.0 1400.0
   92298689  146.0  120.0 1963.0 2095.0  500.0    0.0    0.0    0.0  300.0  250.0 1400.0
   92302697  146.0  120.0 1946.0 2028.0  500.0    0.0    0.0    0.0  300.0  250.0 1400.0
   92306706  146.0  120.0 1969.0 2072.0  500.0    0.0    0.0    0.0  300.0  250.0 1400.0
   92310715  146.0  120.0 1957.0 2065.0  500.0    0.0    0.0    0.0  300.0  250.0 1400.0
   92314728  146.0  120.0 1959.0 1991.0  500.0    0.0    0.0    0.0  300.0  250.0 1400.0
   92318739  146.0  120.0 1988.0 2033.0  500.0    0.0    0.0    0.0  300.0  250.0 1400.0
   92322739  145.0  120.0 1950.0 2018.0  500.0    0.0    0.0    0.0  300.0  250.0 1400.0
   92326746  145.0  120.0 1994.0 2060.0  500.0    0.0    0.0    0.0  300.0  250.0 1400.0
   92330745  146.0  120.0 1933.0 2046.0  500.0    0.0    0.0    0.0  300.0  250.0 1400.0
   92334752  146.0  120.0 1965.0 2034.0  500.0    0.0    0.0    0.0  300.0  250.0 1400.0
   92338769  146.0  120.0 1967.0 2032.0  500.0    0.0    0.0    0.0  300.0  250.0 1400.0
   92342781  146.0  120.0 1942.0 2073.0  500.0    0.0    0.0    0.0  300.0  250.0 1400.0
   92346783  146.0  120.0 1971.0 2040.0  500.0    0.0    0.0    0.0  300.0  250.0 1400.0
   92350790  146.0  120.0 1964.0 2057.0  500.0    0.0    0.0    0.0  300.0  250.0 1400.0
   92354798  146.0  120.0 1959.0 2062.0  500.0    0.0    0.0    0.0  300.0  250.0 1400.0
   92358797  145.0  120.0 1946.0 1983.0  500.0    0.0    0.0    0.0  300.0  250.0 1400.0
   92362806  145.0  120.0 1904.0 2060.0  500.0    0.0    0.0    0.0  300.0  250.0 1400.0
   92366812  146.0  120.0 1937.0 2035.0  500.0    0.0    0.0    0.0  300.0  250.0 1400.0
   92370818  146.0  120.0 1943.0 2083.0  500.0    0.0    0.0    0.0  300.0  250.0 1400.0
   92374835  146.0  120.0 1938.0 2058.0  500.0    0.0    0.0    0.0  300.0  250.0 1400.0
   92378841  146.0  120.0 1941.0 1998.0  500.0    0.0    0.0    0.0  300.0  250.0 1400.0
   92382853  146.0  120.0 1957.0 2024.0  500.0    0.0    0.0    0.0  300.0  250.0 1400.0
   92386853  146.0  120.0 1962.0 2027.0  500.0    0.0    0.0    0.0  300.0  250.0 1400.0
   92390867  146.0  120.0 1979.0 2023.0  500.0    0.0    0.0    0.0  300.0  250.0 1400.0
   92394876  146.0  120.0 1969.0 2070.0  500.0    0.0    0.0    0.0  300.0  250.0 1400.0
   92398889  146.0  120.0 1949.0 2067.0  500.0    0.0    0.0    0.0  300.0  250.0 1400.0
   92402891  146.0  120.0 1977.0 2026.0  500.0    0.0    0.0    0.0  300.0  250.0 1400.0
   92406899  146.0  120.0 1996.0 2041.0  500.0    0.0    0.0    0.0  300.0  250.0 1400.0
   92410906  146.0  120.0 1964.0 2027.0  500.0    0.0    0.0    0.0  300.0  250.0 1400.0
   92414906  146.0  120.0 1960.0 2051.0  500.0    0.0    0.0    0.0  300.0  250.0 1400.0
   92418920  146.0  120.0 1934.0 2054.0  500.0    0.0    0.0    0.0  300.0  250.0 1400.0
   92422921  146.0  120.0 1910.0 2069.0  500.0    0.0    0.0    0.0  300.0  250.0 1400.0
   92426929  146.0  120.0 1985.0 2081.0  500.0    0.0    0.0    0.0  300.0  250.0 1400.0
   92430939  146.0  120.0 1958.0 2071.0  500.0    0.0    0.0    0.0  300.0  250.0 1400.0
   92434951  146.0  120.0 1976.0 2029.0  500.0    0.0    0.0    0.0  300.0  250.0 1400.0
   92438951  146.0  120.0 1969.0 2046.0  500.0    0.0    0.0    0.0  300.0  250.0 1400.0
   92442956  146.0  120.0 1943.0 2030.0  500.0    0.0    0.0    0.0  300.0  250.0 1400.0
   92446967  146.0  120.0 1947.0 2043.0  500.0    0.0    0.0    0.0  300.0  250.0 1400.0
   92450978  146.0  120.0 1976.0 2069.0  500.0    0.0    0.0    0.0  300.0  250.0 1400.0
   92454982  146.0  120.0 1960.0 2047.0  500.0    0.0    0.0    0.0  300.0  250.0 1400.0
   92458998  146.0  120.0 1961.0 2064.0  500.0    0.0    0.0    0.0  300.0  250.0 1400.0
   92462999  146.0  120.0 1963.0 2029.0  500.0    0.0    0.0    0.0  300.0  250.0 1400.0
   92467007  146.0  120.0 2011.0 2037.0  500.0    0.0    0.0    0.0  300.0  250.0 1400.0
   92471014  146.0  120.0 1984.0 2040.0  500.0    0.0    0.0    0.0  300.0  250.0 1400.0
   92475018  146.0  120.0 1927.0 2065.0  500.0    0.0    0.0    0.0  300.0  250.0 1400.0
   92479029  146.0  120.0 1964.0 2035.0  500.0    0.0    0.0    0.0  300.0  250.0 1400.0
   92483036  146.0  120.0 1978.0 2018.0  500.0    0.0    0.0    0.0  300.0  250.0 1400.0
   92487035  146.0  120.0 1951.0 2050.0  500.0    0.0    0.0    0.0  300.0  250.0 1400.0
   92491035  146.0  120.0 1946.0 2027.0  500.0    0.0    0.0    0.0  300.0  250.0 1400.0
   92495035  146.0  120.0 1954.0 2072.0  500.0    0.0    0.0    0.0  300.0  250.0 1400.0
   92499037  146.0  120.0 1949.0 2060.0  500.0    0.0    0.0    0.0  300.0  250.0 1400.0
   92503038  146.0  120.0 1944.0 2021.0  500.0    0.0    0.0    0.0  300.0  250.0 1400.0
   92507041  146.0  120.0 2003.0 2034.0  500.0    0.0    0.0    0.0  300.0  250.0 1400.0
   92511042  146.0  120.0 2001.0 2040.0  500.0    0.0    0.0    0.0  300.0  250.0 1400.0
   92515047  146.0  120.0 1946.0 2077.0  500.0    0.0    0.0    0.0  300.0  250.0 1400.0
   92519056  146.0  120.0 1939.0 2044.0  500.0    0.0    0.0    0.0  300.0  250.0 1400.0
   92523065  146.0  120.0 1972.0 2040.0  500.0    0.0    0.0    0.0  300.0  250.0 1400.0
   92527069  146.0  120.0 1942.0 2041.0  500.0    0.0    0.0    0.0  300.0  250.0 1400.0
   92531082  146.0  120.0 1936.0 2058.0  500.0    0.0    0.0    0.0  300.0  250.0 1400.0
   92535096  146.0  120.0 1992.0 2076.0  500.0    0.0    0.0    0.0  300.0  250.0 1400.0
   92539099  146.0  120.0 1954.0 2083.0  500.0    0.0    0.0    0.0  300.0  250.0 1400.0
   92543103  146.0  120.0 1958.0 2017.0  500.0    0.0    0.0    0.0  300.0  250.0 1400.0
   92547114  146.0  120.0 1971.0 2033.0  500.0    0.0    0.0    0.0  300.0  250.0 1400.0
   92551125  146.0  120.0 1974.0 2036.0  500.0    0.0    0.0    0.0  300.0  250.0 1400.0
   92555134  146.0  120.0 1989.0 2019.0  500.0    0.0    0.0    0.0  300.0  250.0 1400.0
   92559150  146.0  120.0 1980.0 2010.0  500.0    0.0    0.0    0.0  300.0  250.0 1400.0
   92563150  146.0  120.0 1930.0 2057.0  500.0    0.0    0.0    0.0  300.0  250.0 1400.0
   92567150  146.0  120.0 1946.0 2038.0  500.0    0.0    0.0    0.0  300.0  250.0 1400.0
   92571161  146.0  122.0 1951.0 2023.0  500.0    0.0    0.0    0.0  300.0  250.0 1400.0
   92575161  146.0  120.0 1943.0 2029.0  500.0    0.0    0.0    0.0  300.0  250.0 1400.0
   92579168  146.0  120.0 2002.0 2050.0  500.0    0.0    0.0    0.0  300.0  250.0 1400.0
   92583168  146.0  120.0 1939.0 2051.0  500.0    0.0    0.0    0.0  300.0  250.0 1400.0
   92587181  146.0  120.0 1914.0 2073.0  500.0    0.0    0.0    0.0  300.0  250.0 1400.0
   92591189  146.0  120.0 1985.0 2061.0  500.0    0.0    0.0    0.0  300.0  250.0 1400.0
   92595198  146.0  122.0 1955.0 2030.0  500.0    0.0    0.0    0.0  300.0  250.0 1400.0
   92599204  146.0  120.0 1946.0 2067.0  500.0    0.0    0.0    0.0  300.0  250.0 1400.0
   92603207  146.0  120.0 1963.0 2035.0  500.0    0.0    0.0    0.0  300.0  250.0 1400.0
   92607215  146.0  120.0 1974.0 2034.0  500.0    0.0    0.0    0.0  300.0  250.0 1400.0
