# 
~VERSION INFORMATION
     VERS.                              2.0:Версия формата LAS
     WRAP.                               NO:Режим одной строчки на временной отчет
~WELL INFORMATION
     STRT.ms                       55825463:Время первой записи в файле
     STOP.ms                      124781941:Время последней записи в файле
     STEP.ms                              0:Шаг времени, 0 - переменный шаг
     NULL.                          -999.25:Метка, нет значения
     DATE.                       09.09.2023:Дата каротажа
      DRV.                                 :Наименование драйвера прибора
     NAME.                             ГГКП:Название прибора
     SNUM.                         23613001:Серийный номер прибора
     FRMW.                         0.23.8.4:Версия прошивки на контроллере прибора
~CURVE INFORMATION
     TIME.ms                       {0,11:0}:Время, количество миллисекунд от начало суток
       MT.°C                               :Температура
      TFG.°                                :Гравитационный поворот
      RSD.имп./сек                         :Счёт, ближний зонд ГГКП
      RLD.имп./сек                         :Счёт, дальний зонд ГГКП
     RHOB.кг/м3                            :Плотность
   HCRHOB.g/cm3                            :Плотность, у.е.
     ADCS.mV                               :Измеренное напряжение порога компараторапо ближнему зонду
     ADCL.mV                               :Измеренное напряжение порога компараторапо дальнему зонду
    THLDS.mV                               :Выставленный порог компараторапо ближнему зонду
    THLDL.mV                               :Выставленный порог компараторапо дальнему зонду
    GRUHV.В                                :Напряжение на высоковольтнике Гамма
~OTHER INFORMATION


~A     TIME     MT    TFG    RSD    RLD   RHOB HCRHOB   ADCS   ADCL  THLDS  THLDL  GRUHV
# ...
  115330298  151.0  122.0 1940.0 2066.0  500.0    0.0    0.0    0.0  300.0  250.0 1400.0
  115334307  151.0  122.0 1942.0 2068.0  500.0    0.0    0.0    0.0  300.0  250.0 1400.0
  115338321  151.0  122.0 1972.0 2098.0  500.0    0.0    0.0    0.0  300.0  250.0 1400.0
  115342326  151.0  122.0 1985.0 2083.0  500.0    0.0    0.0    0.0  300.0  250.0 1400.0
  115346326  151.0  122.0 1955.0 2080.0  500.0    0.0    0.0    0.0  300.0  250.0 1400.0
  115350328  151.0  122.0 1936.0 2079.0  500.0    0.0    0.0    0.0  300.0  250.0 1400.0
  115354330  151.0  122.0 1958.0 2104.0  500.0    0.0    0.0    0.0  300.0  250.0 1400.0
  115358330  151.0  122.0 2023.0 2046.0  500.0    0.0    0.0    0.0  300.0  250.0 1400.0
  115362339  151.0  122.0 1988.0 2060.0  500.0    0.0    0.0    0.0  300.0  250.0 1400.0
  115366353  151.0  122.0 2008.0 2053.0  500.0    0.0    0.0    0.0  300.0  250.0 1400.0
  115370361  151.0  122.0 1964.0 2078.0  500.0    0.0    0.0    0.0  300.0  250.0 1400.0
  115374363  151.0  122.0 1973.0 2099.0  500.0    0.0    0.0    0.0  300.0  250.0 1400.0
  115378371  151.0  122.0 1941.0 2026.0  500.0    0.0    0.0    0.0  300.0  250.0 1400.0
  115382371  151.0  122.0 1972.0 2080.0  500.0    0.0    0.0    0.0  300.0  250.0 1400.0
  115386371  151.0  122.0 1985.0 2076.0  500.0    0.0    0.0    0.0  300.0  250.0 1400.0
  115390377  151.0  122.0 1974.0 2073.0  500.0    0.0    0.0    0.0  300.0  250.0 1400.0
  115394377  151.0  122.0 1979.0 2073.0  500.0    0.0    0.0    0.0  300.0  250.0 1400.0
  115398380  151.0  122.0 1947.0 2068.0  500.0    0.0    0.0    0.0  300.0  250.0 1400.0
  115402382  151.0  122.0 1946.0 2075.0  500.0    0.0    0.0    0.0  300.0  250.0 1400.0
  115406386  151.0  122.0 2007.0 2059.0  500.0    0.0    0.0    0.0  300.0  250.0 1400.0
  115410401  151.0  122.0 1966.0 2066.0  500.0    0.0    0.0    0.0  300.0  250.0 1400.0
  115414418  151.0  122.0 1971.0 2049.0  500.0    0.0    0.0    0.0  300.0  250.0 1400.0
  115418431  151.0  122.0 1969.0 2069.0  500.0    0.0    0.0    0.0  300.0  250.0 1400.0
  115422431  151.0  122.0 1957.0 2088.0  500.0    0.0    0.0    0.0  300.0  250.0 1400.0
  115426433  151.0  122.0 2000.0 2091.0  500.0    0.0    0.0    0.0  300.0  250.0 1400.0
  115430445  151.0  122.0 1967.0 2092.0  500.0    0.0    0.0    0.0  300.0  250.0 1400.0
  115434448  151.0  122.0 1966.0 2105.0  500.0    0.0    0.0    0.0  300.0  250.0 1400.0
  115438461  151.0  122.0 1958.0 2091.0  500.0    0.0    0.0    0.0  300.0  250.0 1400.0
  115442469  151.0  122.0 1984.0 2077.0  500.0    0.0    0.0    0.0  300.0  250.0 1400.0
  115446483  151.0  122.0 1946.0 2085.0  500.0    0.0    0.0    0.0  300.0  250.0 1400.0
  115450493  151.0  122.0 1987.0 2091.0  500.0    0.0    0.0    0.0  300.0  250.0 1400.0
  115454502  151.0  122.0 1968.0 2062.0  500.0    0.0    0.0    0.0  300.0  250.0 1400.0
  115458508  151.0  122.0 1942.0 2094.0  500.0    0.0    0.0    0.0  300.0  250.0 1400.0
  115462525  151.0  122.0 1983.0 2035.0  500.0    0.0    0.0    0.0  300.0  250.0 1400.0
  115466536  151.0  122.0 1950.0 2105.0  500.0    0.0    0.0    0.0  300.0  250.0 1400.0
  115470539  151.0  122.0 1972.0 2075.0  500.0    0.0    0.0    0.0  300.0  250.0 1400.0
  115474542  151.0  122.0 1956.0 2058.0  500.0    0.0    0.0    0.0  300.0  250.0 1400.0
  115478542  151.0  122.0 1964.0 2048.0  500.0    0.0    0.0    0.0  300.0  250.0 1400.0
  115482542  151.0  122.0 1967.0 2039.0  500.0    0.0    0.0    0.0  300.0  250.0 1400.0
  115486544  151.0  122.0 1975.0 2054.0  500.0    0.0    0.0    0.0  300.0  250.0 1400.0
  115490543  151.0  122.0 1965.0 2030.0  500.0    0.0    0.0    0.0  300.0  250.0 1400.0
  115494547  151.0  122.0 1947.0 2058.0  500.0    0.0    0.0    0.0  300.0  250.0 1400.0
  115498561  151.0  122.0 1981.0 2087.0  500.0    0.0    0.0    0.0  300.0  250.0 1400.0
  115502561  151.0  122.0 1961.0 2083.0  500.0    0.0    0.0    0.0  300.0  250.0 1400.0
  115506563  151.0  122.0 1949.0 2126.0  500.0    0.0    0.0    0.0  300.0  250.0 1400.0
  115510566  151.0  122.0 1946.0 2086.0  500.0    0.0    0.0    0.0  300.0  250.0 1400.0
  115514568  151.0  122.0 1959.0 2063.0  500.0    0.0    0.0    0.0  300.0  250.0 1400.0
  115518581  151.0  122.0 1970.0 2086.0  500.0    0.0    0.0    0.0  300.0  250.0 1400.0
  115522593  151.0  122.0 1927.0 2095.0  500.0    0.0    0.0    0.0  300.0  250.0 1400.0
  115526595  151.0  122.0 1945.0 2076.0  500.0    0.0    0.0    0.0  300.0  250.0 1400.0
  115530611  151.0  122.0 1969.0 2095.0  500.0    0.0    0.0    0.0  300.0  250.0 1400.0
  115534620  151.0  122.0 1967.0 2062.0  500.0    0.0    0.0    0.0  300.0  250.0 1400.0
  115538619  151.0  122.0 1957.0 2070.0  500.0    0.0    0.0    0.0  300.0  250.0 1400.0
  115542621  151.0  122.0 1985.0 2087.0  500.0    0.0    0.0    0.0  300.0  250.0 1400.0
  115546634  151.0  122.0 1972.0 2062.0  500.0    0.0    0.0    0.0  300.0  250.0 1400.0
  115550643  151.0  122.0 1965.0 2079.0  500.0    0.0    0.0    0.0  300.0  250.0 1400.0
  115554651  151.0  122.0 1952.0 2106.0  500.0    0.0    0.0    0.0  300.0  250.0 1400.0
  115558650  151.0  122.0 1981.0 2116.0  500.0    0.0    0.0    0.0  300.0  250.0 1400.0
  115562655  151.0  122.0 1944.0 2060.0  500.0    0.0    0.0    0.0  300.0  250.0 1400.0
  115566658  151.0  122.0 1989.0 2040.0  500.0    0.0    0.0    0.0  300.0  250.0 1400.0
  115570670  151.0  122.0 1993.0 2043.0  500.0    0.0    0.0    0.0  300.0  250.0 1400.0
  115574692  151.0  122.0 1965.0 2036.0  500.0    0.0    0.0    0.0  300.0  250.0 1400.0
  115578683  151.0  122.0 1951.0 2080.0  500.0    0.0    0.0    0.0  300.0  250.0 1400.0
  115582685  151.0  122.0 1968.0 2052.0  500.0    0.0    0.0    0.0  300.0  250.0 1400.0
  115586696  151.0  122.0 1976.0 2064.0  500.0    0.0    0.0    0.0  300.0  250.0 1400.0
  115590697  151.0  122.0 1990.0 2077.0  500.0    0.0    0.0    0.0  300.0  250.0 1400.0
  115594704  151.0  122.0 1970.0 2092.0  500.0    0.0    0.0    0.0  300.0  250.0 1400.0
  115598708  151.0  122.0 1978.0 2065.0  500.0    0.0    0.0    0.0  300.0  250.0 1400.0
  115602724  151.0  122.0 1948.0 2049.0  500.0    0.0    0.0    0.0  300.0  250.0 1400.0
  115606738  151.0  122.0 1948.0 2094.0  500.0    0.0    0.0    0.0  300.0  250.0 1400.0
  115610736  151.0  122.0 1993.0 2079.0  500.0    0.0    0.0    0.0  300.0  250.0 1400.0
  115614754  151.0  122.0 1987.0 2112.0  500.0    0.0    0.0    0.0  300.0  250.0 1400.0
  115618755  151.0  122.0 1981.0 2069.0  500.0    0.0    0.0    0.0  300.0  250.0 1400.0
  115622772  151.0  122.0 2003.0 2065.0  500.0    0.0    0.0    0.0  300.0  250.0 1400.0
  115626774  151.0  122.0 1990.0 2106.0  500.0    0.0    0.0    0.0  300.0  250.0 1400.0
  115630776  151.0  122.0 1937.0 2074.0  500.0    0.0    0.0    0.0  300.0  250.0 1400.0
  115634776  151.0  122.0 1968.0 2068.0  500.0    0.0    0.0    0.0  300.0  250.0 1400.0
  115638782  151.0  122.0 1944.0 2062.0  500.0    0.0    0.0    0.0  300.0  250.0 1400.0
  115642785  151.0  122.0 1954.0 2087.0  500.0    0.0    0.0    0.0  300.0  250.0 1400.0
  115646800  151.0  122.0 1966.0 2085.0  500.0    0.0    0.0    0.0  300.0  250.0 1400.0
  115650815  151.0  122.0 1950.0 2066.0  500.0    0.0    0.0    0.0  300.0  250.0 1400.0
  115654815  151.0  122.0 1970.0 2042.0  500.0    0.0    0.0    0.0  300.0  250.0 1400.0
  115658818  151.0  122.0 1941.0 2093.0  500.0    0.0    0.0    0.0  300.0  250.0 1400.0
  115662830  151.0  122.0 1963.0 2058.0  500.0    0.0    0.0    0.0  300.0  250.0 1400.0
  115666835  151.0  122.0 1940.0 2054.0  500.0    0.0    0.0    0.0  300.0  250.0 1400.0
  115670836  151.0  122.0 1990.0 2088.0  500.0    0.0    0.0    0.0  300.0  250.0 1400.0
  115674844  151.0  122.0 2009.0 2068.0  500.0    0.0    0.0    0.0  300.0  250.0 1400.0
  115678854  151.0  122.0 1958.0 2082.0  500.0    0.0    0.0    0.0  300.0  250.0 1400.0
  115682862  151.0  122.0 1960.0 2058.0  500.0    0.0    0.0    0.0  300.0  250.0 1400.0
  115686878  151.0  122.0 1988.0 2074.0  500.0    0.0    0.0    0.0  300.0  250.0 1400.0
