# 
~VERSION INFORMATION
     VERS.                              2.0:Версия формата LAS
     WRAP.                               NO:Режим одной строчки на временной отчет
~WELL INFORMATION
     STRT.ms                       55825463:Время первой записи в файле
     STOP.ms                      124781941:Время последней записи в файле
     STEP.ms                              0:Шаг времени, 0 - переменный шаг
     NULL.                          -999.25:Метка, нет значения
     DATE.                       09.09.2023:Дата каротажа
      DRV.                                 :Наименование драйвера прибора
     NAME.                             ГГКП:Название прибора
     SNUM.                         23613001:Серийный номер прибора
     FRMW.                         0.23.8.4:Версия прошивки на контроллере прибора
~CURVE INFORMATION
     TIME.ms                       {0,11:0}:Время, количество миллисекунд от начало суток
       MT.°C                               :Температура
      TFG.°                                :Гравитационный поворот
      RSD.имп./сек                         :Счёт, ближний зонд ГГКП
      RLD.имп./сек                         :Счёт, дальний зонд ГГКП
     RHOB.кг/м3                            :Плотность
   HCRHOB.g/cm3                            :Плотность, у.е.
     ADCS.mV                               :Измеренное напряжение порога компараторапо ближнему зонду
     ADCL.mV                               :Измеренное напряжение порога компараторапо дальнему зонду
    THLDS.mV                               :Выставленный порог компараторапо ближнему зонду
    THLDL.mV                               :Выставленный порог компараторапо дальнему зонду
    GRUHV.В                                :Напряжение на высоковольтнике Гамма
~OTHER INFORMATION


~A     TIME     MT    TFG    RSD    RLD   RHOB HCRHOB   ADCS   ADCL  THLDS  THLDL  GRUHV
# ...
   64841309   42.0  118.0 1960.0 1970.0  500.0    0.0    0.0    0.0  300.0  250.0 1400.0
   64845317   42.0  118.0 1922.0 2000.0  500.0    0.0    0.0    0.0  300.0  250.0 1400.0
   64849322   42.0  118.0 1926.0 2017.0  500.0    0.0    0.0    0.0  300.0  250.0 1400.0
   64853331   42.0  118.0 1939.0 2012.0  500.0    0.0    0.0    0.0  300.0  250.0 1400.0
   64857337   42.0  118.0 1937.0 1969.0  500.0    0.0    0.0    0.0  300.0  250.0 1400.0
   64861351   42.0  118.0 1931.0 1977.0  500.0    0.0    0.0    0.0  300.0  250.0 1400.0
   64865354   42.0  118.0 1909.0 1955.0  500.0    0.0    0.0    0.0  300.0  250.0 1400.0
   64869367   42.0  118.0 1941.0 1996.0  500.0    0.0    0.0    0.0  300.0  250.0 1400.0
   64873374   42.0  118.0 1920.0 2005.0  500.0    0.0    0.0    0.0  300.0  250.0 1400.0
   64877385   42.0  118.0 1943.0 1989.0  500.0    0.0    0.0    0.0  300.0  250.0 1400.0
   64881400   42.0  118.0 1952.0 1990.0  500.0    0.0    0.0    0.0  300.0  250.0 1400.0
   64885410   42.0  118.0 1936.0 1969.0  500.0    0.0    0.0    0.0  300.0  250.0 1400.0
   64889419   42.0  118.0 1919.0 1972.0  500.0    0.0    0.0    0.0  300.0  250.0 1400.0
   64893422   42.0  118.0 1913.0 2001.0  500.0    0.0    0.0    0.0  300.0  250.0 1400.0
   64897423   42.0  118.0 1934.0 1960.0  500.0    0.0    0.0    0.0  300.0  250.0 1400.0
   64901428   42.0  118.0 1929.0 1979.0  500.0    0.0    0.0    0.0  300.0  250.0 1400.0
   64905437   42.0  118.0 1890.0 1994.0  500.0    0.0    0.0    0.0  300.0  250.0 1400.0
   64909445   42.0  118.0 1937.0 1956.0  500.0    0.0    0.0    0.0  300.0  250.0 1400.0
   64913454   42.0  118.0 1962.0 1986.0  500.0    0.0    0.0    0.0  300.0  250.0 1400.0
   64917461   42.0  118.0 1885.0 1993.0  500.0    0.0    0.0    0.0  300.0  250.0 1400.0
   64921470   42.0  118.0 1922.0 2019.0  500.0    0.0    0.0    0.0  300.0  250.0 1400.0
   64925485   42.0  118.0 1929.0 1982.0  500.0    0.0    0.0    0.0  300.0  250.0 1400.0
   64929494   42.0  118.0 1937.0 2022.0  500.0    0.0    0.0    0.0  300.0  250.0 1400.0
   64933499   42.0  118.0 1910.0 2017.0  500.0    0.0    0.0    0.0  300.0  250.0 1400.0
   64937503   42.0  118.0 1907.0 1959.0  500.0    0.0    0.0    0.0  300.0  250.0 1400.0
   64941515   42.0  118.0 1926.0 1977.0  500.0    0.0    0.0    0.0  300.0  250.0 1400.0
   64945518   42.0  118.0 1910.0 1997.0  500.0    0.0    0.0    0.0  300.0  250.0 1400.0
   64949533   42.0  118.0 1907.0 2006.0  500.0    0.0    0.0    0.0  300.0  250.0 1400.0
   64953542   42.0  118.0 1911.0 2028.0  500.0    0.0    0.0    0.0  300.0  250.0 1400.0
   64957541   42.0  118.0 1910.0 1932.0  500.0    0.0    0.0    0.0  300.0  250.0 1400.0
   64961549   42.0  118.0 1918.0 2023.0  500.0    0.0    0.0    0.0  300.0  250.0 1400.0
   64965561   42.0  118.0 1940.0 1976.0  500.0    0.0    0.0    0.0  300.0  250.0 1400.0
   64969570   42.0  118.0 1924.0 2011.0  500.0    0.0    0.0    0.0  300.0  250.0 1400.0
   64973570   42.0  118.0 1907.0 2012.0  500.0    0.0    0.0    0.0  300.0  250.0 1400.0
   64977574   42.0  118.0 1923.0 1986.0  500.0    0.0    0.0    0.0  300.0  250.0 1400.0
   64981587   42.0  118.0 1938.0 1963.0  500.0    0.0    0.0    0.0  300.0  250.0 1400.0
   64985587   42.0  118.0 1907.0 2014.0  500.0    0.0    0.0    0.0  300.0  250.0 1400.0
   64989603   42.0  118.0 1949.0 1998.0  500.0    0.0    0.0    0.0  300.0  250.0 1400.0
   64993603   42.0  118.0 1896.0 1988.0  500.0    0.0    0.0    0.0  300.0  250.0 1400.0
   64997609   42.0  118.0 1958.0 2023.0  500.0    0.0    0.0    0.0  300.0  250.0 1400.0
   65001619   42.0  118.0 1966.0 2030.0  500.0    0.0    0.0    0.0  300.0  250.0 1400.0
   65005627   42.0  118.0 1937.0 2001.0  500.0    0.0    0.0    0.0  300.0  250.0 1400.0
   65009628   42.0  118.0 1966.0 1983.0  500.0    0.0    0.0    0.0  300.0  250.0 1400.0
   65013628   42.0  118.0 1981.0 1967.0  500.0    0.0    0.0    0.0  300.0  250.0 1400.0
   65017634   42.0  118.0 1896.0 1981.0  500.0    0.0    0.0    0.0  300.0  250.0 1400.0
   65021650   42.0  118.0 1893.0 2022.0  500.0    0.0    0.0    0.0  300.0  250.0 1400.0
   65025664   42.0  118.0 1903.0 1951.0  500.0    0.0    0.0    0.0  300.0  250.0 1400.0
   65029675   42.0  118.0 1920.0 1963.0  500.0    0.0    0.0    0.0  300.0  250.0 1400.0
   65033679   42.0  118.0 1919.0 2055.0  500.0    0.0    0.0    0.0  300.0  250.0 1400.0
   65037688   42.0  118.0 1966.0 1973.0  500.0    0.0    0.0    0.0  300.0  250.0 1400.0
   65041695   42.0  118.0 1931.0 1958.0  500.0    0.0    0.0    0.0  300.0  250.0 1400.0
   65045697   42.0  118.0 1939.0 2015.0  500.0    0.0    0.0    0.0  300.0  250.0 1400.0
   65049712   42.0  118.0 1900.0 2023.0  500.0    0.0    0.0    0.0  300.0  250.0 1400.0
   65053740   42.0  118.0 1914.0 2018.0  500.0    0.0    0.0    0.0  300.0  250.0 1400.0
   65057731   42.0  118.0 1956.0 1970.0  500.0    0.0    0.0    0.0  300.0  250.0 1400.0
   65061741   42.0  118.0 1913.0 1967.0  500.0    0.0    0.0    0.0  300.0  250.0 1400.0
   65065742   42.0  118.0 1939.0 1979.0  500.0    0.0    0.0    0.0  300.0  250.0 1400.0
   65069742   42.0  118.0 1910.0 1996.0  500.0    0.0    0.0    0.0  300.0  250.0 1400.0
   65073743   42.0  118.0 1940.0 1984.0  500.0    0.0    0.0    0.0  300.0  250.0 1400.0
   65077750   42.0  118.0 1956.0 1985.0  500.0    0.0    0.0    0.0  300.0  250.0 1400.0
   65081762   42.0  118.0 1922.0 1999.0  500.0    0.0    0.0    0.0  300.0  250.0 1400.0
   65085768   42.0  118.0 1940.0 2005.0  500.0    0.0    0.0    0.0  300.0  250.0 1400.0
   65089775   42.0  118.0 1963.0 1991.0  500.0    0.0    0.0    0.0  300.0  250.0 1400.0
   65093784   42.0  118.0 1915.0 1959.0  500.0    0.0    0.0    0.0  300.0  250.0 1400.0
   65097787   42.0  118.0 1920.0 2011.0  500.0    0.0    0.0    0.0  300.0  250.0 1400.0
   65101787   42.0  118.0 1919.0 1981.0  500.0    0.0    0.0    0.0  300.0  250.0 1400.0
   65105790   42.0  118.0 1923.0 2032.0  500.0    0.0    0.0    0.0  300.0  250.0 1400.0
   65109791   42.0  118.0 1928.0 1974.0  500.0    0.0    0.0    0.0  300.0  250.0 1400.0
   65113787   42.0  118.0 1935.0 1969.0  500.0    0.0    0.0    0.0  300.0  250.0 1400.0
   65117798   42.0  118.0 1954.0 2016.0  500.0    0.0    0.0    0.0  300.0  250.0 1400.0
   65121805   42.0  118.0 1932.0 1965.0  500.0    0.0    0.0    0.0  300.0  250.0 1400.0
   65125809   42.0  118.0 1925.0 1990.0  500.0    0.0    0.0    0.0  300.0  250.0 1400.0
   65129809   42.0  118.0 1941.0 1992.0  500.0    0.0    0.0    0.0  300.0  250.0 1400.0
   65133822   42.0  118.0 1956.0 1978.0  500.0    0.0    0.0    0.0  300.0  250.0 1400.0
   65137831   42.0  118.0 1906.0 1950.0  500.0    0.0    0.0    0.0  300.0  250.0 1400.0
   65141840   42.0  118.0 1938.0 1973.0  500.0    0.0    0.0    0.0  300.0  250.0 1400.0
   65145852   42.0  118.0 1934.0 1986.0  500.0    0.0    0.0    0.0  300.0  250.0 1400.0
   65149855   42.0  118.0 1959.0 1986.0  500.0    0.0    0.0    0.0  300.0  250.0 1400.0
   65153867   42.0  118.0 1901.0 2008.0  500.0    0.0    0.0    0.0  300.0  250.0 1400.0
   65157871   42.0  118.0 1916.0 2002.0  500.0    0.0    0.0    0.0  300.0  250.0 1400.0
   65161888   42.0  118.0 1923.0 2015.0  500.0    0.0    0.0    0.0  300.0  250.0 1400.0
   65165893   42.0  118.0 1939.0 2037.0  500.0    0.0    0.0    0.0  300.0  250.0 1400.0
   65169894   42.0  118.0 1923.0 2001.0  500.0    0.0    0.0    0.0  300.0  250.0 1400.0
   65173905   42.0  118.0 1929.0 1998.0  500.0    0.0    0.0    0.0  300.0  250.0 1400.0
   65177917   42.0  118.0 1975.0 1993.0  500.0    0.0    0.0    0.0  300.0  250.0 1400.0
   65181927   42.0  118.0 1966.0 1978.0  500.0    0.0    0.0    0.0  300.0  250.0 1400.0
   65185934   42.0  118.0 1923.0 1982.0  500.0    0.0    0.0    0.0  300.0  250.0 1400.0
   65189937   42.0  118.0 1903.0 2005.0  500.0    0.0    0.0    0.0  300.0  250.0 1400.0
   65193942   42.0  118.0 1948.0 1963.0  500.0    0.0    0.0    0.0  300.0  250.0 1400.0
   65197957   42.0  118.0 1906.0 1998.0  500.0    0.0    0.0    0.0  300.0  250.0 1400.0
