# 
~VERSION INFORMATION
     VERS.                              2.0:Версия формата LAS
     WRAP.                               NO:Режим одной строчки на временной отчет
~WELL INFORMATION
     STRT.ms                       55825463:Время первой записи в файле
     STOP.ms                      124781941:Время последней записи в файле
     STEP.ms                              0:Шаг времени, 0 - переменный шаг
     NULL.                          -999.25:Метка, нет значения
     DATE.                       09.09.2023:Дата каротажа
      DRV.                                 :Наименование драйвера прибора
     NAME.                             ГГКП:Название прибора
     SNUM.                         23613001:Серийный номер прибора
     FRMW.                         0.23.8.4:Версия прошивки на контроллере прибора
~CURVE INFORMATION
     TIME.ms                       {0,11:0}:Время, количество миллисекунд от начало суток
       MT.°C                               :Температура
      TFG.°                                :Гравитационный поворот
      RSD.имп./сек                         :Счёт, ближний зонд ГГКП
      RLD.имп./сек                         :Счёт, дальний зонд ГГКП
     RHOB.кг/м3                            :Плотность
   HCRHOB.g/cm3                            :Плотность, у.е.
     ADCS.mV                               :Измеренное напряжение порога компараторапо ближнему зонду
     ADCL.mV                               :Измеренное напряжение порога компараторапо дальнему зонду
    THLDS.mV                               :Выставленный порог компараторапо ближнему зонду
    THLDL.mV                               :Выставленный порог компараторапо дальнему зонду
    GRUHV.В                                :Напряжение на высоковольтнике Гамма
~OTHER INFORMATION


~A     TIME     MT    TFG    RSD    RLD   RHOB HCRHOB   ADCS   ADCL  THLDS  THLDL  GRUHV
# ...
  105953907  150.0  122.0 1966.0 2062.0  500.0    0.0    0.0    0.0  300.0  250.0 1400.0
  105957910  150.0  122.0 1972.0 2065.0  500.0    0.0    0.0    0.0  300.0  250.0 1400.0
  105961912  150.0  122.0 1983.0 2062.0  500.0    0.0    0.0    0.0  300.0  250.0 1400.0
  105965918  150.0  122.0 1960.0 2073.0  500.0    0.0    0.0    0.0  300.0  250.0 1400.0
  105969931  150.0  122.0 1946.0 2042.0  500.0    0.0    0.0    0.0  300.0  250.0 1400.0
  105973946  150.0  122.0 2008.0 2077.0  500.0    0.0    0.0    0.0  300.0  250.0 1400.0
  105977949  150.0  122.0 1980.0 2044.0  500.0    0.0    0.0    0.0  300.0  250.0 1400.0
  105981957  150.0  122.0 1960.0 2105.0  500.0    0.0    0.0    0.0  300.0  250.0 1400.0
  105985964  150.0  122.0 1979.0 2073.0  500.0    0.0    0.0    0.0  300.0  250.0 1400.0
  105989966  150.0  122.0 1950.0 2069.0  500.0    0.0    0.0    0.0  300.0  250.0 1400.0
  105993977  150.0  122.0 1960.0 2053.0  500.0    0.0    0.0    0.0  300.0  250.0 1400.0
  105997980  150.0  122.0 1993.0 2045.0  500.0    0.0    0.0    0.0  300.0  250.0 1400.0
  106001994  150.0  122.0 1988.0 2052.0  500.0    0.0    0.0    0.0  300.0  250.0 1400.0
  106006004  150.0  122.0 1999.0 2073.0  500.0    0.0    0.0    0.0  300.0  250.0 1400.0
  106010014  150.0  122.0 2016.0 2028.0  500.0    0.0    0.0    0.0  300.0  250.0 1400.0
  106014014  150.0  122.0 2003.0 2086.0  500.0    0.0    0.0    0.0  300.0  250.0 1400.0
  106018023  150.0  122.0 1938.0 2089.0  500.0    0.0    0.0    0.0  300.0  250.0 1400.0
  106022028  150.0  122.0 1964.0 2028.0  500.0    0.0    0.0    0.0  300.0  250.0 1400.0
  106026030  150.0  122.0 1946.0 2073.0  500.0    0.0    0.0    0.0  300.0  250.0 1400.0
  106030032  150.0  122.0 1960.0 2067.0  500.0    0.0    0.0    0.0  300.0  250.0 1400.0
  106034033  150.0  122.0 1921.0 2084.0  500.0    0.0    0.0    0.0  300.0  250.0 1400.0
  106038033  150.0  122.0 1974.0 2039.0  500.0    0.0    0.0    0.0  300.0  250.0 1400.0
  106042044  150.0  122.0 1949.0 2061.0  500.0    0.0    0.0    0.0  300.0  250.0 1400.0
  106046050  150.0  122.0 1988.0 2065.0  500.0    0.0    0.0    0.0  300.0  250.0 1400.0
  106050058  150.0  122.0 1957.0 2119.0  500.0    0.0    0.0    0.0  300.0  250.0 1400.0
  106054063  150.0  122.0 1986.0 2082.0  500.0    0.0    0.0    0.0  300.0  250.0 1400.0
  106058073  150.0  122.0 1961.0 2081.0  500.0    0.0    0.0    0.0  300.0  250.0 1400.0
  106062088  150.0  122.0 1991.0 2066.0  500.0    0.0    0.0    0.0  300.0  250.0 1400.0
  106066097  150.0  122.0 1959.0 2064.0  500.0    0.0    0.0    0.0  300.0  250.0 1400.0
  106070106  150.0  122.0 1981.0 2094.0  500.0    0.0    0.0    0.0  300.0  250.0 1400.0
  106074115  150.0  122.0 1996.0 2077.0  500.0    0.0    0.0    0.0  300.0  250.0 1400.0
  106078128  150.0  122.0 2025.0 2059.0  500.0    0.0    0.0    0.0  300.0  250.0 1400.0
  106082138  150.0  122.0 1971.0 2013.0  500.0    0.0    0.0    0.0  300.0  250.0 1400.0
  106086147  150.0  122.0 1964.0 2060.0  500.0    0.0    0.0    0.0  300.0  250.0 1400.0
  106090156  150.0  122.0 1967.0 2058.0  500.0    0.0    0.0    0.0  300.0  250.0 1400.0
  106094157  150.0  122.0 1949.0 2095.0  500.0    0.0    0.0    0.0  300.0  250.0 1400.0
  106098157  150.0  122.0 1990.0 2036.0  500.0    0.0    0.0    0.0  300.0  250.0 1400.0
  106102162  150.0  122.0 1943.0 2071.0  500.0    0.0    0.0    0.0  300.0  250.0 1400.0
  106106168  150.0  122.0 2002.0 2045.0  500.0    0.0    0.0    0.0  300.0  250.0 1400.0
  106110170  150.0  122.0 2007.0 2112.0  500.0    0.0    0.0    0.0  300.0  250.0 1400.0
  106114176  150.0  122.0 1945.0 2079.0  500.0    0.0    0.0    0.0  300.0  250.0 1400.0
  106118181  150.0  122.0 1967.0 2033.0  500.0    0.0    0.0    0.0  300.0  250.0 1400.0
  106122195  150.0  122.0 2006.0 2083.0  500.0    0.0    0.0    0.0  300.0  250.0 1400.0
  106126206  150.0  122.0 1969.0 2091.0  500.0    0.0    0.0    0.0  300.0  250.0 1400.0
  106130222  150.0  122.0 1978.0 2085.0  500.0    0.0    0.0    0.0  300.0  250.0 1400.0
  106134234  150.0  122.0 1965.0 2064.0  500.0    0.0    0.0    0.0  300.0  250.0 1400.0
  106138239  150.0  122.0 1975.0 2023.0  500.0    0.0    0.0    0.0  300.0  250.0 1400.0
  106142242  150.0  122.0 1922.0 2052.0  500.0    0.0    0.0    0.0  300.0  250.0 1400.0
  106146248  150.0  122.0 1972.0 2073.0  500.0    0.0    0.0    0.0  300.0  250.0 1400.0
  106150263  150.0  122.0 1933.0 2101.0  500.0    0.0    0.0    0.0  300.0  250.0 1400.0
  106154263  150.0  122.0 1948.0 2101.0  500.0    0.0    0.0    0.0  300.0  250.0 1400.0
  106158264  150.0  122.0 1950.0 2061.0  500.0    0.0    0.0    0.0  300.0  250.0 1400.0
  106162264  150.0  122.0 1971.0 2023.0  500.0    0.0    0.0    0.0  300.0  250.0 1400.0
  106166277  150.0  122.0 2000.0 2042.0  500.0    0.0    0.0    0.0  300.0  250.0 1400.0
  106170264  150.0  122.0 1933.0 2097.0  500.0    0.0    0.0    0.0  300.0  250.0 1400.0
  106174270  150.0  122.0 1939.0 2092.0  500.0    0.0    0.0    0.0  300.0  250.0 1400.0
  106178273  150.0  122.0 1989.0 2062.0  500.0    0.0    0.0    0.0  300.0  250.0 1400.0
  106182272  150.0  122.0 1992.0 2063.0  500.0    0.0    0.0    0.0  300.0  250.0 1400.0
  106186275  150.0  122.0 1945.0 2100.0  500.0    0.0    0.0    0.0  300.0  250.0 1400.0
  106190284  150.0  122.0 1934.0 2039.0  500.0    0.0    0.0    0.0  300.0  250.0 1400.0
  106194300  150.0  122.0 1927.0 2065.0  500.0    0.0    0.0    0.0  300.0  250.0 1400.0
  106198302  150.0  122.0 1981.0 2108.0  500.0    0.0    0.0    0.0  300.0  250.0 1400.0
  106202312  150.0  122.0 1966.0 2055.0  500.0    0.0    0.0    0.0  300.0  250.0 1400.0
  106206327  150.0  122.0 1964.0 2075.0  500.0    0.0    0.0    0.0  300.0  250.0 1400.0
  106210338  150.0  122.0 1979.0 2074.0  500.0    0.0    0.0    0.0  300.0  250.0 1400.0
  106214346  150.0  122.0 1962.0 2084.0  500.0    0.0    0.0    0.0  300.0  250.0 1400.0
  106218349  150.0  122.0 1970.0 2089.0  500.0    0.0    0.0    0.0  300.0  250.0 1400.0
  106222357  150.0  122.0 1986.0 2085.0  500.0    0.0    0.0    0.0  300.0  250.0 1400.0
  106226362  150.0  122.0 1988.0 2056.0  500.0    0.0    0.0    0.0  300.0  250.0 1400.0
  106230369  150.0  122.0 1936.0 2065.0  500.0    0.0    0.0    0.0  300.0  250.0 1400.0
  106234379  150.0  122.0 1983.0 2052.0  500.0    0.0    0.0    0.0  300.0  250.0 1400.0
  106238390  150.0  122.0 1988.0 2043.0  500.0    0.0    0.0    0.0  300.0  250.0 1400.0
  106242405  150.0  122.0 2029.0 2047.0  500.0    0.0    0.0    0.0  300.0  250.0 1400.0
  106246417  150.0  122.0 1960.0 2049.0  500.0    0.0    0.0    0.0  300.0  250.0 1400.0
  106250417  150.0  122.0 1937.0 2037.0  500.0    0.0    0.0    0.0  300.0  250.0 1400.0
  106254420  150.0  122.0 1953.0 2106.0  500.0    0.0    0.0    0.0  300.0  250.0 1400.0
  106258427  150.0  122.0 2003.0 2041.0  500.0    0.0    0.0    0.0  300.0  250.0 1400.0
  106262438  150.0  122.0 1970.0 2080.0  500.0    0.0    0.0    0.0  300.0  250.0 1400.0
  106266448  150.0  122.0 1981.0 2037.0  500.0    0.0    0.0    0.0  300.0  250.0 1400.0
  106270451  150.0  122.0 1998.0 2086.0  500.0    0.0    0.0    0.0  300.0  250.0 1400.0
  106274462  150.0  122.0 1963.0 2058.0  500.0    0.0    0.0    0.0  300.0  250.0 1400.0
  106278468  150.0  122.0 1954.0 2080.0  500.0    0.0    0.0    0.0  300.0  250.0 1400.0
  106282470  150.0  122.0 1949.0 2058.0  500.0    0.0    0.0    0.0  300.0  250.0 1400.0
  106286476  150.0  122.0 2010.0 2080.0  500.0    0.0    0.0    0.0  300.0  250.0 1400.0
  106290490  150.0  122.0 1958.0 2106.0  500.0    0.0    0.0    0.0  300.0  250.0 1400.0
  106294504  150.0  122.0 1935.0 2070.0  500.0    0.0    0.0    0.0  300.0  250.0 1400.0
  106298511  150.0  122.0 1929.0 2061.0  500.0    0.0    0.0    0.0  300.0  250.0 1400.0
  106302526  150.0  122.0 1971.0 2060.0  500.0    0.0    0.0    0.0  300.0  250.0 1400.0
  106306526  150.0  122.0 1996.0 2059.0  500.0    0.0    0.0    0.0  300.0  250.0 1400.0
  106310532  150.0  122.0 1952.0 2101.0  500.0    0.0    0.0    0.0  300.0  250.0 1400.0
