# 
~VERSION INFORMATION
     VERS.                              2.0:Версия формата LAS
     WRAP.                               NO:Режим одной строчки на временной отчет
~WELL INFORMATION
     STRT.ms                       55825463:Время первой записи в файле
     STOP.ms                      124781941:Время последней записи в файле
     STEP.ms                              0:Шаг времени, 0 - переменный шаг
     NULL.                          -999.25:Метка, нет значения
     DATE.                       09.09.2023:Дата каротажа
      DRV.                                 :Наименование драйвера прибора
     NAME.                             ГГКП:Название прибора
     SNUM.                         23613001:Серийный номер прибора
     FRMW.                         0.23.8.4:Версия прошивки на контроллере прибора
~CURVE INFORMATION
     TIME.ms                       {0,11:0}:Время, количество миллисекунд от начало суток
       MT.°C                               :Температура
      TFG.°                                :Гравитационный поворот
      RSD.имп./сек                         :Счёт, ближний зонд ГГКП
      RLD.имп./сек                         :Счёт, дальний зонд ГГКП
     RHOB.кг/м3                            :Плотность
   HCRHOB.g/cm3                            :Плотность, у.е.
     ADCS.mV                               :Измеренное напряжение порога компараторапо ближнему зонду
     ADCL.mV                               :Измеренное напряжение порога компараторапо дальнему зонду
    THLDS.mV                               :Выставленный порог компараторапо ближнему зонду
    THLDL.mV                               :Выставленный порог компараторапо дальнему зонду
    GRUHV.В                                :Напряжение на высоковольтнике Гамма
~OTHER INFORMATION


~A     TIME     MT    TFG    RSD    RLD   RHOB HCRHOB   ADCS   ADCL  THLDS  THLDL  GRUHV
# ...
   96938732  149.0  122.0 1961.0 2067.0  500.0    0.0    0.0    0.0  300.0  250.0 1400.0
   96942732  148.0  122.0 1952.0 2054.0  500.0    0.0    0.0    0.0  300.0  250.0 1400.0
   96946739  148.0  122.0 1980.0 2043.0  500.0    0.0    0.0    0.0  300.0  250.0 1400.0
   96950749  148.0  122.0 1969.0 2099.0  500.0    0.0    0.0    0.0  300.0  250.0 1400.0
   96954758  148.0  122.0 1954.0 2106.0  500.0    0.0    0.0    0.0  300.0  250.0 1400.0
   96958767  148.0  122.0 1932.0 2068.0  500.0    0.0    0.0    0.0  300.0  250.0 1400.0
   96962771  148.0  122.0 1937.0 2027.0  500.0    0.0    0.0    0.0  300.0  250.0 1400.0
   96966777  148.0  122.0 1959.0 2014.0  500.0    0.0    0.0    0.0  300.0  250.0 1400.0
   96970784  148.0  122.0 1988.0 2064.0  500.0    0.0    0.0    0.0  300.0  250.0 1400.0
   96974791  148.0  122.0 1995.0 2070.0  500.0    0.0    0.0    0.0  300.0  250.0 1400.0
   96978787  148.0  122.0 1982.0 2054.0  500.0    0.0    0.0    0.0  300.0  250.0 1400.0
   96982789  148.0  122.0 1953.0 2088.0  500.0    0.0    0.0    0.0  300.0  250.0 1400.0
   96986790  148.0  122.0 1947.0 2048.0  500.0    0.0    0.0    0.0  300.0  250.0 1400.0
   96990790  148.0  122.0 1972.0 2069.0  500.0    0.0    0.0    0.0  300.0  250.0 1400.0
   96994801  148.0  122.0 1966.0 2037.0  500.0    0.0    0.0    0.0  300.0  250.0 1400.0
   96998815  148.0  122.0 1944.0 2071.0  500.0    0.0    0.0    0.0  300.0  250.0 1400.0
   97002816  148.0  122.0 1951.0 2072.0  500.0    0.0    0.0    0.0  300.0  250.0 1400.0
   97006820  148.0  122.0 1941.0 2076.0  500.0    0.0    0.0    0.0  300.0  250.0 1400.0
   97010834  148.0  122.0 1967.0 2058.0  500.0    0.0    0.0    0.0  300.0  250.0 1400.0
   97014843  148.0  122.0 1947.0 2042.0  500.0    0.0    0.0    0.0  300.0  250.0 1400.0
   97018859  148.0  122.0 1983.0 2062.0  500.0    0.0    0.0    0.0  300.0  250.0 1400.0
   97022870  148.0  122.0 1921.0 2065.0  500.0    0.0    0.0    0.0  300.0  250.0 1400.0
   97026882  148.0  122.0 1970.0 2096.0  500.0    0.0    0.0    0.0  300.0  250.0 1400.0
   97030888  148.0  122.0 1943.0 2040.0  500.0    0.0    0.0    0.0  300.0  250.0 1400.0
   97034898  148.0  122.0 1985.0 2041.0  500.0    0.0    0.0    0.0  300.0  250.0 1400.0
   97038898  148.0  122.0 1953.0 2070.0  500.0    0.0    0.0    0.0  300.0  250.0 1400.0
   97042900  148.0  122.0 2001.0 2090.0  500.0    0.0    0.0    0.0  300.0  250.0 1400.0
   97046910  148.0  122.0 1997.0 2050.0  500.0    0.0    0.0    0.0  300.0  250.0 1400.0
   97050919  148.0  122.0 1991.0 2072.0  500.0    0.0    0.0    0.0  300.0  250.0 1400.0
   97054921  148.0  122.0 1989.0 2061.0  500.0    0.0    0.0    0.0  300.0  250.0 1400.0
   97058931  148.0  122.0 1967.0 2043.0  500.0    0.0    0.0    0.0  300.0  250.0 1400.0
   97062940  148.0  122.0 1935.0 2055.0  500.0    0.0    0.0    0.0  300.0  250.0 1400.0
   97066954  148.0  122.0 1944.0 2075.0  500.0    0.0    0.0    0.0  300.0  250.0 1400.0
   97070959  148.0  122.0 1996.0 2039.0  500.0    0.0    0.0    0.0  300.0  250.0 1400.0
   97074962  148.0  122.0 1956.0 2026.0  500.0    0.0    0.0    0.0  300.0  250.0 1400.0
   97078970  148.0  122.0 1959.0 2061.0  500.0    0.0    0.0    0.0  300.0  250.0 1400.0
   97082985  148.0  122.0 1998.0 2065.0  500.0    0.0    0.0    0.0  300.0  250.0 1400.0
   97086992  148.0  122.0 1997.0 2061.0  500.0    0.0    0.0    0.0  300.0  250.0 1400.0
   97091004  148.0  122.0 2021.0 2086.0  500.0    0.0    0.0    0.0  300.0  250.0 1400.0
   97095013  148.0  122.0 1947.0 2060.0  500.0    0.0    0.0    0.0  300.0  250.0 1400.0
   97099014  148.0  122.0 1957.0 2052.0  500.0    0.0    0.0    0.0  300.0  250.0 1400.0
   97103018  148.0  122.0 1982.0 2065.0  500.0    0.0    0.0    0.0  300.0  250.0 1400.0
   97107032  148.0  122.0 1975.0 2057.0  500.0    0.0    0.0    0.0  300.0  250.0 1400.0
   97111035  148.0  122.0 1931.0 2100.0  500.0    0.0    0.0    0.0  300.0  250.0 1400.0
   97115048  148.0  122.0 1945.0 2075.0  500.0    0.0    0.0    0.0  300.0  250.0 1400.0
   97119055  148.0  122.0 1985.0 2060.0  500.0    0.0    0.0    0.0  300.0  250.0 1400.0
   97123062  148.0  122.0 1951.0 2016.0  500.0    0.0    0.0    0.0  300.0  250.0 1400.0
   97127064  148.0  122.0 1940.0 2088.0  500.0    0.0    0.0    0.0  300.0  250.0 1400.0
   97131064  148.0  122.0 1965.0 2060.0  500.0    0.0    0.0    0.0  300.0  250.0 1400.0
   97135064  148.0  122.0 1957.0 2074.0  500.0    0.0    0.0    0.0  300.0  250.0 1400.0
   97139065  148.0  122.0 1995.0 2012.0  500.0    0.0    0.0    0.0  300.0  250.0 1400.0
   97143080  148.0  122.0 1964.0 2055.0  500.0    0.0    0.0    0.0  300.0  250.0 1400.0
   97147092  148.0  122.0 1956.0 2107.0  500.0    0.0    0.0    0.0  300.0  250.0 1400.0
   97151096  148.0  122.0 1965.0 2046.0  500.0    0.0    0.0    0.0  300.0  250.0 1400.0
   97155103  148.0  122.0 1997.0 2064.0  500.0    0.0    0.0    0.0  300.0  250.0 1400.0
   97159110  148.0  122.0 1974.0 2035.0  500.0    0.0    0.0    0.0  300.0  250.0 1400.0
   97163110  148.0  122.0 1985.0 2009.0  500.0    0.0    0.0    0.0  300.0  250.0 1400.0
   97167119  148.0  122.0 1968.0 2048.0  500.0    0.0    0.0    0.0  300.0  250.0 1400.0
   97171132  148.0  122.0 1975.0 2022.0  500.0    0.0    0.0    0.0  300.0  250.0 1400.0
   97175136  148.0  122.0 1955.0 2082.0  500.0    0.0    0.0    0.0  300.0  250.0 1400.0
   97179145  148.0  122.0 1983.0 2052.0  500.0    0.0    0.0    0.0  300.0  250.0 1400.0
   97183147  148.0  122.0 1965.0 2084.0  500.0    0.0    0.0    0.0  300.0  250.0 1400.0
   97187148  149.0  122.0 1980.0 2027.0  500.0    0.0    0.0    0.0  300.0  250.0 1400.0
   97191159  148.0  122.0 1962.0 2049.0  500.0    0.0    0.0    0.0  300.0  250.0 1400.0
   97195161  148.0  122.0 1960.0 2087.0  500.0    0.0    0.0    0.0  300.0  250.0 1400.0
   97199169  148.0  122.0 1940.0 2099.0  500.0    0.0    0.0    0.0  300.0  250.0 1400.0
   97203179  148.0  122.0 1982.0 2064.0  500.0    0.0    0.0    0.0  300.0  250.0 1400.0
   97207189  148.0  122.0 1953.0 2075.0  500.0    0.0    0.0    0.0  300.0  250.0 1400.0
   97211197  148.0  122.0 2011.0 2065.0  500.0    0.0    0.0    0.0  300.0  250.0 1400.0
   97215210  148.0  122.0 1981.0 2038.0  500.0    0.0    0.0    0.0  300.0  250.0 1400.0
   97219219  148.0  122.0 1972.0 2085.0  500.0    0.0    0.0    0.0  300.0  250.0 1400.0
   97223233  148.0  122.0 1939.0 2036.0  500.0    0.0    0.0    0.0  300.0  250.0 1400.0
   97227244  148.0  122.0 1991.0 2061.0  500.0    0.0    0.0    0.0  300.0  250.0 1400.0
   97231253  148.0  122.0 1973.0 2014.0  500.0    0.0    0.0    0.0  300.0  250.0 1400.0
   97235259  148.0  122.0 1965.0 2035.0  500.0    0.0    0.0    0.0  300.0  250.0 1400.0
   97239272  148.0  122.0 1975.0 2097.0  500.0    0.0    0.0    0.0  300.0  250.0 1400.0
   97243282  148.0  122.0 1960.0 2040.0  500.0    0.0    0.0    0.0  300.0  250.0 1400.0
   97247289  148.0  122.0 1972.0 2077.0  500.0    0.0    0.0    0.0  300.0  250.0 1400.0
   97251291  149.0  122.0 1973.0 2034.0  500.0    0.0    0.0    0.0  300.0  250.0 1400.0
   97255291  148.0  122.0 1987.0 2044.0  500.0    0.0    0.0    0.0  300.0  250.0 1400.0
   97259300  148.0  122.0 1975.0 2060.0  500.0    0.0    0.0    0.0  300.0  250.0 1400.0
   97263311  148.0  122.0 1948.0 2066.0  500.0    0.0    0.0    0.0  300.0  250.0 1400.0
   97267320  148.0  122.0 1953.0 2037.0  500.0    0.0    0.0    0.0  300.0  250.0 1400.0
   97271321  148.0  122.0 1954.0 2072.0  500.0    0.0    0.0    0.0  300.0  250.0 1400.0
   97275336  149.0  122.0 1981.0 2045.0  500.0    0.0    0.0    0.0  300.0  250.0 1400.0
   97279337  148.0  122.0 1955.0 2032.0  500.0    0.0    0.0    0.0  300.0  250.0 1400.0
   97283341  148.0  122.0 1964.0 2079.0  500.0    0.0    0.0    0.0  300.0  250.0 1400.0
   97287349  148.0  122.0 1967.0 2034.0  500.0    0.0    0.0    0.0  300.0  250.0 1400.0
   97291358  148.0  122.0 2003.0 2114.0  500.0    0.0    0.0    0.0  300.0  250.0 1400.0
   97295380  148.0  122.0 1953.0 2078.0  500.0    0.0    0.0    0.0  300.0  250.0 1400.0
