# 
~VERSION INFORMATION
     VERS.                              2.0:Версия формата LAS
     WRAP.                               NO:Режим одной строчки на временной отчет
~WELL INFORMATION
     STRT.ms                       55825463:Время первой записи в файле
     STOP.ms                      124781941:Время последней записи в файле
     STEP.ms                              0:Шаг времени, 0 - переменный шаг
     NULL.                          -999.25:Метка, нет значения
     DATE.                       09.09.2023:Дата каротажа
      DRV.                                 :Наименование драйвера прибора
     NAME.                             ГГКП:Название прибора
     SNUM.                         23613001:Серийный номер прибора
     FRMW.                         0.23.8.4:Версия прошивки на контроллере прибора
~CURVE INFORMATION
     TIME.ms                       {0,11:0}:Время, количество миллисекунд от начало суток
       MT.°C                               :Температура
      TFG.°                                :Гравитационный поворот
      RSD.имп./сек                         :Счёт, ближний зонд ГГКП
      RLD.имп./сек                         :Счёт, дальний зонд ГГКП
     RHOB.кг/м3                            :Плотность
   HCRHOB.g/cm3                            :Плотность, у.е.
     ADCS.mV                               :Измеренное напряжение порога компараторапо ближнему зонду
     ADCL.mV                               :Измеренное напряжение порога компараторапо дальнему зонду
    THLDS.mV                               :Выставленный порог компараторапо ближнему зонду
    THLDL.mV                               :Выставленный порог компараторапо дальнему зонду
    GRUHV.В                                :Напряжение на высоковольтнике Гамма
~OTHER INFORMATION


~A     TIME     MT    TFG    RSD    RLD   RHOB HCRHOB   ADCS   ADCL  THLDS  THLDL  GRUHV
# ...
   78546055  113.0  116.0 1927.0 1970.0  500.0    0.0    0.0    0.0  300.0  250.0 1400.0
   78550065  113.0  116.0 1902.0 1944.0  500.0    0.0    0.0    0.0  300.0  250.0 1400.0
   78554068  113.0  116.0 1886.0 1939.0  500.0    0.0    0.0    0.0  300.0  250.0 1400.0
   78558069  113.0  116.0 1896.0 1971.0  500.0    0.0    0.0    0.0  300.0  250.0 1400.0
   78562078  114.0  116.0 1887.0 1937.0  500.0    0.0    0.0    0.0  300.0  250.0 1400.0
   78566093  114.0  116.0 1877.0 1950.0  500.0    0.0    0.0    0.0  300.0  250.0 1400.0
   78570096  113.0  116.0 1897.0 1963.0  500.0    0.0    0.0    0.0  300.0  250.0 1400.0
   78574097  114.0  116.0 1897.0 1990.0  500.0    0.0    0.0    0.0  300.0  250.0 1400.0
   78578098  114.0  116.0 1910.0 1986.0  500.0    0.0    0.0    0.0  300.0  250.0 1400.0
   78582108  114.0  116.0 1914.0 1969.0  500.0    0.0    0.0    0.0  300.0  250.0 1400.0
   78586115  114.0  116.0 1886.0 2022.0  500.0    0.0    0.0    0.0  300.0  250.0 1400.0
   78590119  114.0  116.0 1903.0 1994.0  500.0    0.0    0.0    0.0  300.0  250.0 1400.0
   78594128  114.0  116.0 1892.0 1959.0  500.0    0.0    0.0    0.0  300.0  250.0 1400.0
   78598135  114.0  116.0 1934.0 2025.0  500.0    0.0    0.0    0.0  300.0  250.0 1400.0
   78602157  114.0  116.0 1934.0 2010.0  500.0    0.0    0.0    0.0  300.0  250.0 1400.0
   78606163  114.0  116.0 1890.0 2005.0  500.0    0.0    0.0    0.0  300.0  250.0 1400.0
   78610175  114.0  116.0 1953.0 1994.0  500.0    0.0    0.0    0.0  300.0  250.0 1400.0
   78614181  114.0  116.0 1944.0 2019.0  500.0    0.0    0.0    0.0  300.0  250.0 1400.0
   78618190  114.0  116.0 1941.0 2007.0  500.0    0.0    0.0    0.0  300.0  250.0 1400.0
   78622193  114.0  116.0 1894.0 2009.0  500.0    0.0    0.0    0.0  300.0  250.0 1400.0
   78626197  114.0  116.0 1926.0 1980.0  500.0    0.0    0.0    0.0  300.0  250.0 1400.0
   78630209  114.0  116.0 1937.0 2022.0  500.0    0.0    0.0    0.0  300.0  250.0 1400.0
   78634211  114.0  116.0 1964.0 1968.0  500.0    0.0    0.0    0.0  300.0  250.0 1400.0
   78638211  114.0  116.0 1894.0 1951.0  500.0    0.0    0.0    0.0  300.0  250.0 1400.0
   78642212  114.0  116.0 1951.0 1973.0  500.0    0.0    0.0    0.0  300.0  250.0 1400.0
   78646228  114.0  116.0 1885.0 1935.0  500.0    0.0    0.0    0.0  300.0  250.0 1400.0
   78650225  114.0  116.0 1863.0 1968.0  500.0    0.0    0.0    0.0  300.0  250.0 1400.0
   78654233  114.0  116.0 1912.0 1987.0  500.0    0.0    0.0    0.0  300.0  250.0 1400.0
   78658242  114.0  116.0 1892.0 1984.0  500.0    0.0    0.0    0.0  300.0  250.0 1400.0
   78662244  114.0  116.0 1946.0 1981.0  500.0    0.0    0.0    0.0  300.0  250.0 1400.0
   78666258  114.0  116.0 1911.0 1976.0  500.0    0.0    0.0    0.0  300.0  250.0 1400.0
   78670264  114.0  116.0 1881.0 1926.0  500.0    0.0    0.0    0.0  300.0  250.0 1400.0
   78674264  114.0  116.0 1926.0 1986.0  500.0    0.0    0.0    0.0  300.0  250.0 1400.0
   78678265  114.0  116.0 1908.0 1978.0  500.0    0.0    0.0    0.0  300.0  250.0 1400.0
   78682265  114.0  116.0 1923.0 1994.0  500.0    0.0    0.0    0.0  300.0  250.0 1400.0
   78686282  114.0  116.0 1941.0 1970.0  500.0    0.0    0.0    0.0  300.0  250.0 1400.0
   78690286  114.0  116.0 1912.0 1981.0  500.0    0.0    0.0    0.0  300.0  250.0 1400.0
   78694286  114.0  116.0 1924.0 1962.0  500.0    0.0    0.0    0.0  300.0  250.0 1400.0
   78698286  114.0  116.0 1889.0 1965.0  500.0    0.0    0.0    0.0  300.0  250.0 1400.0
   78702287  114.0  116.0 1906.0 1993.0  500.0    0.0    0.0    0.0  300.0  250.0 1400.0
   78706300  114.0  116.0 1884.0 1999.0  500.0    0.0    0.0    0.0  300.0  250.0 1400.0
   78710306  114.0  116.0 1913.0 1975.0  500.0    0.0    0.0    0.0  300.0  250.0 1400.0
   78714321  114.0  116.0 1924.0 1956.0  500.0    0.0    0.0    0.0  300.0  250.0 1400.0
   78718323  114.0  116.0 1842.0 1980.0  500.0    0.0    0.0    0.0  300.0  250.0 1400.0
   78722336  114.0  116.0 1892.0 2003.0  500.0    0.0    0.0    0.0  300.0  250.0 1400.0
   78726336  114.0  116.0 1887.0 1987.0  500.0    0.0    0.0    0.0  300.0  250.0 1400.0
   78730344  114.0  116.0 1932.0 2012.0  500.0    0.0    0.0    0.0  300.0  250.0 1400.0
   78734346  114.0  116.0 1898.0 2004.0  500.0    0.0    0.0    0.0  300.0  250.0 1400.0
   78738347  114.0  116.0 1896.0 1994.0  500.0    0.0    0.0    0.0  300.0  250.0 1400.0
   78742358  114.0  116.0 1932.0 1951.0  500.0    0.0    0.0    0.0  300.0  250.0 1400.0
   78746358  115.0  116.0 1913.0 1983.0  500.0    0.0    0.0    0.0  300.0  250.0 1400.0
   78750360  115.0  116.0 1936.0 1995.0  500.0    0.0    0.0    0.0  300.0  250.0 1400.0
   78754369  114.0  116.0 1903.0 1955.0  500.0    0.0    0.0    0.0  300.0  250.0 1400.0
   78758373  114.0  116.0 1899.0 2012.0  500.0    0.0    0.0    0.0  300.0  250.0 1400.0
   78762387  115.0  116.0 1885.0 1990.0  500.0    0.0    0.0    0.0  300.0  250.0 1400.0
   78766387  115.0  116.0 1899.0 1982.0  500.0    0.0    0.0    0.0  300.0  250.0 1400.0
   78770388  115.0  116.0 1880.0 2008.0  500.0    0.0    0.0    0.0  300.0  250.0 1400.0
   78774389  115.0  116.0 1895.0 1968.0  500.0    0.0    0.0    0.0  300.0  250.0 1400.0
   78778389  115.0  116.0 1889.0 1984.0  500.0    0.0    0.0    0.0  300.0  250.0 1400.0
   78782398  115.0  116.0 1905.0 1983.0  500.0    0.0    0.0    0.0  300.0  250.0 1400.0
   78786400  115.0  116.0 1872.0 2002.0  500.0    0.0    0.0    0.0  300.0  250.0 1400.0
   78790410  115.0  116.0 1908.0 1980.0  500.0    0.0    0.0    0.0  300.0  250.0 1400.0
   78794411  115.0  116.0 1930.0 1987.0  500.0    0.0    0.0    0.0  300.0  250.0 1400.0
   78798419  115.0  116.0 1920.0 1980.0  500.0    0.0    0.0    0.0  300.0  250.0 1400.0
   78802424  115.0  116.0 1935.0 1986.0  500.0    0.0    0.0    0.0  300.0  250.0 1400.0
   78806430  115.0  116.0 1930.0 2015.0  500.0    0.0    0.0    0.0  300.0  250.0 1400.0
   78810438  115.0  116.0 1905.0 1984.0  500.0    0.0    0.0    0.0  300.0  250.0 1400.0
   78814452  115.0  116.0 1920.0 1971.0  500.0    0.0    0.0    0.0  300.0  250.0 1400.0
   78818454  115.0  116.0 1918.0 1986.0  500.0    0.0    0.0    0.0  300.0  250.0 1400.0
   78822463  115.0  116.0 1890.0 2002.0  500.0    0.0    0.0    0.0  300.0  250.0 1400.0
   78826465  115.0  116.0 1891.0 1989.0  500.0    0.0    0.0    0.0  300.0  250.0 1400.0
   78830473  115.0  116.0 1917.0 1963.0  500.0    0.0    0.0    0.0  300.0  250.0 1400.0
   78834488  115.0  116.0 1875.0 1980.0  500.0    0.0    0.0    0.0  300.0  250.0 1400.0
   78838497  115.0  116.0 1946.0 1967.0  500.0    0.0    0.0    0.0  300.0  250.0 1400.0
   78842510  115.0  116.0 1903.0 1999.0  500.0    0.0    0.0    0.0  300.0  250.0 1400.0
   78846515  115.0  116.0 1897.0 1976.0  500.0    0.0    0.0    0.0  300.0  250.0 1400.0
   78850526  115.0  116.0 1907.0 1984.0  500.0    0.0    0.0    0.0  300.0  250.0 1400.0
   78854532  115.0  116.0 1906.0 2003.0  500.0    0.0    0.0    0.0  300.0  250.0 1400.0
   78858541  115.0  116.0 1894.0 2027.0  500.0    0.0    0.0    0.0  300.0  250.0 1400.0
   78862541  115.0  116.0 1934.0 1994.0  500.0    0.0    0.0    0.0  300.0  250.0 1400.0
   78866558  115.0  116.0 1921.0 1967.0  500.0    0.0    0.0    0.0  300.0  250.0 1400.0
   78870564  115.0  116.0 1923.0 2004.0  500.0    0.0    0.0    0.0  300.0  250.0 1400.0
   78874573  115.0  116.0 1898.0 1958.0  500.0    0.0    0.0    0.0  300.0  250.0 1400.0
   78878577  115.0  116.0 1903.0 2009.0  500.0    0.0    0.0    0.0  300.0  250.0 1400.0
   78882587  115.0  116.0 1875.0 1994.0  500.0    0.0    0.0    0.0  300.0  250.0 1400.0
   78886594  115.0  116.0 1924.0 1999.0  500.0    0.0    0.0    0.0  300.0  250.0 1400.0
   78890605  115.0  116.0 1892.0 1972.0  500.0    0.0    0.0    0.0  300.0  250.0 1400.0
   78894604  115.0  116.0 1848.0 2033.0  500.0    0.0    0.0    0.0  300.0  250.0 1400.0
   78898604  115.0  116.0 1907.0 1968.0  500.0    0.0    0.0    0.0  300.0  250.0 1400.0
   78902621  115.0  116.0 1895.0 1981.0  500.0    0.0    0.0    0.0  300.0  250.0 1400.0
